{"type": "FeatureCollection", "features": [{"type": "Feature", "geometry": {"type": "Point", "coordinates": [121.46386801632543, 31.20969284715369]}, "properties": {"name": "\u8336\u623f(\u7530\u5b50\u574a\u4e00\u5e97)", "biz": "050600|061400|061200 \u9910\u996e\u670d\u52a1;\u8336\u827a\u9986;\u8336\u827a\u9986|\u8d2d\u7269\u670d\u52a1;\u4e2a\u4eba\u7528\u54c1/\u5316\u5986\u54c1\u5e97;\u5176\u5b83\u4e2a\u4eba\u7528\u54c1\u5e97|\u8d2d\u7269\u670d\u52a1;\u4e13\u5356\u5e97;\u4e13\u8425\u5e97", "pty": "0506"}}, {"type": "Feature", "geometry": {"type": "Point", "coordinates": [121.48853775075436, 31.182457992787203]}, "properties": {"name": "\u96ea\u5929\u4f7f(\u4e16\u535a\u6e905\u533a)", "biz": "050500|061400|050800 \u9910\u996e\u670d\u52a1;\u5496\u5561\u5385;\u5496\u5561\u5385|\u8d2d\u7269\u670d\u52a1;\u4e2a\u4eba\u7528\u54c1/\u5316\u5986\u54c1\u5e97;\u5176\u5b83\u4e2a\u4eba\u7528\u54c1\u5e97|\u9910\u996e\u670d\u52a1;\u7cd5\u997c\u5e97;\u7cd5\u997c\u5e97", "pty": "0505"}}, {"type": "Feature", "geometry": {"type": "Point", "coordinates": [121.46922871473156, 31.23694328659288]}, "properties": {"name": "GIVENCHY(\u65b0\u4e16\u754c\u57ce)", "biz": "061101|061200|061400 \u8d2d\u7269\u670d\u52a1;\u670d\u88c5\u978b\u5e3d\u76ae\u5177\u5e97;\u54c1\u724c\u670d\u88c5\u5e97|\u8d2d\u7269\u670d\u52a1;\u4e13\u5356\u5e97;\u4e13\u8425\u5e97|\u8d2d\u7269\u670d\u52a1;\u4e2a\u4eba\u7528\u54c1/\u5316\u5986\u54c1\u5e97;\u5176\u5b83\u4e2a\u4eba\u7528\u54c1\u5e97", "pty": "0611"}}, {"type": "Feature", "geometry": {"type": "Point", "coordinates": [121.48631494793766, 31.228219170742623]}, "properties": {"name": "\u4e0a\u6d77\u5973\u4eba(\u65d7\u8230\u5e97)", "biz": "061202|061400 \u8d2d\u7269\u670d\u52a1;\u4e13\u5356\u5e97;\u73e0\u5b9d\u9996\u9970\u5de5\u827a\u54c1|\u8d2d\u7269\u670d\u52a1;\u4e2a\u4eba\u7528\u54c1/\u5316\u5986\u54c1\u5e97;\u5176\u5b83\u4e2a\u4eba\u7528\u54c1\u5e97", "pty": "0612"}}, {"type": "Feature", "geometry": {"type": "Point", "coordinates": [121.45795634152968, 31.21999803537509]}, "properties": {"name": "La Colline", "biz": "061203|061400 \u8d2d\u7269\u670d\u52a1;\u4e13\u5356\u5e97;\u949f\u8868\u5e97|\u8d2d\u7269\u670d\u52a1;\u4e2a\u4eba\u7528\u54c1/\u5316\u5986\u54c1\u5e97;\u5176\u5b83\u4e2a\u4eba\u7528\u54c1\u5e97", "pty": "0612"}}, {"type": "Feature", "geometry": {"type": "Point", "coordinates": [121.46048005036442, 31.217071665728888]}, "properties": {"name": "\u54c8\u91cc", "biz": "061207|061400 \u8d2d\u7269\u670d\u52a1;\u4e13\u5356\u5e97;\u513f\u7ae5\u7528\u54c1\u5e97|\u8d2d\u7269\u670d\u52a1;\u4e2a\u4eba\u7528\u54c1/\u5316\u5986\u54c1\u5e97;\u5176\u5b83\u4e2a\u4eba\u7528\u54c1\u5e97", "pty": "0612"}}, {"type": "Feature", "geometry": {"type": "Point", "coordinates": [121.45990003185817, 31.2203986377425]}, "properties": {"name": "\u838e\u66fc\u838e(\u4e1c\u65b9\u5546\u53a6\u6dee\u6d77\u5e97)", "biz": "061401 \u8d2d\u7269\u670d\u52a1;\u4e2a\u4eba\u7528\u54c1/\u5316\u5986\u54c1\u5e97;\u838e\u838e", "pty": "0614"}}, {"type": "Feature", "geometry": {"type": "Point", "coordinates": [121.46584704225987, 31.223328538429158]}, "properties": {"name": "\u838e\u838e(\u5987\u5973\u7528\u54c1\u5546\u5e97\u6dee\u6d77\u4e2d\u8def\u603b\u5e97)", "biz": "061401 \u8d2d\u7269\u670d\u52a1;\u4e2a\u4eba\u7528\u54c1/\u5316\u5986\u54c1\u5e97;\u838e\u838e", "pty": "0614"}}, {"type": "Feature", "geometry": {"type": "Point", "coordinates": [121.43253525114217, 31.196310314538426]}, "properties": {"name": "\u50b2\u80dc(\u6e2f\u6c47\u6052\u9686\u5e7f\u573a)", "biz": "060301|061400 \u8d2d\u7269\u670d\u52a1;\u5bb6\u7535\u7535\u5b50\u5356\u573a;\u7efc\u5408\u5bb6\u7535\u5546\u573a|\u8d2d\u7269\u670d\u52a1;\u4e2a\u4eba\u7528\u54c1/\u5316\u5986\u54c1\u5e97;\u5176\u5b83\u4e2a\u4eba\u7528\u54c1\u5e97", "pty": "0603"}}, {"type": "Feature", "geometry": {"type": "Point", "coordinates": [121.39954184131035, 31.24185883128437]}, "properties": {"name": "\u9edb\u5c14\u5983(\u6842\u5df7\u8def)", "biz": "061101|061400 \u8d2d\u7269\u670d\u52a1;\u670d\u88c5\u978b\u5e3d\u76ae\u5177\u5e97;\u54c1\u724c\u670d\u88c5\u5e97|\u8d2d\u7269\u670d\u52a1;\u4e2a\u4eba\u7528\u54c1/\u5316\u5986\u54c1\u5e97;\u5176\u5b83\u4e2a\u4eba\u7528\u54c1\u5e97", "pty": "0611"}}, {"type": "Feature", "geometry": {"type": "Point", "coordinates": [121.41836351680685, 31.23991015204821]}, "properties": {"name": "\u68a6\u6cca\u5a77(\u6211\u683c\u5e7f\u573a)", "biz": "061202|061400 \u8d2d\u7269\u670d\u52a1;\u4e13\u5356\u5e97;\u73e0\u5b9d\u9996\u9970\u5de5\u827a\u54c1|\u8d2d\u7269\u670d\u52a1;\u4e2a\u4eba\u7528\u54c1/\u5316\u5986\u54c1\u5e97;\u5176\u5b83\u4e2a\u4eba\u7528\u54c1\u5e97", "pty": "0612"}}, {"type": "Feature", "geometry": {"type": "Point", "coordinates": [121.47873062827725, 31.26019955163341]}, "properties": {"name": "\u534e\u949f\u889c\u5b50(\u5df4\u9ece\u6625\u5929\u8679\u53e3\u5e97)", "biz": "061101|061400 \u8d2d\u7269\u670d\u52a1;\u670d\u88c5\u978b\u5e3d\u76ae\u5177\u5e97;\u54c1\u724c\u670d\u88c5\u5e97|\u8d2d\u7269\u670d\u52a1;\u4e2a\u4eba\u7528\u54c1/\u5316\u5986\u54c1\u5e97;\u5176\u5b83\u4e2a\u4eba\u7528\u54c1\u5e97", "pty": "0611"}}, {"type": "Feature", "geometry": {"type": "Point", "coordinates": [121.4787476838181, 31.260238583783213]}, "properties": {"name": "VERSACE(\u5df4\u9ece\u6625\u5929\u8679\u53e3\u5e97)", "biz": "061101|061400 \u8d2d\u7269\u670d\u52a1;\u670d\u88c5\u978b\u5e3d\u76ae\u5177\u5e97;\u54c1\u724c\u670d\u88c5\u5e97|\u8d2d\u7269\u670d\u52a1;\u4e2a\u4eba\u7528\u54c1/\u5316\u5986\u54c1\u5e97;\u5176\u5b83\u4e2a\u4eba\u7528\u54c1\u5e97", "pty": "0611"}}, {"type": "Feature", "geometry": {"type": "Point", "coordinates": [121.4788319767223, 31.260216836271244]}, "properties": {"name": "CAT(\u5df4\u9ece\u6625\u5929\u8679\u53e3\u5e97)", "biz": "061102|061400 \u8d2d\u7269\u670d\u52a1;\u670d\u88c5\u978b\u5e3d\u76ae\u5177\u5e97;\u54c1\u724c\u978b\u5e97|\u8d2d\u7269\u670d\u52a1;\u4e2a\u4eba\u7528\u54c1/\u5316\u5986\u54c1\u5e97;\u5176\u5b83\u4e2a\u4eba\u7528\u54c1\u5e97", "pty": "0611"}}, {"type": "Feature", "geometry": {"type": "Point", "coordinates": [121.47856720258791, 31.24687197478032]}, "properties": {"name": "SASA", "biz": "061401 \u8d2d\u7269\u670d\u52a1;\u4e2a\u4eba\u7528\u54c1/\u5316\u5986\u54c1\u5e97;\u838e\u838e", "pty": "0614"}}, {"type": "Feature", "geometry": {"type": "Point", "coordinates": [121.50834950081376, 31.304186215493452]}, "properties": {"name": "HOLA(\u4e0a\u6d77\u4e94\u89d2\u573a\u5e97)", "biz": "060602|061400 \u8d2d\u7269\u670d\u52a1;\u5bb6\u5c45\u5efa\u6750\u5e02\u573a;\u5bb6\u5177\u57ce|\u8d2d\u7269\u670d\u52a1;\u4e2a\u4eba\u7528\u54c1/\u5316\u5986\u54c1\u5e97;\u5176\u5b83\u4e2a\u4eba\u7528\u54c1\u5e97", "pty": "0606"}}, {"type": "Feature", "geometry": {"type": "Point", "coordinates": [121.39566514884424, 31.134517344962966]}, "properties": {"name": "\u6749\u6749(\u767e\u8054\u5357\u65b9\u8d2d\u7269\u4e2d\u5fc3)", "biz": "061101|061401 \u8d2d\u7269\u670d\u52a1;\u670d\u88c5\u978b\u5e3d\u76ae\u5177\u5e97;\u54c1\u724c\u670d\u88c5\u5e97|\u8d2d\u7269\u670d\u52a1;\u4e2a\u4eba\u7528\u54c1/\u5316\u5986\u54c1\u5e97;\u838e\u838e", "pty": "0611"}}, {"type": "Feature", "geometry": {"type": "Point", "coordinates": [121.3242345478924, 31.19579036961717]}, "properties": {"name": "VERSACE(\u8679\u6865\u7efc\u5408\u4ea4\u901a\u67a2\u7ebd)", "biz": "061104|061400 \u8d2d\u7269\u670d\u52a1;\u670d\u88c5\u978b\u5e3d\u76ae\u5177\u5e97;\u54c1\u724c\u7bb1\u5305\u5e97|\u8d2d\u7269\u670d\u52a1;\u4e2a\u4eba\u7528\u54c1/\u5316\u5986\u54c1\u5e97;\u5176\u5b83\u4e2a\u4eba\u7528\u54c1\u5e97", "pty": "0611"}}, {"type": "Feature", "geometry": {"type": "Point", "coordinates": [121.31675957250496, 31.19589562622789]}, "properties": {"name": "Sasa(\u8679\u6865\u7efc\u5408\u4ea4\u901a\u67a2\u7ebd)", "biz": "061401 \u8d2d\u7269\u670d\u52a1;\u4e2a\u4eba\u7528\u54c1/\u5316\u5986\u54c1\u5e97;\u838e\u838e", "pty": "0614"}}, {"type": "Feature", "geometry": {"type": "Point", "coordinates": [121.4067373454722, 31.27243414736997]}, "properties": {"name": "VERSACE(\u5df4\u9ece\u6625\u5929)", "biz": "061101|061400 \u8d2d\u7269\u670d\u52a1;\u670d\u88c5\u978b\u5e3d\u76ae\u5177\u5e97;\u54c1\u724c\u670d\u88c5\u5e97|\u8d2d\u7269\u670d\u52a1;\u4e2a\u4eba\u7528\u54c1/\u5316\u5986\u54c1\u5e97;\u5176\u5b83\u4e2a\u4eba\u7528\u54c1\u5e97", "pty": "0611"}}, {"type": "Feature", "geometry": {"type": "Point", "coordinates": [121.4038572946014, 31.327935282594527]}, "properties": {"name": "\u838e\u838e", "biz": "061401 \u8d2d\u7269\u670d\u52a1;\u4e2a\u4eba\u7528\u54c1/\u5316\u5986\u54c1\u5e97;\u838e\u838e", "pty": "0614"}}, {"type": "Feature", "geometry": {"type": "Point", "coordinates": [121.24414127369556, 31.386686493415926]}, "properties": {"name": "\u90fd\u5e02\u4e3d\u4eba(\u6e05\u6cb3\u8def723\u5e97)", "biz": "061101|061400 \u8d2d\u7269\u670d\u52a1;\u670d\u88c5\u978b\u5e3d\u76ae\u5177\u5e97;\u54c1\u724c\u670d\u88c5\u5e97|\u8d2d\u7269\u670d\u52a1;\u4e2a\u4eba\u7528\u54c1/\u5316\u5986\u54c1\u5e97;\u5176\u5b83\u4e2a\u4eba\u7528\u54c1\u5e97", "pty": "0611"}}, {"type": "Feature", "geometry": {"type": "Point", "coordinates": [121.39802427491918, 31.212699368262104]}, "properties": {"name": "\u838e\u838e(\u5929\u5c71\u8def)", "biz": "061401 \u8d2d\u7269\u670d\u52a1;\u4e2a\u4eba\u7528\u54c1/\u5316\u5986\u54c1\u5e97;\u838e\u838e", "pty": "0614"}}, {"type": "Feature", "geometry": {"type": "Point", "coordinates": [121.44153914729038, 31.225906526158248]}, "properties": {"name": "VERSACE(\u4e45\u5149\u767e\u8d27)", "biz": "060606|061101|061400 \u8d2d\u7269\u670d\u52a1;\u5bb6\u5c45\u5efa\u6750\u5e02\u573a;\u706f\u5177\u74f7\u5668\u5e02\u573a|\u8d2d\u7269\u670d\u52a1;\u670d\u88c5\u978b\u5e3d\u76ae\u5177\u5e97;\u54c1\u724c\u670d\u88c5\u5e97|\u8d2d\u7269\u670d\u52a1;\u4e2a\u4eba\u7528\u54c1/\u5316\u5986\u54c1\u5e97;\u5176\u5b83\u4e2a\u4eba\u7528\u54c1\u5e97", "pty": "0606"}}, {"type": "Feature", "geometry": {"type": "Point", "coordinates": [121.44945003805435, 31.229769814927984]}, "properties": {"name": "CHANEL(\u6052\u9686\u5e7f\u573a)", "biz": "061101|061400 \u8d2d\u7269\u670d\u52a1;\u670d\u88c5\u978b\u5e3d\u76ae\u5177\u5e97;\u54c1\u724c\u670d\u88c5\u5e97|\u8d2d\u7269\u670d\u52a1;\u4e2a\u4eba\u7528\u54c1/\u5316\u5986\u54c1\u5e97;\u5176\u5b83\u4e2a\u4eba\u7528\u54c1\u5e97", "pty": "0611"}}, {"type": "Feature", "geometry": {"type": "Point", "coordinates": [121.44137879772505, 31.225767288743285]}, "properties": {"name": "prada(\u4e45\u5149\u5e97)", "biz": "061104|061400 \u8d2d\u7269\u670d\u52a1;\u670d\u88c5\u978b\u5e3d\u76ae\u5177\u5e97;\u54c1\u724c\u7bb1\u5305\u5e97|\u8d2d\u7269\u670d\u52a1;\u4e2a\u4eba\u7528\u54c1/\u5316\u5986\u54c1\u5e97;\u5176\u5b83\u4e2a\u4eba\u7528\u54c1\u5e97", "pty": "0611"}}, {"type": "Feature", "geometry": {"type": "Point", "coordinates": [121.4760846534803, 31.24737264515692]}, "properties": {"name": "\u838e\u838e(\u4e0a\u6d77\u8c6a\u6d66\u670d\u9970\u57ce)", "biz": "061401 \u8d2d\u7269\u670d\u52a1;\u4e2a\u4eba\u7528\u54c1/\u5316\u5986\u54c1\u5e97;\u838e\u838e", "pty": "0614"}}, {"type": "Feature", "geometry": {"type": "Point", "coordinates": [121.32315965348938, 31.350413352025562]}, "properties": {"name": "\u54ce\u5440\u5440\u5973\u53cb\u5986\u56ed", "biz": "061209|061400 \u8d2d\u7269\u670d\u52a1;\u4e13\u5356\u5e97;\u793c\u54c1\u9970\u54c1\u5e97|\u8d2d\u7269\u670d\u52a1;\u4e2a\u4eba\u7528\u54c1/\u5316\u5986\u54c1\u5e97;\u5176\u5b83\u4e2a\u4eba\u7528\u54c1\u5e97", "pty": "0612"}}, {"type": "Feature", "geometry": {"type": "Point", "coordinates": [121.49836740051981, 31.237640843392974]}, "properties": {"name": "EVISU(\u56fd\u91d1\u4e2d\u5fc3\u5546\u573a)", "biz": "061101|061400 \u8d2d\u7269\u670d\u52a1;\u670d\u88c5\u978b\u5e3d\u76ae\u5177\u5e97;\u54c1\u724c\u670d\u88c5\u5e97|\u8d2d\u7269\u670d\u52a1;\u4e2a\u4eba\u7528\u54c1/\u5316\u5986\u54c1\u5e97;\u5176\u5b83\u4e2a\u4eba\u7528\u54c1\u5e97", "pty": "0611"}}, {"type": "Feature", "geometry": {"type": "Point", "coordinates": [121.57432710922582, 31.258981543393308]}, "properties": {"name": "Tommy Hilfiger(\u91d1\u6865\u56fd\u9645\u5e97)", "biz": "061101|061400 \u8d2d\u7269\u670d\u52a1;\u670d\u88c5\u978b\u5e3d\u76ae\u5177\u5e97;\u54c1\u724c\u670d\u88c5\u5e97|\u8d2d\u7269\u670d\u52a1;\u4e2a\u4eba\u7528\u54c1/\u5316\u5986\u54c1\u5e97;\u5176\u5b83\u4e2a\u4eba\u7528\u54c1\u5e97", "pty": "0611"}}, {"type": "Feature", "geometry": {"type": "Point", "coordinates": [121.48746049529565, 31.151969504316902]}, "properties": {"name": "\u4f36\u4fd0(\u68ee\u5b8f\u8d2d\u7269\u5e7f\u573a)", "biz": "061209|061400 \u8d2d\u7269\u670d\u52a1;\u4e13\u5356\u5e97;\u793c\u54c1\u9970\u54c1\u5e97|\u8d2d\u7269\u670d\u52a1;\u4e2a\u4eba\u7528\u54c1/\u5316\u5986\u54c1\u5e97;\u5176\u5b83\u4e2a\u4eba\u7528\u54c1\u5e97", "pty": "0612"}}, {"type": "Feature", "geometry": {"type": "Point", "coordinates": [121.52308301047495, 31.2321076644006]}, "properties": {"name": "\u838e\u838e", "biz": "061401 \u8d2d\u7269\u670d\u52a1;\u4e2a\u4eba\u7528\u54c1/\u5316\u5986\u54c1\u5e97;\u838e\u838e", "pty": "0614"}}, {"type": "Feature", "geometry": {"type": "Point", "coordinates": [121.20935614338919, 31.03485353640502]}, "properties": {"name": "\u838e\u838e(\u6587\u8bda\u8def)", "biz": "061401 \u8d2d\u7269\u670d\u52a1;\u4e2a\u4eba\u7528\u54c1/\u5316\u5986\u54c1\u5e97;\u838e\u838e", "pty": "0614"}}, {"type": "Feature", "geometry": {"type": "Point", "coordinates": [121.22474471573166, 31.159417743124997]}, "properties": {"name": "\u838e\u838e(\u767e\u8054\u5965\u7279\u83b1\u65af\u5e7f\u573aB\u533a)", "biz": "061401 \u8d2d\u7269\u670d\u52a1;\u4e2a\u4eba\u7528\u54c1/\u5316\u5986\u54c1\u5e97;\u838e\u838e", "pty": "0614"}}, {"type": "Feature", "geometry": {"type": "Point", "coordinates": [121.48014464667408, 30.916931043501226]}, "properties": {"name": "GUCCI(\u767e\u8054\u5357\u6865\u8d2d\u7269\u4e2d\u5fc3)", "biz": "061101|061400 \u8d2d\u7269\u670d\u52a1;\u670d\u88c5\u978b\u5e3d\u76ae\u5177\u5e97;\u54c1\u724c\u670d\u88c5\u5e97|\u8d2d\u7269\u670d\u52a1;\u4e2a\u4eba\u7528\u54c1/\u5316\u5986\u54c1\u5e97;\u5176\u5b83\u4e2a\u4eba\u7528\u54c1\u5e97", "pty": "0611"}}, {"type": "Feature", "geometry": {"type": "Point", "coordinates": [121.39326728967974, 31.627292101578572]}, "properties": {"name": "I Feel\u5934\u5f69", "biz": "061209|061400 \u8d2d\u7269\u670d\u52a1;\u4e13\u5356\u5e97;\u793c\u54c1\u9970\u54c1\u5e97|\u8d2d\u7269\u670d\u52a1;\u4e2a\u4eba\u7528\u54c1/\u5316\u5986\u54c1\u5e97;\u5176\u5b83\u4e2a\u4eba\u7528\u54c1\u5e97", "pty": "0612"}}]}