{"type": "FeatureCollection", "features": [{"type": "Feature", "geometry": {"type": "Point", "coordinates": [121.45753077124816, 30.931777335526757]}, "properties": {"name": "A Small Town(\u5949\u8d24\u5b9d\u9f99\u57ce\u5e02\u5e7f\u573a)", "biz": "071200|050400|060000 \u751f\u6d3b\u670d\u52a1;\u7ef4\u4fee\u7ad9\u70b9;\u7ef4\u4fee\u7ad9\u70b9|\u9910\u996e\u670d\u52a1;\u4f11\u95f2\u9910\u996e\u573a\u6240;\u4f11\u95f2\u9910\u996e\u573a\u6240|\u8d2d\u7269\u670d\u52a1;\u8d2d\u7269\u76f8\u5173\u573a\u6240;\u8d2d\u7269\u76f8\u5173\u573a\u6240", "pty": "0712"}}, {"type": "Feature", "geometry": {"type": "Point", "coordinates": [121.48392150960387, 31.216078824387445]}, "properties": {"name": "\u5de8\u901a\u901a\u4fe1", "biz": "060305|071200 \u8d2d\u7269\u670d\u52a1;\u5bb6\u7535\u7535\u5b50\u5356\u573a;\u624b\u673a\u9500\u552e|\u751f\u6d3b\u670d\u52a1;\u7ef4\u4fee\u7ad9\u70b9;\u7ef4\u4fee\u7ad9\u70b9", "pty": "0603"}}, {"type": "Feature", "geometry": {"type": "Point", "coordinates": [121.47503521156882, 31.23428361621682]}, "properties": {"name": "\u95ea\u7535\u8702(\u9ec4\u6d66\u5e97)", "biz": "060305|071200 \u8d2d\u7269\u670d\u52a1;\u5bb6\u7535\u7535\u5b50\u5356\u573a;\u624b\u673a\u9500\u552e|\u751f\u6d3b\u670d\u52a1;\u7ef4\u4fee\u7ad9\u70b9;\u7ef4\u4fee\u7ad9\u70b9", "pty": "0603"}}, {"type": "Feature", "geometry": {"type": "Point", "coordinates": [121.46681686829305, 31.237916349003076]}, "properties": {"name": "\u9e3f\u53d1\u4e94\u91d1\u4fee\u914d\u5e97", "biz": "060603|071200 \u8d2d\u7269\u670d\u52a1;\u5bb6\u5c45\u5efa\u6750\u5e02\u573a;\u5efa\u6750\u4e94\u91d1\u5e02\u573a|\u751f\u6d3b\u670d\u52a1;\u7ef4\u4fee\u7ad9\u70b9;\u7ef4\u4fee\u7ad9\u70b9", "pty": "0606"}}, {"type": "Feature", "geometry": {"type": "Point", "coordinates": [121.45415574198385, 31.194269438144445]}, "properties": {"name": "\u7965\u9f99\u901a\u8baf", "biz": "060305|071200 \u8d2d\u7269\u670d\u52a1;\u5bb6\u7535\u7535\u5b50\u5356\u573a;\u624b\u673a\u9500\u552e|\u751f\u6d3b\u670d\u52a1;\u7ef4\u4fee\u7ad9\u70b9;\u7ef4\u4fee\u7ad9\u70b9", "pty": "0603"}}, {"type": "Feature", "geometry": {"type": "Point", "coordinates": [121.41757122806176, 31.141243433856847]}, "properties": {"name": "\u82f9\u679c\u4e13\u4fee(\u534e\u8f7b\u6885\u9647\u8d2d\u7269\u4e2d\u5fc3)", "biz": "060306|071200 \u8d2d\u7269\u670d\u52a1;\u5bb6\u7535\u7535\u5b50\u5356\u573a;\u6570\u7801\u7535\u5b50|\u751f\u6d3b\u670d\u52a1;\u7ef4\u4fee\u7ad9\u70b9;\u7ef4\u4fee\u7ad9\u70b9", "pty": "0603"}}, {"type": "Feature", "geometry": {"type": "Point", "coordinates": [121.45476918645574, 31.197354347413132]}, "properties": {"name": "\u9f50\u98de\u7535\u8111", "biz": "060306|071200 \u8d2d\u7269\u670d\u52a1;\u5bb6\u7535\u7535\u5b50\u5356\u573a;\u6570\u7801\u7535\u5b50|\u751f\u6d3b\u670d\u52a1;\u7ef4\u4fee\u7ad9\u70b9;\u7ef4\u4fee\u7ad9\u70b9", "pty": "0603"}}, {"type": "Feature", "geometry": {"type": "Point", "coordinates": [121.44805132378549, 31.173241424846672]}, "properties": {"name": "\u6770\u6797\u7535\u52a8\u8f66", "biz": "061208|071200 \u8d2d\u7269\u670d\u52a1;\u4e13\u5356\u5e97;\u81ea\u884c\u8f66\u4e13\u5356\u5e97|\u751f\u6d3b\u670d\u52a1;\u7ef4\u4fee\u7ad9\u70b9;\u7ef4\u4fee\u7ad9\u70b9", "pty": "0612"}}, {"type": "Feature", "geometry": {"type": "Point", "coordinates": [121.44547370551945, 31.129344172377863]}, "properties": {"name": "\u7231\u5b9d\u8d1d\u5a74\u5e7c\u513f\u6e38\u6cf3\u9986(\u534e\u53d1\u5e7f\u573a\u5e97)", "biz": "072001|071200 \u751f\u6d3b\u670d\u52a1;\u5a74\u513f\u670d\u52a1\u573a\u6240;\u5a74\u513f\u6e38\u6cf3\u9986|\u751f\u6d3b\u670d\u52a1;\u7ef4\u4fee\u7ad9\u70b9;\u7ef4\u4fee\u7ad9\u70b9", "pty": "0720"}}, {"type": "Feature", "geometry": {"type": "Point", "coordinates": [121.34598039857126, 31.28173395126811]}, "properties": {"name": "\u5f3a\u946b\u901a\u8baf(\u7ea2\u68c9\u8def)", "biz": "060305|071200 \u8d2d\u7269\u670d\u52a1;\u5bb6\u7535\u7535\u5b50\u5356\u573a;\u624b\u673a\u9500\u552e|\u751f\u6d3b\u670d\u52a1;\u7ef4\u4fee\u7ad9\u70b9;\u7ef4\u4fee\u7ad9\u70b9", "pty": "0603"}}, {"type": "Feature", "geometry": {"type": "Point", "coordinates": [121.34191016538644, 31.289554884030256]}, "properties": {"name": "\u6587\u5f3a\u7535\u8111", "biz": "060306|071200 \u8d2d\u7269\u670d\u52a1;\u5bb6\u7535\u7535\u5b50\u5356\u573a;\u6570\u7801\u7535\u5b50|\u751f\u6d3b\u670d\u52a1;\u7ef4\u4fee\u7ad9\u70b9;\u7ef4\u4fee\u7ad9\u70b9", "pty": "0603"}}, {"type": "Feature", "geometry": {"type": "Point", "coordinates": [121.40120967970103, 31.24668684827851]}, "properties": {"name": "\u4f46\u52aa\u7535\u8111\u4e70\u5356\u4fee", "biz": "060306|071200 \u8d2d\u7269\u670d\u52a1;\u5bb6\u7535\u7535\u5b50\u5356\u573a;\u6570\u7801\u7535\u5b50|\u751f\u6d3b\u670d\u52a1;\u7ef4\u4fee\u7ad9\u70b9;\u7ef4\u4fee\u7ad9\u70b9", "pty": "0603"}}, {"type": "Feature", "geometry": {"type": "Point", "coordinates": [121.39825843410544, 31.268282119687587]}, "properties": {"name": "\u7535\u8111\u7ef4\u4fee", "biz": "060306|071200 \u8d2d\u7269\u670d\u52a1;\u5bb6\u7535\u7535\u5b50\u5356\u573a;\u6570\u7801\u7535\u5b50|\u751f\u6d3b\u670d\u52a1;\u7ef4\u4fee\u7ad9\u70b9;\u7ef4\u4fee\u7ad9\u70b9", "pty": "0603"}}, {"type": "Feature", "geometry": {"type": "Point", "coordinates": [121.41064776687936, 31.237058660306417]}, "properties": {"name": "\u5e73\u4ef7\u8f66\u884c(\u767d\u5170\u8def\u5e97)", "biz": "061208|071200 \u8d2d\u7269\u670d\u52a1;\u4e13\u5356\u5e97;\u81ea\u884c\u8f66\u4e13\u5356\u5e97|\u751f\u6d3b\u670d\u52a1;\u7ef4\u4fee\u7ad9\u70b9;\u7ef4\u4fee\u7ad9\u70b9", "pty": "0612"}}, {"type": "Feature", "geometry": {"type": "Point", "coordinates": [121.43914932227696, 31.266945698459597]}, "properties": {"name": "\u5c0f\u80e1\u8f66\u884c(\u5ef6\u957f\u897f\u8def)", "biz": "061208|071200 \u8d2d\u7269\u670d\u52a1;\u4e13\u5356\u5e97;\u81ea\u884c\u8f66\u4e13\u5356\u5e97|\u751f\u6d3b\u670d\u52a1;\u7ef4\u4fee\u7ad9\u70b9;\u7ef4\u4fee\u7ad9\u70b9", "pty": "0612"}}, {"type": "Feature", "geometry": {"type": "Point", "coordinates": [121.39453868275916, 31.233274907721892]}, "properties": {"name": "\u987a\u98ce\u8f66\u884c(\u6012\u6c5f\u8def)", "biz": "061208|071200 \u8d2d\u7269\u670d\u52a1;\u4e13\u5356\u5e97;\u81ea\u884c\u8f66\u4e13\u5356\u5e97|\u751f\u6d3b\u670d\u52a1;\u7ef4\u4fee\u7ad9\u70b9;\u7ef4\u4fee\u7ad9\u70b9", "pty": "0612"}}, {"type": "Feature", "geometry": {"type": "Point", "coordinates": [121.41738610670663, 31.25539533575088]}, "properties": {"name": "\u5982\u610f\u8f66\u884c(\u5c9a\u768b\u8def)", "biz": "061208|071200 \u8d2d\u7269\u670d\u52a1;\u4e13\u5356\u5e97;\u81ea\u884c\u8f66\u4e13\u5356\u5e97|\u751f\u6d3b\u670d\u52a1;\u7ef4\u4fee\u7ad9\u70b9;\u7ef4\u4fee\u7ad9\u70b9", "pty": "0612"}}, {"type": "Feature", "geometry": {"type": "Point", "coordinates": [121.3788218988629, 31.247365846820845]}, "properties": {"name": "\u4e2d\u56fd\u8054\u901a\u624b\u673a\u7ef4\u4fee(\u767e\u8054\u4e2d\u73af\u8d2d\u7269\u5e7f\u573a)", "biz": "070604|071200 \u751f\u6d3b\u670d\u52a1;\u7535\u8baf\u8425\u4e1a\u5385;\u4e2d\u56fd\u8054\u901a\u8425\u4e1a\u5385|\u751f\u6d3b\u670d\u52a1;\u7ef4\u4fee\u7ad9\u70b9;\u7ef4\u4fee\u7ad9\u70b9", "pty": "0706"}}, {"type": "Feature", "geometry": {"type": "Point", "coordinates": [121.41408093593685, 31.254889894251836]}, "properties": {"name": "\u4f17\u610f\u7f51\u7edc(\u91d1\u76db\u56fd\u9645\u5bb6\u5c45)", "biz": "080308|071200 \u4f53\u80b2\u4f11\u95f2\u670d\u52a1;\u5a31\u4e50\u573a\u6240;\u7f51\u5427|\u751f\u6d3b\u670d\u52a1;\u7ef4\u4fee\u7ad9\u70b9;\u7ef4\u4fee\u7ad9\u70b9", "pty": "0803"}}, {"type": "Feature", "geometry": {"type": "Point", "coordinates": [121.49066902738728, 31.29255912982803]}, "properties": {"name": "\u90af\u90f8\u901a\u8baf", "biz": "060305|071200 \u8d2d\u7269\u670d\u52a1;\u5bb6\u7535\u7535\u5b50\u5356\u573a;\u624b\u673a\u9500\u552e|\u751f\u6d3b\u670d\u52a1;\u7ef4\u4fee\u7ad9\u70b9;\u7ef4\u4fee\u7ad9\u70b9", "pty": "0603"}}, {"type": "Feature", "geometry": {"type": "Point", "coordinates": [121.49357968417769, 31.29030075290113]}, "properties": {"name": "\u65f6\u4ee3\u624b\u673a\u670d\u52a1\u4e2d\u5fc3", "biz": "060305|071200 \u8d2d\u7269\u670d\u52a1;\u5bb6\u7535\u7535\u5b50\u5356\u573a;\u624b\u673a\u9500\u552e|\u751f\u6d3b\u670d\u52a1;\u7ef4\u4fee\u7ad9\u70b9;\u7ef4\u4fee\u7ad9\u70b9", "pty": "0603"}}, {"type": "Feature", "geometry": {"type": "Point", "coordinates": [121.49594780789226, 31.27155662949955]}, "properties": {"name": "\u5343\u673a\u7f51\u624b\u673a\u00b7\u670d\u52a1\u4fbf\u5229(\u4e0a\u6d77\u65b0\u6e2f\u5e97)", "biz": "060305|071200 \u8d2d\u7269\u670d\u52a1;\u5bb6\u7535\u7535\u5b50\u5356\u573a;\u624b\u673a\u9500\u552e|\u751f\u6d3b\u670d\u52a1;\u7ef4\u4fee\u7ad9\u70b9;\u7ef4\u4fee\u7ad9\u70b9", "pty": "0603"}}, {"type": "Feature", "geometry": {"type": "Point", "coordinates": [121.49169187542859, 31.266971835728494]}, "properties": {"name": "\u9cd0\u9cd0\u4e50(\u745e\u8679\u5929\u5730\u661f\u661f\u5802)", "biz": "072001|071200 \u751f\u6d3b\u670d\u52a1;\u5a74\u513f\u670d\u52a1\u573a\u6240;\u5a74\u513f\u6e38\u6cf3\u9986|\u751f\u6d3b\u670d\u52a1;\u7ef4\u4fee\u7ad9\u70b9;\u7ef4\u4fee\u7ad9\u70b9", "pty": "0720"}}, {"type": "Feature", "geometry": {"type": "Point", "coordinates": [121.53346850704763, 31.31659273502224]}, "properties": {"name": "\u521b\u7ef4\u7535\u89c6(\u5ae9\u6c5f\u8def\u76f4\u8425\u5e97)", "biz": "060301|071200 \u8d2d\u7269\u670d\u52a1;\u5bb6\u7535\u7535\u5b50\u5356\u573a;\u7efc\u5408\u5bb6\u7535\u5546\u573a|\u751f\u6d3b\u670d\u52a1;\u7ef4\u4fee\u7ad9\u70b9;\u7ef4\u4fee\u7ad9\u70b9", "pty": "0603"}}, {"type": "Feature", "geometry": {"type": "Point", "coordinates": [121.51130089040979, 31.292409490363784]}, "properties": {"name": "\u795e\u5dde\u79fb\u52a8\u901a\u4fe1", "biz": "060305|071200 \u8d2d\u7269\u670d\u52a1;\u5bb6\u7535\u7535\u5b50\u5356\u573a;\u624b\u673a\u9500\u552e|\u751f\u6d3b\u670d\u52a1;\u7ef4\u4fee\u7ad9\u70b9;\u7ef4\u4fee\u7ad9\u70b9", "pty": "0603"}}, {"type": "Feature", "geometry": {"type": "Point", "coordinates": [121.5362050239842, 31.262969033128186]}, "properties": {"name": "\u56fd\u5bcc\u79fb\u52a8\u901a\u4fe1(\u5b81\u56fd\u8def)", "biz": "060305|071200 \u8d2d\u7269\u670d\u52a1;\u5bb6\u7535\u7535\u5b50\u5356\u573a;\u624b\u673a\u9500\u552e|\u751f\u6d3b\u670d\u52a1;\u7ef4\u4fee\u7ad9\u70b9;\u7ef4\u4fee\u7ad9\u70b9", "pty": "0603"}}, {"type": "Feature", "geometry": {"type": "Point", "coordinates": [121.54409423700787, 31.292402242834548]}, "properties": {"name": "\u5168\u5929IT\u4fbf\u5229\u5e97(\u56fe\u4eec\u8def)", "biz": "060306|071200 \u8d2d\u7269\u670d\u52a1;\u5bb6\u7535\u7535\u5b50\u5356\u573a;\u6570\u7801\u7535\u5b50|\u751f\u6d3b\u670d\u52a1;\u7ef4\u4fee\u7ad9\u70b9;\u7ef4\u4fee\u7ad9\u70b9", "pty": "0603"}}, {"type": "Feature", "geometry": {"type": "Point", "coordinates": [121.4934665891917, 31.310158575458818]}, "properties": {"name": "\u767b\u5cf0\u8f66\u884c", "biz": "061208|071200 \u8d2d\u7269\u670d\u52a1;\u4e13\u5356\u5e97;\u81ea\u884c\u8f66\u4e13\u5356\u5e97|\u751f\u6d3b\u670d\u52a1;\u7ef4\u4fee\u7ad9\u70b9;\u7ef4\u4fee\u7ad9\u70b9", "pty": "0612"}}, {"type": "Feature", "geometry": {"type": "Point", "coordinates": [121.50801612811588, 31.27092381304304]}, "properties": {"name": "\u7231\u739b\u7535\u52a8\u8f66", "biz": "061208|071200 \u8d2d\u7269\u670d\u52a1;\u4e13\u5356\u5e97;\u81ea\u884c\u8f66\u4e13\u5356\u5e97|\u751f\u6d3b\u670d\u52a1;\u7ef4\u4fee\u7ad9\u70b9;\u7ef4\u4fee\u7ad9\u70b9", "pty": "0612"}}, {"type": "Feature", "geometry": {"type": "Point", "coordinates": [121.52887362321214, 31.32672251610659]}, "properties": {"name": "\u5927\u80e1\u5b50\u8f66\u884c(\u4e2d\u539f\u8def\u5e97)", "biz": "061208|071200 \u8d2d\u7269\u670d\u52a1;\u4e13\u5356\u5e97;\u81ea\u884c\u8f66\u4e13\u5356\u5e97|\u751f\u6d3b\u670d\u52a1;\u7ef4\u4fee\u7ad9\u70b9;\u7ef4\u4fee\u7ad9\u70b9", "pty": "0612"}}, {"type": "Feature", "geometry": {"type": "Point", "coordinates": [121.52082731428119, 31.27082333581585]}, "properties": {"name": "\u6842\u7ea2\u8f66\u884c", "biz": "061208|071200 \u8d2d\u7269\u670d\u52a1;\u4e13\u5356\u5e97;\u81ea\u884c\u8f66\u4e13\u5356\u5e97|\u751f\u6d3b\u670d\u52a1;\u7ef4\u4fee\u7ad9\u70b9;\u7ef4\u4fee\u7ad9\u70b9", "pty": "0612"}}, {"type": "Feature", "geometry": {"type": "Point", "coordinates": [121.51484714897026, 31.29324034096699]}, "properties": {"name": "\u946b\u6597\u52a8\u6f2b(\u4e5d\u9686\u574a)", "biz": "080305|071200 \u4f53\u80b2\u4f11\u95f2\u670d\u52a1;\u5a31\u4e50\u573a\u6240;\u6e38\u620f\u5385|\u751f\u6d3b\u670d\u52a1;\u7ef4\u4fee\u7ad9\u70b9;\u7ef4\u4fee\u7ad9\u70b9", "pty": "0803"}}, {"type": "Feature", "geometry": {"type": "Point", "coordinates": [121.51495352887133, 31.293083706677418]}, "properties": {"name": "\u6210\u4e1a\u7f51\u5427(\u4e5d\u9686\u574a)", "biz": "080308|071200 \u4f53\u80b2\u4f11\u95f2\u670d\u52a1;\u5a31\u4e50\u573a\u6240;\u7f51\u5427|\u751f\u6d3b\u670d\u52a1;\u7ef4\u4fee\u7ad9\u70b9;\u7ef4\u4fee\u7ad9\u70b9", "pty": "0803"}}, {"type": "Feature", "geometry": {"type": "Point", "coordinates": [121.34614519387272, 31.15333848261066]}, "properties": {"name": "\u5c0f\u7c73\u6388\u6743\u670d\u52a1\u4e2d\u5fc3(\u4e0a\u6d77\u4e03\u5b9d\u5e97)", "biz": "060305|071200 \u8d2d\u7269\u670d\u52a1;\u5bb6\u7535\u7535\u5b50\u5356\u573a;\u624b\u673a\u9500\u552e|\u751f\u6d3b\u670d\u52a1;\u7ef4\u4fee\u7ad9\u70b9;\u7ef4\u4fee\u7ad9\u70b9", "pty": "0603"}}, {"type": "Feature", "geometry": {"type": "Point", "coordinates": [121.35529350908843, 31.143433836750045]}, "properties": {"name": "\u6377\u4e30\u901a\u8baf", "biz": "060305|071200 \u8d2d\u7269\u670d\u52a1;\u5bb6\u7535\u7535\u5b50\u5356\u573a;\u624b\u673a\u9500\u552e|\u751f\u6d3b\u670d\u52a1;\u7ef4\u4fee\u7ad9\u70b9;\u7ef4\u4fee\u7ad9\u70b9", "pty": "0603"}}, {"type": "Feature", "geometry": {"type": "Point", "coordinates": [121.32732624457427, 31.221995786261612]}, "properties": {"name": "\u5b9c\u901a\u7535\u8111", "biz": "060306|071200 \u8d2d\u7269\u670d\u52a1;\u5bb6\u7535\u7535\u5b50\u5356\u573a;\u6570\u7801\u7535\u5b50|\u751f\u6d3b\u670d\u52a1;\u7ef4\u4fee\u7ad9\u70b9;\u7ef4\u4fee\u7ad9\u70b9", "pty": "0603"}}, {"type": "Feature", "geometry": {"type": "Point", "coordinates": [121.46372796501736, 31.04153513691568]}, "properties": {"name": "\u98de\u626c\u7535\u8111(\u9f99\u5434\u8def)", "biz": "060306|071200 \u8d2d\u7269\u670d\u52a1;\u5bb6\u7535\u7535\u5b50\u5356\u573a;\u6570\u7801\u7535\u5b50|\u751f\u6d3b\u670d\u52a1;\u7ef4\u4fee\u7ad9\u70b9;\u7ef4\u4fee\u7ad9\u70b9", "pty": "0603"}}, {"type": "Feature", "geometry": {"type": "Point", "coordinates": [121.4037691887076, 31.041606243356163]}, "properties": {"name": "\u4e0a\u6d77\u91d1\u7965\u7f51\u7edc\u79d1\u6280\u53d1\u5c55\u6709\u9650\u516c\u53f8", "biz": "060306|071200 \u8d2d\u7269\u670d\u52a1;\u5bb6\u7535\u7535\u5b50\u5356\u573a;\u6570\u7801\u7535\u5b50|\u751f\u6d3b\u670d\u52a1;\u7ef4\u4fee\u7ad9\u70b9;\u7ef4\u4fee\u7ad9\u70b9", "pty": "0603"}}, {"type": "Feature", "geometry": {"type": "Point", "coordinates": [121.3952541112603, 31.123920117909314]}, "properties": {"name": "\u4f73\u660e\u773c\u955c\u5e97", "biz": "061204|071200 \u8d2d\u7269\u670d\u52a1;\u4e13\u5356\u5e97;\u773c\u955c\u5e97|\u751f\u6d3b\u670d\u52a1;\u7ef4\u4fee\u7ad9\u70b9;\u7ef4\u4fee\u7ad9\u70b9", "pty": "0612"}}, {"type": "Feature", "geometry": {"type": "Point", "coordinates": [121.36369248764905, 31.178529696630736]}, "properties": {"name": "\u96c5\u8fea\u7535\u52a8\u8f66(\u9752\u6749\u8def)", "biz": "061208|071200 \u8d2d\u7269\u670d\u52a1;\u4e13\u5356\u5e97;\u81ea\u884c\u8f66\u4e13\u5356\u5e97|\u751f\u6d3b\u670d\u52a1;\u7ef4\u4fee\u7ad9\u70b9;\u7ef4\u4fee\u7ad9\u70b9", "pty": "0612"}}, {"type": "Feature", "geometry": {"type": "Point", "coordinates": [121.44409383004921, 31.332488178052326]}, "properties": {"name": "\u4f73\u8fb0\u901a\u8baf", "biz": "060305|071200 \u8d2d\u7269\u670d\u52a1;\u5bb6\u7535\u7535\u5b50\u5356\u573a;\u624b\u673a\u9500\u552e|\u751f\u6d3b\u670d\u52a1;\u7ef4\u4fee\u7ad9\u70b9;\u7ef4\u4fee\u7ad9\u70b9", "pty": "0603"}}, {"type": "Feature", "geometry": {"type": "Point", "coordinates": [121.47821513704382, 31.338676066656898]}, "properties": {"name": "\u8d77\u6d3e\u901a\u4fe1\u914d\u4ef6\u4e13\u8425\u5e97", "biz": "060306|071200 \u8d2d\u7269\u670d\u52a1;\u5bb6\u7535\u7535\u5b50\u5356\u573a;\u6570\u7801\u7535\u5b50|\u751f\u6d3b\u670d\u52a1;\u7ef4\u4fee\u7ad9\u70b9;\u7ef4\u4fee\u7ad9\u70b9", "pty": "0603"}}, {"type": "Feature", "geometry": {"type": "Point", "coordinates": [121.45243449413715, 31.339337515135423]}, "properties": {"name": "\u6280\u4f73\u7535\u8111(\u957f\u6c5f\u897f\u8def)", "biz": "060306|071200 \u8d2d\u7269\u670d\u52a1;\u5bb6\u7535\u7535\u5b50\u5356\u573a;\u6570\u7801\u7535\u5b50|\u751f\u6d3b\u670d\u52a1;\u7ef4\u4fee\u7ad9\u70b9;\u7ef4\u4fee\u7ad9\u70b9", "pty": "0603"}}, {"type": "Feature", "geometry": {"type": "Point", "coordinates": [121.43000932965386, 31.40819519468915]}, "properties": {"name": "\u9f99\u6770\u7535\u8111", "biz": "060306|071200 \u8d2d\u7269\u670d\u52a1;\u5bb6\u7535\u7535\u5b50\u5356\u573a;\u6570\u7801\u7535\u5b50|\u751f\u6d3b\u670d\u52a1;\u7ef4\u4fee\u7ad9\u70b9;\u7ef4\u4fee\u7ad9\u70b9", "pty": "0603"}}, {"type": "Feature", "geometry": {"type": "Point", "coordinates": [121.3368849885281, 31.416168595220597]}, "properties": {"name": "\u4f73\u9a79\u79d1\u6280\u8fde\u9501\u5e97(\u4e1c\u897f\u5df7\u8857\u5e97)", "biz": "060306|071200 \u8d2d\u7269\u670d\u52a1;\u5bb6\u7535\u7535\u5b50\u5356\u573a;\u6570\u7801\u7535\u5b50|\u751f\u6d3b\u670d\u52a1;\u7ef4\u4fee\u7ad9\u70b9;\u7ef4\u4fee\u7ad9\u70b9", "pty": "0603"}}, {"type": "Feature", "geometry": {"type": "Point", "coordinates": [121.43957181822438, 31.329352715105927]}, "properties": {"name": "\u82f9\u679c\u96f6\u552e\u5e97(\u65b9\u6b63\u6613\u901a\u5bb6\u4e50\u798f\u5b9d\u5c71\u5e97)", "biz": "060306|071200 \u8d2d\u7269\u670d\u52a1;\u5bb6\u7535\u7535\u5b50\u5356\u573a;\u6570\u7801\u7535\u5b50|\u751f\u6d3b\u670d\u52a1;\u7ef4\u4fee\u7ad9\u70b9;\u7ef4\u4fee\u7ad9\u70b9", "pty": "0603"}}, {"type": "Feature", "geometry": {"type": "Point", "coordinates": [121.40699256979285, 31.305670743327884]}, "properties": {"name": "\u8bda\u4fe1\u8f66\u884c(\u573a\u8054\u8def\u5e97)", "biz": "061208|071200 \u8d2d\u7269\u670d\u52a1;\u4e13\u5356\u5e97;\u81ea\u884c\u8f66\u4e13\u5356\u5e97|\u751f\u6d3b\u670d\u52a1;\u7ef4\u4fee\u7ad9\u70b9;\u7ef4\u4fee\u7ad9\u70b9", "pty": "0612"}}, {"type": "Feature", "geometry": {"type": "Point", "coordinates": [121.41805828688207, 31.38760299588053]}, "properties": {"name": "\u6797\u5b50\u8f66\u884c", "biz": "061208|071200 \u8d2d\u7269\u670d\u52a1;\u4e13\u5356\u5e97;\u81ea\u884c\u8f66\u4e13\u5356\u5e97|\u751f\u6d3b\u670d\u52a1;\u7ef4\u4fee\u7ad9\u70b9;\u7ef4\u4fee\u7ad9\u70b9", "pty": "0612"}}, {"type": "Feature", "geometry": {"type": "Point", "coordinates": [121.45035684075611, 31.328881604208668]}, "properties": {"name": "\u65b0\u65e5\u7535\u52a8\u8f66(\u4e00\u4e8c\u516b\u7eaa\u5ff5\u8def\u5e97)", "biz": "061208|071200 \u8d2d\u7269\u670d\u52a1;\u4e13\u5356\u5e97;\u81ea\u884c\u8f66\u4e13\u5356\u5e97|\u751f\u6d3b\u670d\u52a1;\u7ef4\u4fee\u7ad9\u70b9;\u7ef4\u4fee\u7ad9\u70b9", "pty": "0612"}}, {"type": "Feature", "geometry": {"type": "Point", "coordinates": [121.42347552626168, 31.404517764793162]}, "properties": {"name": "\u5f00\u5fc3\u52a8\u624b(\u91d1\u60a6\u00b7\u751f\u6d3b\u5e7f\u573a)", "biz": "080501|071200 \u4f53\u80b2\u4f11\u95f2\u670d\u52a1;\u4f11\u95f2\u573a\u6240;\u6e38\u4e50\u573a|\u751f\u6d3b\u670d\u52a1;\u7ef4\u4fee\u7ad9\u70b9;\u7ef4\u4fee\u7ad9\u70b9", "pty": "0805"}}, {"type": "Feature", "geometry": {"type": "Point", "coordinates": [121.21165064452929, 31.42924952734575]}, "properties": {"name": "\u56fd\u5b81\u7535\u5668", "biz": "060301|071200 \u8d2d\u7269\u670d\u52a1;\u5bb6\u7535\u7535\u5b50\u5356\u573a;\u7efc\u5408\u5bb6\u7535\u5546\u573a|\u751f\u6d3b\u670d\u52a1;\u7ef4\u4fee\u7ad9\u70b9;\u7ef4\u4fee\u7ad9\u70b9", "pty": "0603"}}, {"type": "Feature", "geometry": {"type": "Point", "coordinates": [121.29038239265905, 31.27111197146862]}, "properties": {"name": "\u6c81\u9a70\u901a\u4fe1", "biz": "060305|071200 \u8d2d\u7269\u670d\u52a1;\u5bb6\u7535\u7535\u5b50\u5356\u573a;\u624b\u673a\u9500\u552e|\u751f\u6d3b\u670d\u52a1;\u7ef4\u4fee\u7ad9\u70b9;\u7ef4\u4fee\u7ad9\u70b9", "pty": "0603"}}, {"type": "Feature", "geometry": {"type": "Point", "coordinates": [121.3447642224782, 31.266363545222642]}, "properties": {"name": "\u91d1\u8bda\u901a\u8baf(\u6c5f\u6865\u5e97)", "biz": "060305|071200 \u8d2d\u7269\u670d\u52a1;\u5bb6\u7535\u7535\u5b50\u5356\u573a;\u624b\u673a\u9500\u552e|\u751f\u6d3b\u670d\u52a1;\u7ef4\u4fee\u7ad9\u70b9;\u7ef4\u4fee\u7ad9\u70b9", "pty": "0603"}}, {"type": "Feature", "geometry": {"type": "Point", "coordinates": [121.29672640945759, 31.269623606079364]}, "properties": {"name": "\u8d85\u817e\u7535\u8111", "biz": "060306|071200 \u8d2d\u7269\u670d\u52a1;\u5bb6\u7535\u7535\u5b50\u5356\u573a;\u6570\u7801\u7535\u5b50|\u751f\u6d3b\u670d\u52a1;\u7ef4\u4fee\u7ad9\u70b9;\u7ef4\u4fee\u7ad9\u70b9", "pty": "0603"}}, {"type": "Feature", "geometry": {"type": "Point", "coordinates": [121.33991515260422, 31.258007798898614]}, "properties": {"name": "\u745e\u7fd4\u7535\u8111\u00b7\u7f51\u7edc", "biz": "060306|071200 \u8d2d\u7269\u670d\u52a1;\u5bb6\u7535\u7535\u5b50\u5356\u573a;\u6570\u7801\u7535\u5b50|\u751f\u6d3b\u670d\u52a1;\u7ef4\u4fee\u7ad9\u70b9;\u7ef4\u4fee\u7ad9\u70b9", "pty": "0603"}}, {"type": "Feature", "geometry": {"type": "Point", "coordinates": [121.30757857795442, 31.271218059686365]}, "properties": {"name": "\u777f\u4f73\u7535\u8111", "biz": "060306|071200 \u8d2d\u7269\u670d\u52a1;\u5bb6\u7535\u7535\u5b50\u5356\u573a;\u6570\u7801\u7535\u5b50|\u751f\u6d3b\u670d\u52a1;\u7ef4\u4fee\u7ad9\u70b9;\u7ef4\u4fee\u7ad9\u70b9", "pty": "0603"}}, {"type": "Feature", "geometry": {"type": "Point", "coordinates": [121.36056788754412, 31.253647130546362]}, "properties": {"name": "\u4e19\u8fb0\u7535\u8111\u5b89\u9632\u76d1\u63a7", "biz": "060306|071200 \u8d2d\u7269\u670d\u52a1;\u5bb6\u7535\u7535\u5b50\u5356\u573a;\u6570\u7801\u7535\u5b50|\u751f\u6d3b\u670d\u52a1;\u7ef4\u4fee\u7ad9\u70b9;\u7ef4\u4fee\u7ad9\u70b9", "pty": "0603"}}, {"type": "Feature", "geometry": {"type": "Point", "coordinates": [121.21713782592565, 31.289550219881082]}, "properties": {"name": "\u9ad8\u4e50\u513f\u7ae5\u8d2d\u7269\u4e2d\u5fc3(\u5609\u5b9e\u751f\u6d3b\u5e7f\u573a)", "biz": "061207|071200 \u8d2d\u7269\u670d\u52a1;\u4e13\u5356\u5e97;\u513f\u7ae5\u7528\u54c1\u5e97|\u751f\u6d3b\u670d\u52a1;\u7ef4\u4fee\u7ad9\u70b9;\u7ef4\u4fee\u7ad9\u70b9", "pty": "0612"}}, {"type": "Feature", "geometry": {"type": "Point", "coordinates": [121.31088020867556, 31.29560592710852]}, "properties": {"name": "\u98de\u5cf0\u8f66\u884c", "biz": "061208|071200 \u8d2d\u7269\u670d\u52a1;\u4e13\u5356\u5e97;\u81ea\u884c\u8f66\u4e13\u5356\u5e97|\u751f\u6d3b\u670d\u52a1;\u7ef4\u4fee\u7ad9\u70b9;\u7ef4\u4fee\u7ad9\u70b9", "pty": "0612"}}, {"type": "Feature", "geometry": {"type": "Point", "coordinates": [121.37063868425156, 31.26025577256131]}, "properties": {"name": "\u6c38\u4e45\u8f66\u884c(\u7941\u8fde\u5c71\u5357\u8def)", "biz": "061208|071200 \u8d2d\u7269\u670d\u52a1;\u4e13\u5356\u5e97;\u81ea\u884c\u8f66\u4e13\u5356\u5e97|\u751f\u6d3b\u670d\u52a1;\u7ef4\u4fee\u7ad9\u70b9;\u7ef4\u4fee\u7ad9\u70b9", "pty": "0612"}}, {"type": "Feature", "geometry": {"type": "Point", "coordinates": [121.27871860997377, 31.470795285694074]}, "properties": {"name": "\u534e\u677e\u8f66\u884c", "biz": "061208|071200 \u8d2d\u7269\u670d\u52a1;\u4e13\u5356\u5e97;\u81ea\u884c\u8f66\u4e13\u5356\u5e97|\u751f\u6d3b\u670d\u52a1;\u7ef4\u4fee\u7ad9\u70b9;\u7ef4\u4fee\u7ad9\u70b9", "pty": "0612"}}, {"type": "Feature", "geometry": {"type": "Point", "coordinates": [121.37653389222577, 31.215325569501708]}, "properties": {"name": "\u5c0f\u82d7\u8f66\u884c(\u65b0\u6e14\u4e1c\u8def)", "biz": "061208|071200 \u8d2d\u7269\u670d\u52a1;\u4e13\u5356\u5e97;\u81ea\u884c\u8f66\u4e13\u5356\u5e97|\u751f\u6d3b\u670d\u52a1;\u7ef4\u4fee\u7ad9\u70b9;\u7ef4\u4fee\u7ad9\u70b9", "pty": "0612"}}, {"type": "Feature", "geometry": {"type": "Point", "coordinates": [121.42891376245288, 31.209749477807527]}, "properties": {"name": "\u4e0a\u6d77\u5929\u590d\u6587\u5370\u6570\u7801\u79d1\u6280\u6709\u9650\u516c\u53f8", "biz": "061212|060300|071200 \u8d2d\u7269\u670d\u52a1;\u4e13\u5356\u5e97;\u6444\u5f71\u5668\u6750\u5e97|\u8d2d\u7269\u670d\u52a1;\u5bb6\u7535\u7535\u5b50\u5356\u573a;\u5bb6\u7535\u7535\u5b50\u5356\u573a|\u751f\u6d3b\u670d\u52a1;\u7ef4\u4fee\u7ad9\u70b9;\u7ef4\u4fee\u7ad9\u70b9", "pty": "0612"}}, {"type": "Feature", "geometry": {"type": "Point", "coordinates": [121.47120787648124, 31.264015655580657]}, "properties": {"name": "\u5929\u4f1f\u6570\u7801\u901a\u8baf", "biz": "060305|071200 \u8d2d\u7269\u670d\u52a1;\u5bb6\u7535\u7535\u5b50\u5356\u573a;\u624b\u673a\u9500\u552e|\u751f\u6d3b\u670d\u52a1;\u7ef4\u4fee\u7ad9\u70b9;\u7ef4\u4fee\u7ad9\u70b9", "pty": "0603"}}, {"type": "Feature", "geometry": {"type": "Point", "coordinates": [121.46759073128607, 31.245042185519157]}, "properties": {"name": "\u4e0a\u6d77\u5c0f\u7c73\u4e4b\u5bb6", "biz": "060305|071200 \u8d2d\u7269\u670d\u52a1;\u5bb6\u7535\u7535\u5b50\u5356\u573a;\u624b\u673a\u9500\u552e|\u751f\u6d3b\u670d\u52a1;\u7ef4\u4fee\u7ad9\u70b9;\u7ef4\u4fee\u7ad9\u70b9", "pty": "0603"}}, {"type": "Feature", "geometry": {"type": "Point", "coordinates": [121.44284927932038, 31.235911398335936]}, "properties": {"name": "\u5c0f\u90d1\u901a\u8baf", "biz": "060305|071200 \u8d2d\u7269\u670d\u52a1;\u5bb6\u7535\u7535\u5b50\u5356\u573a;\u624b\u673a\u9500\u552e|\u751f\u6d3b\u670d\u52a1;\u7ef4\u4fee\u7ad9\u70b9;\u7ef4\u4fee\u7ad9\u70b9", "pty": "0603"}}, {"type": "Feature", "geometry": {"type": "Point", "coordinates": [121.45303006990746, 31.247308799927925]}, "properties": {"name": "\u624b\u673a\u4e13\u4e1a\u7ef4\u4fee(\u4e0d\u591c\u57ce\u5546\u53a6)", "biz": "060306|071200 \u8d2d\u7269\u670d\u52a1;\u5bb6\u7535\u7535\u5b50\u5356\u573a;\u6570\u7801\u7535\u5b50|\u751f\u6d3b\u670d\u52a1;\u7ef4\u4fee\u7ad9\u70b9;\u7ef4\u4fee\u7ad9\u70b9", "pty": "0603"}}, {"type": "Feature", "geometry": {"type": "Point", "coordinates": [121.4201110181685, 31.291817519359967]}, "properties": {"name": "\u6052\u4fe1\u7535\u8111(\u5e73\u9065\u8def)", "biz": "060306|071200 \u8d2d\u7269\u670d\u52a1;\u5bb6\u7535\u7535\u5b50\u5356\u573a;\u6570\u7801\u7535\u5b50|\u751f\u6d3b\u670d\u52a1;\u7ef4\u4fee\u7ad9\u70b9;\u7ef4\u4fee\u7ad9\u70b9", "pty": "0603"}}, {"type": "Feature", "geometry": {"type": "Point", "coordinates": [121.4254295823622, 31.298470803975146]}, "properties": {"name": "\u80fd\u7387(\u6c5f\u573a\u897f\u8def\u4e13\u5356\u5e97)", "biz": "060604|071200 \u8d2d\u7269\u670d\u52a1;\u5bb6\u5c45\u5efa\u6750\u5e02\u573a;\u53a8\u536b\u5e02\u573a|\u751f\u6d3b\u670d\u52a1;\u7ef4\u4fee\u7ad9\u70b9;\u7ef4\u4fee\u7ad9\u70b9", "pty": "0606"}}, {"type": "Feature", "geometry": {"type": "Point", "coordinates": [121.46253733392165, 31.263022983903284]}, "properties": {"name": "\u5c0f\u59dc\u8f66\u884c(\u4e2d\u5c71\u5317\u8def)", "biz": "061208|071200 \u8d2d\u7269\u670d\u52a1;\u4e13\u5356\u5e97;\u81ea\u884c\u8f66\u4e13\u5356\u5e97|\u751f\u6d3b\u670d\u52a1;\u7ef4\u4fee\u7ad9\u70b9;\u7ef4\u4fee\u7ad9\u70b9", "pty": "0612"}}, {"type": "Feature", "geometry": {"type": "Point", "coordinates": [121.44465449096542, 31.236405731632992]}, "properties": {"name": "\u7ef4\u8fbe\u8f66\u884c", "biz": "061208|071200 \u8d2d\u7269\u670d\u52a1;\u4e13\u5356\u5e97;\u81ea\u884c\u8f66\u4e13\u5356\u5e97|\u751f\u6d3b\u670d\u52a1;\u7ef4\u4fee\u7ad9\u70b9;\u7ef4\u4fee\u7ad9\u70b9", "pty": "0612"}}, {"type": "Feature", "geometry": {"type": "Point", "coordinates": [121.24405185630229, 31.309353878680454]}, "properties": {"name": "\u660e\u987a\u7535\u8111\u7ef4\u4fee\u76d1\u63a7", "biz": "080308|071200 \u4f53\u80b2\u4f11\u95f2\u670d\u52a1;\u5a31\u4e50\u573a\u6240;\u7f51\u5427|\u751f\u6d3b\u670d\u52a1;\u7ef4\u4fee\u7ad9\u70b9;\u7ef4\u4fee\u7ad9\u70b9", "pty": "0803"}}, {"type": "Feature", "geometry": {"type": "Point", "coordinates": [121.56431085287227, 31.341093349877788]}, "properties": {"name": "\u9ad8\u6865\u5efa\u5e73\u5bb6\u7535\u5236\u51b7\u7ef4\u4fee\u4e2d\u5fc3", "biz": "060301|071200 \u8d2d\u7269\u670d\u52a1;\u5bb6\u7535\u7535\u5b50\u5356\u573a;\u7efc\u5408\u5bb6\u7535\u5546\u573a|\u751f\u6d3b\u670d\u52a1;\u7ef4\u4fee\u7ad9\u70b9;\u7ef4\u4fee\u7ad9\u70b9", "pty": "0603"}}, {"type": "Feature", "geometry": {"type": "Point", "coordinates": [121.56667564702259, 31.124505290920137]}, "properties": {"name": "\u60e0\u4f73\u5bb6\u7535\u5236\u51b7\u7ef4\u4fee\u90e8(\u6893\u5eb7\u8def)", "biz": "060301|071200 \u8d2d\u7269\u670d\u52a1;\u5bb6\u7535\u7535\u5b50\u5356\u573a;\u7efc\u5408\u5bb6\u7535\u5546\u573a|\u751f\u6d3b\u670d\u52a1;\u7ef4\u4fee\u7ad9\u70b9;\u7ef4\u4fee\u7ad9\u70b9", "pty": "0603"}}, {"type": "Feature", "geometry": {"type": "Point", "coordinates": [121.51942715100667, 31.145283966071926]}, "properties": {"name": "\u661f\u8fb0\u901a\u8baf", "biz": "060305|071200 \u8d2d\u7269\u670d\u52a1;\u5bb6\u7535\u7535\u5b50\u5356\u573a;\u624b\u673a\u9500\u552e|\u751f\u6d3b\u670d\u52a1;\u7ef4\u4fee\u7ad9\u70b9;\u7ef4\u4fee\u7ad9\u70b9", "pty": "0603"}}, {"type": "Feature", "geometry": {"type": "Point", "coordinates": [121.57868610536212, 31.351873707516795]}, "properties": {"name": "\u4e2d\u56fd\u79fb\u52a8(\u82b1\u5c71\u8def\u5e97)", "biz": "060305|071200 \u8d2d\u7269\u670d\u52a1;\u5bb6\u7535\u7535\u5b50\u5356\u573a;\u624b\u673a\u9500\u552e|\u751f\u6d3b\u670d\u52a1;\u7ef4\u4fee\u7ad9\u70b9;\u7ef4\u4fee\u7ad9\u70b9", "pty": "0603"}}, {"type": "Feature", "geometry": {"type": "Point", "coordinates": [121.6836557883483, 31.192718376995938]}, "properties": {"name": "\u6052\u5b87\u901a\u8baf(\u57ce\u4e30\u8def)", "biz": "060305|071200 \u8d2d\u7269\u670d\u52a1;\u5bb6\u7535\u7535\u5b50\u5356\u573a;\u624b\u673a\u9500\u552e|\u751f\u6d3b\u670d\u52a1;\u7ef4\u4fee\u7ad9\u70b9;\u7ef4\u4fee\u7ad9\u70b9", "pty": "0603"}}, {"type": "Feature", "geometry": {"type": "Point", "coordinates": [121.57159246331548, 31.345834970219155]}, "properties": {"name": "OPPO\u5ba2\u670d\u4e2d\u5fc3(\u9ad8\u6865)", "biz": "060305|071200 \u8d2d\u7269\u670d\u52a1;\u5bb6\u7535\u7535\u5b50\u5356\u573a;\u624b\u673a\u9500\u552e|\u751f\u6d3b\u670d\u52a1;\u7ef4\u4fee\u7ad9\u70b9;\u7ef4\u4fee\u7ad9\u70b9", "pty": "0603"}}, {"type": "Feature", "geometry": {"type": "Point", "coordinates": [121.58213893218006, 31.342275006262057]}, "properties": {"name": "\u4e2d\u56fd\u79fb\u52a8\u901a\u4fe1\u624b\u673a\u7ef4\u4fee(\u65b0\u4fa8\u533b\u9662\u5357\u5e97)", "biz": "060305|071200 \u8d2d\u7269\u670d\u52a1;\u5bb6\u7535\u7535\u5b50\u5356\u573a;\u624b\u673a\u9500\u552e|\u751f\u6d3b\u670d\u52a1;\u7ef4\u4fee\u7ad9\u70b9;\u7ef4\u4fee\u7ad9\u70b9", "pty": "0603"}}, {"type": "Feature", "geometry": {"type": "Point", "coordinates": [121.60874827890954, 31.207578383603952]}, "properties": {"name": "\u6167\u5a01\u7535\u8111(\u88c5\u4fee\u4e2d)", "biz": "060306|071200 \u8d2d\u7269\u670d\u52a1;\u5bb6\u7535\u7535\u5b50\u5356\u573a;\u6570\u7801\u7535\u5b50|\u751f\u6d3b\u670d\u52a1;\u7ef4\u4fee\u7ad9\u70b9;\u7ef4\u4fee\u7ad9\u70b9", "pty": "0603"}}, {"type": "Feature", "geometry": {"type": "Point", "coordinates": [121.55353296219785, 31.243534266600474]}, "properties": {"name": "\u6708\u997c\u306e\u6570\u7801\u94fa", "biz": "060306|071200 \u8d2d\u7269\u670d\u52a1;\u5bb6\u7535\u7535\u5b50\u5356\u573a;\u6570\u7801\u7535\u5b50|\u751f\u6d3b\u670d\u52a1;\u7ef4\u4fee\u7ad9\u70b9;\u7ef4\u4fee\u7ad9\u70b9", "pty": "0603"}}, {"type": "Feature", "geometry": {"type": "Point", "coordinates": [121.69372704041584, 31.196694845611688]}, "properties": {"name": "\u65ed\u65e5\u6570\u7801", "biz": "060306|071200 \u8d2d\u7269\u670d\u52a1;\u5bb6\u7535\u7535\u5b50\u5356\u573a;\u6570\u7801\u7535\u5b50|\u751f\u6d3b\u670d\u52a1;\u7ef4\u4fee\u7ad9\u70b9;\u7ef4\u4fee\u7ad9\u70b9", "pty": "0603"}}, {"type": "Feature", "geometry": {"type": "Point", "coordinates": [121.52540206579799, 31.18993713075083]}, "properties": {"name": "LG\u7535\u5b50(\u9ad8\u79d1\u897f\u8def)", "biz": "060306|071200 \u8d2d\u7269\u670d\u52a1;\u5bb6\u7535\u7535\u5b50\u5356\u573a;\u6570\u7801\u7535\u5b50|\u751f\u6d3b\u670d\u52a1;\u7ef4\u4fee\u7ad9\u70b9;\u7ef4\u4fee\u7ad9\u70b9", "pty": "0603"}}, {"type": "Feature", "geometry": {"type": "Point", "coordinates": [121.57941175217553, 31.352366007232103]}, "properties": {"name": "\u7fd4\u8dc3\u7535\u8111\u5e7f\u544a\u56fe\u6587", "biz": "060306|071200 \u8d2d\u7269\u670d\u52a1;\u5bb6\u7535\u7535\u5b50\u5356\u573a;\u6570\u7801\u7535\u5b50|\u751f\u6d3b\u670d\u52a1;\u7ef4\u4fee\u7ad9\u70b9;\u7ef4\u4fee\u7ad9\u70b9", "pty": "0603"}}, {"type": "Feature", "geometry": {"type": "Point", "coordinates": [121.56647573788896, 31.25266525273055]}, "properties": {"name": "\u9f99\u97f5\u82b1\u884c(\u4e91\u5c71\u4f11\u95f2\u5e7f\u573a)", "biz": "060501|071200 \u8d2d\u7269\u670d\u52a1;\u82b1\u9e1f\u9c7c\u866b\u5e02\u573a;\u82b1\u5349\u5e02\u573a|\u751f\u6d3b\u670d\u52a1;\u7ef4\u4fee\u7ad9\u70b9;\u7ef4\u4fee\u7ad9\u70b9", "pty": "0605"}}, {"type": "Feature", "geometry": {"type": "Point", "coordinates": [121.56647071759697, 31.252814180654124]}, "properties": {"name": "\u4f0a\u6735\u56ed\u827a(\u4e91\u5c71\u4f11\u95f2\u5e7f\u573a)", "biz": "060501|071200 \u8d2d\u7269\u670d\u52a1;\u82b1\u9e1f\u9c7c\u866b\u5e02\u573a;\u82b1\u5349\u5e02\u573a|\u751f\u6d3b\u670d\u52a1;\u7ef4\u4fee\u7ad9\u70b9;\u7ef4\u4fee\u7ad9\u70b9", "pty": "0605"}}, {"type": "Feature", "geometry": {"type": "Point", "coordinates": [121.56646369280234, 31.252979099102305]}, "properties": {"name": "\u9633\u5149\u82b1\u5349(\u4e91\u5c71\u4f11\u95f2\u5e7f\u573a)", "biz": "060501|071200 \u8d2d\u7269\u670d\u52a1;\u82b1\u9e1f\u9c7c\u866b\u5e02\u573a;\u82b1\u5349\u5e02\u573a|\u751f\u6d3b\u670d\u52a1;\u7ef4\u4fee\u7ad9\u70b9;\u7ef4\u4fee\u7ad9\u70b9", "pty": "0605"}}, {"type": "Feature", "geometry": {"type": "Point", "coordinates": [121.56656389099632, 31.252500431518133]}, "properties": {"name": "\u8001\u4e09\u56ed\u827a(\u4e91\u5c71\u4f11\u95f2\u5e7f\u573a)", "biz": "060501|071200 \u8d2d\u7269\u670d\u52a1;\u82b1\u9e1f\u9c7c\u866b\u5e02\u573a;\u82b1\u5349\u5e02\u573a|\u751f\u6d3b\u670d\u52a1;\u7ef4\u4fee\u7ad9\u70b9;\u7ef4\u4fee\u7ad9\u70b9", "pty": "0605"}}, {"type": "Feature", "geometry": {"type": "Point", "coordinates": [121.56659093518915, 31.25248247183659]}, "properties": {"name": "\u5c0f\u6768\u82b1\u5e97(\u4e91\u5c71\u4f11\u95f2\u5e7f\u573a)", "biz": "060501|071200 \u8d2d\u7269\u670d\u52a1;\u82b1\u9e1f\u9c7c\u866b\u5e02\u573a;\u82b1\u5349\u5e02\u573a|\u751f\u6d3b\u670d\u52a1;\u7ef4\u4fee\u7ad9\u70b9;\u7ef4\u4fee\u7ad9\u70b9", "pty": "0605"}}, {"type": "Feature", "geometry": {"type": "Point", "coordinates": [121.56693448907448, 31.252306957914726]}, "properties": {"name": "\u65b0\u65b0\u76c6\u666f(\u4e91\u5c71\u4f11\u95f2\u5e7f\u573a)", "biz": "060501|071200 \u8d2d\u7269\u670d\u52a1;\u82b1\u9e1f\u9c7c\u866b\u5e02\u573a;\u82b1\u5349\u5e02\u573a|\u751f\u6d3b\u670d\u52a1;\u7ef4\u4fee\u7ad9\u70b9;\u7ef4\u4fee\u7ad9\u70b9", "pty": "0605"}}, {"type": "Feature", "geometry": {"type": "Point", "coordinates": [121.56637855116415, 31.253057961728356]}, "properties": {"name": "\u4e0a\u6d77\u6d66\u4e1c\u5efa\u56fd\u82b1\u5349\u56ed\u827a(\u4e91\u5c71\u4f11\u95f2\u5e7f\u573a)", "biz": "060501|071200 \u8d2d\u7269\u670d\u52a1;\u82b1\u9e1f\u9c7c\u866b\u5e02\u573a;\u82b1\u5349\u5e02\u573a|\u751f\u6d3b\u670d\u52a1;\u7ef4\u4fee\u7ad9\u70b9;\u7ef4\u4fee\u7ad9\u70b9", "pty": "0605"}}, {"type": "Feature", "geometry": {"type": "Point", "coordinates": [121.51085353361908, 31.230547059093535]}, "properties": {"name": "\u6c49\u4f0a\u517b\u773c(\u516b\u4f70\u4f34\u5e97)", "biz": "061204|071200 \u8d2d\u7269\u670d\u52a1;\u4e13\u5356\u5e97;\u773c\u955c\u5e97|\u751f\u6d3b\u670d\u52a1;\u7ef4\u4fee\u7ad9\u70b9;\u7ef4\u4fee\u7ad9\u70b9", "pty": "0612"}}, {"type": "Feature", "geometry": {"type": "Point", "coordinates": [121.51360142982716, 31.23871422650114]}, "properties": {"name": "\u4e1c\u4e1c\u8f66\u884c", "biz": "061208|071200 \u8d2d\u7269\u670d\u52a1;\u4e13\u5356\u5e97;\u81ea\u884c\u8f66\u4e13\u5356\u5e97|\u751f\u6d3b\u670d\u52a1;\u7ef4\u4fee\u7ad9\u70b9;\u7ef4\u4fee\u7ad9\u70b9", "pty": "0612"}}, {"type": "Feature", "geometry": {"type": "Point", "coordinates": [121.57772705246559, 31.123394383413753]}, "properties": {"name": "\u5c0f\u6f58\u8f66\u884c(\u5ddd\u5468\u516c\u8def)", "biz": "061208|071200 \u8d2d\u7269\u670d\u52a1;\u4e13\u5356\u5e97;\u81ea\u884c\u8f66\u4e13\u5356\u5e97|\u751f\u6d3b\u670d\u52a1;\u7ef4\u4fee\u7ad9\u70b9;\u7ef4\u4fee\u7ad9\u70b9", "pty": "0612"}}, {"type": "Feature", "geometry": {"type": "Point", "coordinates": [121.52350816951358, 31.199025591155547]}, "properties": {"name": "\u660e\u8363\u8f66\u884c", "biz": "061208|071200 \u8d2d\u7269\u670d\u52a1;\u4e13\u5356\u5e97;\u81ea\u884c\u8f66\u4e13\u5356\u5e97|\u751f\u6d3b\u670d\u52a1;\u7ef4\u4fee\u7ad9\u70b9;\u7ef4\u4fee\u7ad9\u70b9", "pty": "0612"}}, {"type": "Feature", "geometry": {"type": "Point", "coordinates": [121.54572195389223, 31.24985068584483]}, "properties": {"name": "\u4e1c\u4e1c\u8f66\u884c(\u5d2e\u5c71\u8def\u5e97)", "biz": "061208|071200 \u8d2d\u7269\u670d\u52a1;\u4e13\u5356\u5e97;\u81ea\u884c\u8f66\u4e13\u5356\u5e97|\u751f\u6d3b\u670d\u52a1;\u7ef4\u4fee\u7ad9\u70b9;\u7ef4\u4fee\u7ad9\u70b9", "pty": "0612"}}, {"type": "Feature", "geometry": {"type": "Point", "coordinates": [121.51017895557248, 31.185477884484396]}, "properties": {"name": "\u9b4f\u6765\u8f66\u884c", "biz": "061208|071200 \u8d2d\u7269\u670d\u52a1;\u4e13\u5356\u5e97;\u81ea\u884c\u8f66\u4e13\u5356\u5e97|\u751f\u6d3b\u670d\u52a1;\u7ef4\u4fee\u7ad9\u70b9;\u7ef4\u4fee\u7ad9\u70b9", "pty": "0612"}}, {"type": "Feature", "geometry": {"type": "Point", "coordinates": [121.56786450127697, 31.26942558064775]}, "properties": {"name": "\u5355\u8f66\u604b", "biz": "061208|071200 \u8d2d\u7269\u670d\u52a1;\u4e13\u5356\u5e97;\u81ea\u884c\u8f66\u4e13\u5356\u5e97|\u751f\u6d3b\u670d\u52a1;\u7ef4\u4fee\u7ad9\u70b9;\u7ef4\u4fee\u7ad9\u70b9", "pty": "0612"}}, {"type": "Feature", "geometry": {"type": "Point", "coordinates": [121.48912055378004, 31.138538573655733]}, "properties": {"name": "\u8001\u6768\u8f66\u884c(\u6797\u60a6\u8def)", "biz": "061208|071200 \u8d2d\u7269\u670d\u52a1;\u4e13\u5356\u5e97;\u81ea\u884c\u8f66\u4e13\u5356\u5e97|\u751f\u6d3b\u670d\u52a1;\u7ef4\u4fee\u7ad9\u70b9;\u7ef4\u4fee\u7ad9\u70b9", "pty": "0612"}}, {"type": "Feature", "geometry": {"type": "Point", "coordinates": [121.58296747567265, 31.33133629011029]}, "properties": {"name": "\u5927\u4f17\u8f66\u884c(\u5357\u65b0\u8def)", "biz": "061208|071200 \u8d2d\u7269\u670d\u52a1;\u4e13\u5356\u5e97;\u81ea\u884c\u8f66\u4e13\u5356\u5e97|\u751f\u6d3b\u670d\u52a1;\u7ef4\u4fee\u7ad9\u70b9;\u7ef4\u4fee\u7ad9\u70b9", "pty": "0612"}}, {"type": "Feature", "geometry": {"type": "Point", "coordinates": [121.73145742794, 31.1355328133982]}, "properties": {"name": "\u5c0f\u5218\u8f66\u884c(\u666e\u65b0\u8def)", "biz": "061208|071200 \u8d2d\u7269\u670d\u52a1;\u4e13\u5356\u5e97;\u81ea\u884c\u8f66\u4e13\u5356\u5e97|\u751f\u6d3b\u670d\u52a1;\u7ef4\u4fee\u7ad9\u70b9;\u7ef4\u4fee\u7ad9\u70b9", "pty": "0612"}}, {"type": "Feature", "geometry": {"type": "Point", "coordinates": [121.56309654686792, 31.199017063289837]}, "properties": {"name": "\u5f6c\u5f6c", "biz": "061208|071200 \u8d2d\u7269\u670d\u52a1;\u4e13\u5356\u5e97;\u81ea\u884c\u8f66\u4e13\u5356\u5e97|\u751f\u6d3b\u670d\u52a1;\u7ef4\u4fee\u7ad9\u70b9;\u7ef4\u4fee\u7ad9\u70b9", "pty": "0612"}}, {"type": "Feature", "geometry": {"type": "Point", "coordinates": [121.59510802450531, 31.279974642731244]}, "properties": {"name": "\u8bda\u4fe1\u8f66\u884c(\u4e94\u83b2\u8def\u5e97)", "biz": "061208|071200 \u8d2d\u7269\u670d\u52a1;\u4e13\u5356\u5e97;\u81ea\u884c\u8f66\u4e13\u5356\u5e97|\u751f\u6d3b\u670d\u52a1;\u7ef4\u4fee\u7ad9\u70b9;\u7ef4\u4fee\u7ad9\u70b9", "pty": "0612"}}, {"type": "Feature", "geometry": {"type": "Point", "coordinates": [121.33302116448868, 30.85181908529536]}, "properties": {"name": "\u78ca\u8f69\u7535\u8111", "biz": "060306|071200 \u8d2d\u7269\u670d\u52a1;\u5bb6\u7535\u7535\u5b50\u5356\u573a;\u6570\u7801\u7535\u5b50|\u751f\u6d3b\u670d\u52a1;\u7ef4\u4fee\u7ad9\u70b9;\u7ef4\u4fee\u7ad9\u70b9", "pty": "0603"}}, {"type": "Feature", "geometry": {"type": "Point", "coordinates": [121.31062289699757, 30.884566714741506]}, "properties": {"name": "1+1\u7535\u8111\u7535\u5668", "biz": "060306|071200 \u8d2d\u7269\u670d\u52a1;\u5bb6\u7535\u7535\u5b50\u5356\u573a;\u6570\u7801\u7535\u5b50|\u751f\u6d3b\u670d\u52a1;\u7ef4\u4fee\u7ad9\u70b9;\u7ef4\u4fee\u7ad9\u70b9", "pty": "0603"}}, {"type": "Feature", "geometry": {"type": "Point", "coordinates": [121.33791243303028, 30.851574113561558]}, "properties": {"name": "\u4e1e\u822a\u79d1\u6280", "biz": "060306|071200|170200 \u8d2d\u7269\u670d\u52a1;\u5bb6\u7535\u7535\u5b50\u5356\u573a;\u6570\u7801\u7535\u5b50|\u751f\u6d3b\u670d\u52a1;\u7ef4\u4fee\u7ad9\u70b9;\u7ef4\u4fee\u7ad9\u70b9|\u516c\u53f8\u4f01\u4e1a;\u516c\u53f8;\u516c\u53f8", "pty": "0603"}}, {"type": "Feature", "geometry": {"type": "Point", "coordinates": [121.23648932631126, 30.831025898260965]}, "properties": {"name": "\u4e09\u661f\u7535\u5b50(\u9f99\u58eb\u8def)", "biz": "060306|071200 \u8d2d\u7269\u670d\u52a1;\u5bb6\u7535\u7535\u5b50\u5356\u573a;\u6570\u7801\u7535\u5b50|\u751f\u6d3b\u670d\u52a1;\u7ef4\u4fee\u7ad9\u70b9;\u7ef4\u4fee\u7ad9\u70b9", "pty": "0603"}}, {"type": "Feature", "geometry": {"type": "Point", "coordinates": [121.15473396468278, 30.887878863999603]}, "properties": {"name": "\u963f\u4fca\u8f66\u884c(\u91d1\u9f99\u65b0\u8857)", "biz": "061208|071200 \u8d2d\u7269\u670d\u52a1;\u4e13\u5356\u5e97;\u81ea\u884c\u8f66\u4e13\u5356\u5e97|\u751f\u6d3b\u670d\u52a1;\u7ef4\u4fee\u7ad9\u70b9;\u7ef4\u4fee\u7ad9\u70b9", "pty": "0612"}}, {"type": "Feature", "geometry": {"type": "Point", "coordinates": [121.3174908753769, 30.726871627055456]}, "properties": {"name": "\u6c38\u4e45\u7535\u52a8\u8f66\u4e13\u5356(\u8001\u536b\u6e05\u8def)", "biz": "061208|071200 \u8d2d\u7269\u670d\u52a1;\u4e13\u5356\u5e97;\u81ea\u884c\u8f66\u4e13\u5356\u5e97|\u751f\u6d3b\u670d\u52a1;\u7ef4\u4fee\u7ad9\u70b9;\u7ef4\u4fee\u7ad9\u70b9", "pty": "0612"}}, {"type": "Feature", "geometry": {"type": "Point", "coordinates": [121.33470703034166, 31.089950649585344]}, "properties": {"name": "\u81f3\u8fb0\u7535\u8111(\u7eff\u5730\u91d1\u5fa1\u5e7f\u573a\u5e97)", "biz": "060306|071200 \u8d2d\u7269\u670d\u52a1;\u5bb6\u7535\u7535\u5b50\u5356\u573a;\u6570\u7801\u7535\u5b50|\u751f\u6d3b\u670d\u52a1;\u7ef4\u4fee\u7ad9\u70b9;\u7ef4\u4fee\u7ad9\u70b9", "pty": "0603"}}, {"type": "Feature", "geometry": {"type": "Point", "coordinates": [121.23234924207532, 31.005555920196826]}, "properties": {"name": "\u4e0a\u8fbe\u7535\u52a8\u8f66(\u8c37\u9633\u5357\u8def)", "biz": "061208|071200 \u8d2d\u7269\u670d\u52a1;\u4e13\u5356\u5e97;\u81ea\u884c\u8f66\u4e13\u5356\u5e97|\u751f\u6d3b\u670d\u52a1;\u7ef4\u4fee\u7ad9\u70b9;\u7ef4\u4fee\u7ad9\u70b9", "pty": "0612"}}, {"type": "Feature", "geometry": {"type": "Point", "coordinates": [121.31405917148206, 30.94431405639318]}, "properties": {"name": "\u674f\u6797\u5802(\u53cc\u9ad8\u5e7f\u573a)", "biz": "061210|071200 \u8d2d\u7269\u670d\u52a1;\u4e13\u5356\u5e97;\u70df\u9152\u4e13\u5356\u5e97|\u751f\u6d3b\u670d\u52a1;\u7ef4\u4fee\u7ad9\u70b9;\u7ef4\u4fee\u7ad9\u70b9", "pty": "0612"}}, {"type": "Feature", "geometry": {"type": "Point", "coordinates": [121.21346927323899, 31.03481942629201]}, "properties": {"name": "\u5c0f\u718a\u5409\u4ed6(\u5609\u548c\u4f11\u95f2\u5e7f\u573a\u897f\u533a)", "biz": "141400|071200 \u79d1\u6559\u6587\u5316\u670d\u52a1;\u57f9\u8bad\u673a\u6784;\u57f9\u8bad\u673a\u6784|\u751f\u6d3b\u670d\u52a1;\u7ef4\u4fee\u7ad9\u70b9;\u7ef4\u4fee\u7ad9\u70b9", "pty": "1414"}}, {"type": "Feature", "geometry": {"type": "Point", "coordinates": [121.22830947419514, 31.155615193851222]}, "properties": {"name": "\u6210\u7f18\u901a\u8baf", "biz": "060305|071200 \u8d2d\u7269\u670d\u52a1;\u5bb6\u7535\u7535\u5b50\u5356\u573a;\u624b\u673a\u9500\u552e|\u751f\u6d3b\u670d\u52a1;\u7ef4\u4fee\u7ad9\u70b9;\u7ef4\u4fee\u7ad9\u70b9", "pty": "0603"}}, {"type": "Feature", "geometry": {"type": "Point", "coordinates": [121.03849973587813, 31.01327219557445]}, "properties": {"name": "SAMSUNG(\u4e0a\u6d77\u5409\u5e73\u7ec3\u5858\u5e97)", "biz": "060305|071200 \u8d2d\u7269\u670d\u52a1;\u5bb6\u7535\u7535\u5b50\u5356\u573a;\u624b\u673a\u9500\u552e|\u751f\u6d3b\u670d\u52a1;\u7ef4\u4fee\u7ad9\u70b9;\u7ef4\u4fee\u7ad9\u70b9", "pty": "0603"}}, {"type": "Feature", "geometry": {"type": "Point", "coordinates": [121.22256655353857, 31.247164327074746]}, "properties": {"name": "\u5168\u5929\u7535\u8111(\u534e\u65b0\u8857\u5e97)", "biz": "060306|071200 \u8d2d\u7269\u670d\u52a1;\u5bb6\u7535\u7535\u5b50\u5356\u573a;\u6570\u7801\u7535\u5b50|\u751f\u6d3b\u670d\u52a1;\u7ef4\u4fee\u7ad9\u70b9;\u7ef4\u4fee\u7ad9\u70b9", "pty": "0603"}}, {"type": "Feature", "geometry": {"type": "Point", "coordinates": [121.22140566124301, 31.245856929831895]}, "properties": {"name": "\u534e\u7855\u7535\u8111\u4e13\u5356\u5e97\u552e\u540e\u670d\u52a1\u4e2d\u5fc3", "biz": "060306|071200 \u8d2d\u7269\u670d\u52a1;\u5bb6\u7535\u7535\u5b50\u5356\u573a;\u6570\u7801\u7535\u5b50|\u751f\u6d3b\u670d\u52a1;\u7ef4\u4fee\u7ad9\u70b9;\u7ef4\u4fee\u7ad9\u70b9", "pty": "0603"}}, {"type": "Feature", "geometry": {"type": "Point", "coordinates": [121.12807002832633, 31.18787574470999]}, "properties": {"name": "\u5168\u5929\u7535\u8111\u7ecf\u8425\u90e8(\u9999\u82b1\u6865\u5e97)", "biz": "060306|071200 \u8d2d\u7269\u670d\u52a1;\u5bb6\u7535\u7535\u5b50\u5356\u573a;\u6570\u7801\u7535\u5b50|\u751f\u6d3b\u670d\u52a1;\u7ef4\u4fee\u7ad9\u70b9;\u7ef4\u4fee\u7ad9\u70b9", "pty": "0603"}}, {"type": "Feature", "geometry": {"type": "Point", "coordinates": [121.05218500680338, 31.07801135655582]}, "properties": {"name": "\u4e3a\u6c11\u8f66\u884c(\u9752\u6d66\u9547\u6731\u5bb6\u89d2\u9547\u8d22\u653f\u6240\u4e1c)", "biz": "061208|071200 \u8d2d\u7269\u670d\u52a1;\u4e13\u5356\u5e97;\u81ea\u884c\u8f66\u4e13\u5356\u5e97|\u751f\u6d3b\u670d\u52a1;\u7ef4\u4fee\u7ad9\u70b9;\u7ef4\u4fee\u7ad9\u70b9", "pty": "0612"}}, {"type": "Feature", "geometry": {"type": "Point", "coordinates": [121.30219249449001, 31.16158675763357]}, "properties": {"name": "\u8dc3\u7fa4\u8f66\u884c", "biz": "061208|071200 \u8d2d\u7269\u670d\u52a1;\u4e13\u5356\u5e97;\u81ea\u884c\u8f66\u4e13\u5356\u5e97|\u751f\u6d3b\u670d\u52a1;\u7ef4\u4fee\u7ad9\u70b9;\u7ef4\u4fee\u7ad9\u70b9", "pty": "0612"}}, {"type": "Feature", "geometry": {"type": "Point", "coordinates": [121.71627828621071, 30.94012985898126]}, "properties": {"name": "\u79d1\u9f99\u7a7a\u8c03\u4e13\u5356", "biz": "060301|071200 \u8d2d\u7269\u670d\u52a1;\u5bb6\u7535\u7535\u5b50\u5356\u573a;\u7efc\u5408\u5bb6\u7535\u5546\u573a|\u751f\u6d3b\u670d\u52a1;\u7ef4\u4fee\u7ad9\u70b9;\u7ef4\u4fee\u7ad9\u70b9", "pty": "0603"}}, {"type": "Feature", "geometry": {"type": "Point", "coordinates": [121.43884781400186, 30.963876660351676]}, "properties": {"name": "\u519b\u6d9b\u7535\u8111\u7ef4\u4fee", "biz": "060306|071200 \u8d2d\u7269\u670d\u52a1;\u5bb6\u7535\u7535\u5b50\u5356\u573a;\u6570\u7801\u7535\u5b50|\u751f\u6d3b\u670d\u52a1;\u7ef4\u4fee\u7ad9\u70b9;\u7ef4\u4fee\u7ad9\u70b9", "pty": "0603"}}, {"type": "Feature", "geometry": {"type": "Point", "coordinates": [121.42902401346625, 30.98910708948737]}, "properties": {"name": "\u8702\u9e1f\u79d1\u6280", "biz": "060306|071200 \u8d2d\u7269\u670d\u52a1;\u5bb6\u7535\u7535\u5b50\u5356\u573a;\u6570\u7801\u7535\u5b50|\u751f\u6d3b\u670d\u52a1;\u7ef4\u4fee\u7ad9\u70b9;\u7ef4\u4fee\u7ad9\u70b9", "pty": "0603"}}, {"type": "Feature", "geometry": {"type": "Point", "coordinates": [121.45512544592685, 30.913920142014522]}, "properties": {"name": "\u9a81\u9a70\u7535\u8111\u79d1\u6280", "biz": "060306|071200 \u8d2d\u7269\u670d\u52a1;\u5bb6\u7535\u7535\u5b50\u5356\u573a;\u6570\u7801\u7535\u5b50|\u751f\u6d3b\u670d\u52a1;\u7ef4\u4fee\u7ad9\u70b9;\u7ef4\u4fee\u7ad9\u70b9", "pty": "0603"}}, {"type": "Feature", "geometry": {"type": "Point", "coordinates": [121.46322622399182, 30.914530795074146]}, "properties": {"name": "\u4e0a\u6d77\u5609\u8f89\u7535\u8111\u6709\u9650\u516c\u53f8", "biz": "060306|071200 \u8d2d\u7269\u670d\u52a1;\u5bb6\u7535\u7535\u5b50\u5356\u573a;\u6570\u7801\u7535\u5b50|\u751f\u6d3b\u670d\u52a1;\u7ef4\u4fee\u7ad9\u70b9;\u7ef4\u4fee\u7ad9\u70b9", "pty": "0603"}}, {"type": "Feature", "geometry": {"type": "Point", "coordinates": [121.42670699925866, 30.99270586109909]}, "properties": {"name": "\u534e\u7855\u7535\u8111(\u9e3f\u5b66\u8def)", "biz": "060306|071200 \u8d2d\u7269\u670d\u52a1;\u5bb6\u7535\u7535\u5b50\u5356\u573a;\u6570\u7801\u7535\u5b50|\u751f\u6d3b\u670d\u52a1;\u7ef4\u4fee\u7ad9\u70b9;\u7ef4\u4fee\u7ad9\u70b9", "pty": "0603"}}, {"type": "Feature", "geometry": {"type": "Point", "coordinates": [121.79619711746321, 31.528650175032304]}, "properties": {"name": "\u65b0\u5927\u6d32\u8f66\u884c", "biz": "061208|071200 \u8d2d\u7269\u670d\u52a1;\u4e13\u5356\u5e97;\u81ea\u884c\u8f66\u4e13\u5356\u5e97|\u751f\u6d3b\u670d\u52a1;\u7ef4\u4fee\u7ad9\u70b9;\u7ef4\u4fee\u7ad9\u70b9", "pty": "0612"}}]}