{"type": "FeatureCollection", "features": [{"type": "Feature", "geometry": {"type": "Point", "coordinates": [121.25365541293995, 31.401689841247325]}, "properties": {"name": "\u8499\u591a\u7535\u7ade", "biz": "080308 \u4f53\u80b2\u4f11\u95f2\u670d\u52a1;\u5a31\u4e50\u573a\u6240;\u7f51\u5427", "pty": "0803"}}, {"type": "Feature", "geometry": {"type": "Point", "coordinates": [121.3522646971642, 31.251571469139826]}, "properties": {"name": "\u6218\u72fc\u7535\u7ade", "biz": "080308 \u4f53\u80b2\u4f11\u95f2\u670d\u52a1;\u5a31\u4e50\u573a\u6240;\u7f51\u5427", "pty": "0803"}}, {"type": "Feature", "geometry": {"type": "Point", "coordinates": [121.24735245763804, 31.367728249222367]}, "properties": {"name": "\u9006\u98ce\u7535\u7ade", "biz": "080308 \u4f53\u80b2\u4f11\u95f2\u670d\u52a1;\u5a31\u4e50\u573a\u6240;\u7f51\u5427", "pty": "0803"}}, {"type": "Feature", "geometry": {"type": "Point", "coordinates": [121.36225918651903, 31.253512883367446]}, "properties": {"name": "\u864e\u732b\u7535\u7ade", "biz": "080308 \u4f53\u80b2\u4f11\u95f2\u670d\u52a1;\u5a31\u4e50\u573a\u6240;\u7f51\u5427", "pty": "0803"}}, {"type": "Feature", "geometry": {"type": "Point", "coordinates": [121.15025725868382, 31.29865643868863]}, "properties": {"name": "\u9038\u7f51\u7535\u7ade", "biz": "080308 \u4f53\u80b2\u4f11\u95f2\u670d\u52a1;\u5a31\u4e50\u573a\u6240;\u7f51\u5427", "pty": "0803"}}, {"type": "Feature", "geometry": {"type": "Point", "coordinates": [121.58282521127667, 31.272911183594548]}, "properties": {"name": "\u864e\u732b\u7535\u7ade(\u5f20\u6768\u5317\u8def\u5e97)", "biz": "080305 \u4f53\u80b2\u4f11\u95f2\u670d\u52a1;\u5a31\u4e50\u573a\u6240;\u6e38\u620f\u5385", "pty": "0803"}}, {"type": "Feature", "geometry": {"type": "Point", "coordinates": [121.51075235513399, 31.22845073983865]}, "properties": {"name": "\u864e\u732b\u7535\u7ade(\u5f20\u6768\u8def\u5e97)", "biz": "080308 \u4f53\u80b2\u4f11\u95f2\u670d\u52a1;\u5a31\u4e50\u573a\u6240;\u7f51\u5427", "pty": "0803"}}, {"type": "Feature", "geometry": {"type": "Point", "coordinates": [121.57057689963902, 31.130623293674418]}, "properties": {"name": "\u864e\u732b\u7535\u7ade(\u79c0\u6d66\u8def\u5e97)", "biz": "080308 \u4f53\u80b2\u4f11\u95f2\u670d\u52a1;\u5a31\u4e50\u573a\u6240;\u7f51\u5427", "pty": "0803"}}, {"type": "Feature", "geometry": {"type": "Point", "coordinates": [121.57532309677416, 31.152137161843353]}, "properties": {"name": "\u661f\u7ade\u754c\u7535\u7ade\u7f51\u5496", "biz": "080308 \u4f53\u80b2\u4f11\u95f2\u670d\u52a1;\u5a31\u4e50\u573a\u6240;\u7f51\u5427", "pty": "0803"}}, {"type": "Feature", "geometry": {"type": "Point", "coordinates": [121.62386981567116, 31.25310526657052]}, "properties": {"name": "\u6021\u4e50\u7535\u7ade\u7f51\u5496", "biz": "080308 \u4f53\u80b2\u4f11\u95f2\u670d\u52a1;\u5a31\u4e50\u573a\u6240;\u7f51\u5427", "pty": "0803"}}, {"type": "Feature", "geometry": {"type": "Point", "coordinates": [121.18095115503236, 31.04747959782606]}, "properties": {"name": "WE LOVE\u7535\u7ade", "biz": "080304 \u4f53\u80b2\u4f11\u95f2\u670d\u52a1;\u5a31\u4e50\u573a\u6240;\u9152\u5427", "pty": "0803"}}, {"type": "Feature", "geometry": {"type": "Point", "coordinates": [121.27942912503516, 31.112573201070337]}, "properties": {"name": "\u8f7b\u821f\u7f51\u7edc\u6e38\u827a\u7535\u7ade(\u957f\u65bd\u8def)", "biz": "080305 \u4f53\u80b2\u4f11\u95f2\u670d\u52a1;\u5a31\u4e50\u573a\u6240;\u6e38\u620f\u5385", "pty": "0803"}}, {"type": "Feature", "geometry": {"type": "Point", "coordinates": [121.23122944957831, 31.008762468417203]}, "properties": {"name": "\u4e91\u732b\u7535\u7ade\u7f51\u5496(\u5e73\u9ad8\u4e16\u8d38\u5e97)", "biz": "080308 \u4f53\u80b2\u4f11\u95f2\u670d\u52a1;\u5a31\u4e50\u573a\u6240;\u7f51\u5427", "pty": "0803"}}, {"type": "Feature", "geometry": {"type": "Point", "coordinates": [121.19225780557359, 31.01866003489509]}, "properties": {"name": "\u864e\u732b\u7535\u7ade(\u65b0\u7406\u60f3\u5e97)", "biz": "080308 \u4f53\u80b2\u4f11\u95f2\u670d\u52a1;\u5a31\u4e50\u573a\u6240;\u7f51\u5427", "pty": "0803"}}, {"type": "Feature", "geometry": {"type": "Point", "coordinates": [121.23741580248925, 31.05487910834413]}, "properties": {"name": "\u9f99\u7535\u7ade\u7f51\u5427(\u88c5\u4fee\u4e2d)", "biz": "080308 \u4f53\u80b2\u4f11\u95f2\u670d\u52a1;\u5a31\u4e50\u573a\u6240;\u7f51\u5427", "pty": "0803"}}, {"type": "Feature", "geometry": {"type": "Point", "coordinates": [121.24181941199035, 31.018961940753872]}, "properties": {"name": "\u864e\u732b\u7535\u7ade", "biz": "080308 \u4f53\u80b2\u4f11\u95f2\u670d\u52a1;\u5a31\u4e50\u573a\u6240;\u7f51\u5427", "pty": "0803"}}, {"type": "Feature", "geometry": {"type": "Point", "coordinates": [121.1875942657462, 31.160989604359454]}, "properties": {"name": "666\u7535\u7ade\u7f51\u5496", "biz": "080308 \u4f53\u80b2\u4f11\u95f2\u670d\u52a1;\u5a31\u4e50\u573a\u6240;\u7f51\u5427", "pty": "0803"}}, {"type": "Feature", "geometry": {"type": "Point", "coordinates": [121.51877335897576, 30.839795533434405]}, "properties": {"name": "\u4e2d\u5f55\u65f6\u7a7a\u7535\u7ade\u7f51\u5496(\u51cc\u4e91\u5e97)", "biz": "080308 \u4f53\u80b2\u4f11\u95f2\u670d\u52a1;\u5a31\u4e50\u573a\u6240;\u7f51\u5427", "pty": "0803"}}, {"type": "Feature", "geometry": {"type": "Point", "coordinates": [121.45534500633048, 30.914576272553415]}, "properties": {"name": "\u98de\u8fbe\u7535\u7ade\u7f51\u5496", "biz": "080308 \u4f53\u80b2\u4f11\u95f2\u670d\u52a1;\u5a31\u4e50\u573a\u6240;\u7f51\u5427", "pty": "0803"}}, {"type": "Feature", "geometry": {"type": "Point", "coordinates": [121.43381294935818, 31.192691098477585]}, "properties": {"name": "\u7ffc\u4e16\u754c\u7535\u7ade\u9986", "biz": "080308 \u4f53\u80b2\u4f11\u95f2\u670d\u52a1;\u5a31\u4e50\u573a\u6240;\u7f51\u5427", "pty": "0803"}}, {"type": "Feature", "geometry": {"type": "Point", "coordinates": [121.48972649987476, 31.259028403014785]}, "properties": {"name": "\u5927\u672c\u8425\u7f51\u5496\u7535\u7ade(\u88c5\u4fee\u4e2d)", "biz": "080308 \u4f53\u80b2\u4f11\u95f2\u670d\u52a1;\u5a31\u4e50\u573a\u6240;\u7f51\u5427", "pty": "0803"}}, {"type": "Feature", "geometry": {"type": "Point", "coordinates": [121.48083668266501, 31.298272790755526]}, "properties": {"name": "\u57fa\u56e0\u7535\u7ade", "biz": "080308 \u4f53\u80b2\u4f11\u95f2\u670d\u52a1;\u5a31\u4e50\u573a\u6240;\u7f51\u5427", "pty": "0803"}}, {"type": "Feature", "geometry": {"type": "Point", "coordinates": [121.48517673841332, 31.25374821019035]}, "properties": {"name": "\u864e\u732b\u7535\u7ade(\u5ce8\u5d4b\u8def\u5e97)", "biz": "080308 \u4f53\u80b2\u4f11\u95f2\u670d\u52a1;\u5a31\u4e50\u573a\u6240;\u7f51\u5427", "pty": "0803"}}, {"type": "Feature", "geometry": {"type": "Point", "coordinates": [121.51031234747147, 31.30513157798982]}, "properties": {"name": "\u7ade\u7eaa\u7535\u7ade\u9986(\u5e73\u76db\u5927\u53a6\u5e97)", "biz": "080308 \u4f53\u80b2\u4f11\u95f2\u670d\u52a1;\u5a31\u4e50\u573a\u6240;\u7f51\u5427", "pty": "0803"}}, {"type": "Feature", "geometry": {"type": "Point", "coordinates": [121.53031318417274, 31.301726659211138]}, "properties": {"name": "\u4e07\u5ba2\u7535\u7ade\u7f51\u5496", "biz": "080308 \u4f53\u80b2\u4f11\u95f2\u670d\u52a1;\u5a31\u4e50\u573a\u6240;\u7f51\u5427", "pty": "0803"}}, {"type": "Feature", "geometry": {"type": "Point", "coordinates": [121.39853522518541, 31.07552395104971]}, "properties": {"name": "\u738b\u8005\u7535\u7ade\u9986", "biz": "080308 \u4f53\u80b2\u4f11\u95f2\u670d\u52a1;\u5a31\u4e50\u573a\u6240;\u7f51\u5427", "pty": "0803"}}, {"type": "Feature", "geometry": {"type": "Point", "coordinates": [121.42702524683048, 31.01876292191608]}, "properties": {"name": "\u660e\u57fa\u7535\u7ade\u9986(\u95f5\u884c\u4ea4\u5927\u5e97)", "biz": "080308 \u4f53\u80b2\u4f11\u95f2\u670d\u52a1;\u5a31\u4e50\u573a\u6240;\u7f51\u5427", "pty": "0803"}}, {"type": "Feature", "geometry": {"type": "Point", "coordinates": [121.35281008332657, 31.131566058605674]}, "properties": {"name": "\u7535\u7ade\u7f51\u5496", "biz": "080308 \u4f53\u80b2\u4f11\u95f2\u670d\u52a1;\u5a31\u4e50\u573a\u6240;\u7f51\u5427", "pty": "0803"}}, {"type": "Feature", "geometry": {"type": "Point", "coordinates": [121.37155940155964, 31.112415509120833]}, "properties": {"name": "\u864e\u732b\u7535\u7ade(\u8398\u8c2d\u8def\u5e97)", "biz": "080308 \u4f53\u80b2\u4f11\u95f2\u670d\u52a1;\u5a31\u4e50\u573a\u6240;\u7f51\u5427", "pty": "0803"}}, {"type": "Feature", "geometry": {"type": "Point", "coordinates": [121.38353406367804, 31.179150238279792]}, "properties": {"name": "NEWBING\u7535\u7ade\u7f51\u5496", "biz": "080308 \u4f53\u80b2\u4f11\u95f2\u670d\u52a1;\u5a31\u4e50\u573a\u6240;\u7f51\u5427", "pty": "0803"}}, {"type": "Feature", "geometry": {"type": "Point", "coordinates": [121.4838438400632, 31.384744452222296]}, "properties": {"name": "\u7f51\u9c7c\u7f51\u5496(\u864e\u732b\u7535\u7ade\u540c\u6d4e\u8def\u5e97)", "biz": "080308 \u4f53\u80b2\u4f11\u95f2\u670d\u52a1;\u5a31\u4e50\u573a\u6240;\u7f51\u5427", "pty": "0803"}}, {"type": "Feature", "geometry": {"type": "Point", "coordinates": [121.43091534800847, 31.322848871295406]}, "properties": {"name": "\u864e\u732b\u7535\u7ade(\u5171\u5eb7\u8def)", "biz": "080308 \u4f53\u80b2\u4f11\u95f2\u670d\u52a1;\u5a31\u4e50\u573a\u6240;\u7f51\u5427", "pty": "0803"}}, {"type": "Feature", "geometry": {"type": "Point", "coordinates": [121.44433362145143, 31.341465476242178]}, "properties": {"name": "\u7535\u7ade\u7f51\u5496", "biz": "080308 \u4f53\u80b2\u4f11\u95f2\u670d\u52a1;\u5a31\u4e50\u573a\u6240;\u7f51\u5427", "pty": "0803"}}, {"type": "Feature", "geometry": {"type": "Point", "coordinates": [121.44278433553964, 31.325839023717418]}, "properties": {"name": "\u7535\u7ade\u7f51\u5496(\u4e07\u8fbe\u5e7f\u573a)", "biz": "080308 \u4f53\u80b2\u4f11\u95f2\u670d\u52a1;\u5a31\u4e50\u573a\u6240;\u7f51\u5427", "pty": "0803"}}, {"type": "Feature", "geometry": {"type": "Point", "coordinates": [121.44421070981313, 31.314023233013717]}, "properties": {"name": "\u661f\u8fb0\u7535\u7ade(\u5171\u548c\u65b0\u8def\u5e97)", "biz": "080308 \u4f53\u80b2\u4f11\u95f2\u670d\u52a1;\u5a31\u4e50\u573a\u6240;\u7f51\u5427", "pty": "0803"}}, {"type": "Feature", "geometry": {"type": "Point", "coordinates": [121.36689981938386, 31.178164876216783]}, "properties": {"name": "\u5b8c\u7f8e\u9b54\u6770\u7535\u7ade\u5f71\u9662(\u95f5\u884c\u5e97)", "biz": "080601 \u4f53\u80b2\u4f11\u95f2\u670d\u52a1;\u5f71\u5267\u9662;\u7535\u5f71\u9662", "pty": "0806"}}]}