{"type": "FeatureCollection", "features": [{"type": "Feature", "geometry": {"type": "Point", "coordinates": [121.25518358465783, 31.11946402156825]}, "properties": {"name": "\u5927\u6da6\u53d1\u7535\u52a8\u8f66\u4e13\u5356\u5385(\u4e09\u6e58\u5546\u4e1a\u5e7f\u573a)", "biz": "061208|060400 \u8d2d\u7269\u670d\u52a1;\u4e13\u5356\u5e97;\u81ea\u884c\u8f66\u4e13\u5356\u5e97|\u8d2d\u7269\u670d\u52a1;\u8d85\u7ea7\u5e02\u573a;\u8d85\u5e02", "pty": "0612"}}, {"type": "Feature", "geometry": {"type": "Point", "coordinates": [121.40151222133215, 31.19531014808575]}, "properties": {"name": "\u94c1\u4e09\u6982\u5ff5\u5e97", "biz": "061208|060907 \u8d2d\u7269\u670d\u52a1;\u4e13\u5356\u5e97;\u81ea\u884c\u8f66\u4e13\u5356\u5e97|\u8d2d\u7269\u670d\u52a1;\u4f53\u80b2\u7528\u54c1\u5e97;\u6237\u5916\u7528\u54c1", "pty": "0612"}}, {"type": "Feature", "geometry": {"type": "Point", "coordinates": [121.42341277570014, 31.20566449406379]}, "properties": {"name": "\u6377\u5b89\u7279(\u6cd5\u534e\u9547\u8def\u5e97)", "biz": "061208 \u8d2d\u7269\u670d\u52a1;\u4e13\u5356\u5e97;\u81ea\u884c\u8f66\u4e13\u5356\u5e97", "pty": "0612"}}, {"type": "Feature", "geometry": {"type": "Point", "coordinates": [121.40464111720581, 31.218688567305744]}, "properties": {"name": "\u8f6e\u8bed\u5355\u8f66\u4ff1\u4e50\u90e8", "biz": "061208 \u8d2d\u7269\u670d\u52a1;\u4e13\u5356\u5e97;\u81ea\u884c\u8f66\u4e13\u5356\u5e97", "pty": "0612"}}, {"type": "Feature", "geometry": {"type": "Point", "coordinates": [121.39496550004337, 31.21176598181971]}, "properties": {"name": "\u6377\u5b89\u7279(\u8305\u53f0\u8def\u4e13\u5356\u5e97)", "biz": "061208 \u8d2d\u7269\u670d\u52a1;\u4e13\u5356\u5e97;\u81ea\u884c\u8f66\u4e13\u5356\u5e97", "pty": "0612"}}, {"type": "Feature", "geometry": {"type": "Point", "coordinates": [121.38064818312986, 31.214439741123755]}, "properties": {"name": "\u661f\u6708\u795e(\u65b0\u957f\u5b81\u6750\u6599\u5e02\u573a\u5e97)", "biz": "061208 \u8d2d\u7269\u670d\u52a1;\u4e13\u5356\u5e97;\u81ea\u884c\u8f66\u4e13\u5356\u5e97", "pty": "0612"}}, {"type": "Feature", "geometry": {"type": "Point", "coordinates": [121.34796448170589, 31.223283470649903]}, "properties": {"name": "yesoul", "biz": "061208 \u8d2d\u7269\u670d\u52a1;\u4e13\u5356\u5e97;\u81ea\u884c\u8f66\u4e13\u5356\u5e97", "pty": "0612"}}, {"type": "Feature", "geometry": {"type": "Point", "coordinates": [121.40709291636495, 31.21059732174152]}, "properties": {"name": "\u6770\u5b9d\u5927\u738b", "biz": "061208 \u8d2d\u7269\u670d\u52a1;\u4e13\u5356\u5e97;\u81ea\u884c\u8f66\u4e13\u5356\u5e97", "pty": "0612"}}, {"type": "Feature", "geometry": {"type": "Point", "coordinates": [121.36374454909704, 31.22291890047858]}, "properties": {"name": "\u65b0\u5927\u6d32\u7535\u52a8\u8f66(\u5251\u6cb3\u8def)", "biz": "061208 \u8d2d\u7269\u670d\u52a1;\u4e13\u5356\u5e97;\u81ea\u884c\u8f66\u4e13\u5356\u5e97", "pty": "0612"}}, {"type": "Feature", "geometry": {"type": "Point", "coordinates": [121.4052783650007, 31.218755740290387]}, "properties": {"name": "\u4e0a\u6d77\u957f\u5b81\u8def\u5355\u8f66\u6982\u5ff5\u5e97", "biz": "061208 \u8d2d\u7269\u670d\u52a1;\u4e13\u5356\u5e97;\u81ea\u884c\u8f66\u4e13\u5356\u5e97", "pty": "0612"}}, {"type": "Feature", "geometry": {"type": "Point", "coordinates": [121.38695080678363, 31.20406804461826]}, "properties": {"name": "\u7eff\u4eae\u7535\u52a8\u8f66(\u6c34\u57ce\u8def\u5e97)", "biz": "061208 \u8d2d\u7269\u670d\u52a1;\u4e13\u5356\u5e97;\u81ea\u884c\u8f66\u4e13\u5356\u5e97", "pty": "0612"}}, {"type": "Feature", "geometry": {"type": "Point", "coordinates": [121.37653389222577, 31.215325569501708]}, "properties": {"name": "\u5c0f\u82d7\u8f66\u884c(\u65b0\u6e14\u4e1c\u8def)", "biz": "061208|071200 \u8d2d\u7269\u670d\u52a1;\u4e13\u5356\u5e97;\u81ea\u884c\u8f66\u4e13\u5356\u5e97|\u751f\u6d3b\u670d\u52a1;\u7ef4\u4fee\u7ad9\u70b9;\u7ef4\u4fee\u7ad9\u70b9", "pty": "0612"}}, {"type": "Feature", "geometry": {"type": "Point", "coordinates": [121.40906277385824, 31.2020253879785]}, "properties": {"name": "\u96c5\u8fea\u7535\u52a8\u8f66(\u5b89\u987a\u8def)", "biz": "061208 \u8d2d\u7269\u670d\u52a1;\u4e13\u5356\u5e97;\u81ea\u884c\u8f66\u4e13\u5356\u5e97", "pty": "0612"}}, {"type": "Feature", "geometry": {"type": "Point", "coordinates": [121.41440371637053, 31.21479656234275]}, "properties": {"name": "\u4f9d\u83b1\u8fbe", "biz": "061208 \u8d2d\u7269\u670d\u52a1;\u4e13\u5356\u5e97;\u81ea\u884c\u8f66\u4e13\u5356\u5e97", "pty": "0612"}}, {"type": "Feature", "geometry": {"type": "Point", "coordinates": [121.36888014310566, 31.212274711980207]}, "properties": {"name": "\u4e0a\u6d77\u5f00\u987a\u7535\u52a8\u8f66(\u54c8\u5bc6\u8def)", "biz": "061208 \u8d2d\u7269\u670d\u52a1;\u4e13\u5356\u5e97;\u81ea\u884c\u8f66\u4e13\u5356\u5e97", "pty": "0612"}}, {"type": "Feature", "geometry": {"type": "Point", "coordinates": [121.36841038421666, 31.21673211766959]}, "properties": {"name": "\u81ea\u884c\u8f66\u914d\u4ef6\u6279\u53d1\u884c", "biz": "061208 \u8d2d\u7269\u670d\u52a1;\u4e13\u5356\u5e97;\u81ea\u884c\u8f66\u4e13\u5356\u5e97", "pty": "0612"}}, {"type": "Feature", "geometry": {"type": "Point", "coordinates": [121.41734973954202, 31.213222708636696]}, "properties": {"name": "\u4e45\u4e9a\u7535\u52a8\u8f66(\u662d\u5316\u8def\u5e97)", "biz": "061208 \u8d2d\u7269\u670d\u52a1;\u4e13\u5356\u5e97;\u81ea\u884c\u8f66\u4e13\u5356\u5e97", "pty": "0612"}}, {"type": "Feature", "geometry": {"type": "Point", "coordinates": [121.39756094259344, 31.216403596558084]}, "properties": {"name": "\u6b66\u5937\u8f66\u884c(\u7389\u5c4f\u5357\u8def\u5e97)", "biz": "061208 \u8d2d\u7269\u670d\u52a1;\u4e13\u5356\u5e97;\u81ea\u884c\u8f66\u4e13\u5356\u5e97", "pty": "0612"}}, {"type": "Feature", "geometry": {"type": "Point", "coordinates": [121.36855505629119, 31.195280361564965]}, "properties": {"name": "\u4e0a\u6d77\u4f9d\u83b1\u8fbe\u7535\u52a8\u8f66(\u5251\u6cb3\u8def)", "biz": "061208 \u8d2d\u7269\u670d\u52a1;\u4e13\u5356\u5e97;\u81ea\u884c\u8f66\u4e13\u5356\u5e97", "pty": "0612"}}, {"type": "Feature", "geometry": {"type": "Point", "coordinates": [121.4160532874637, 31.21466191893643]}, "properties": {"name": "\u5b8f\u8d85\u8f66\u884c(\u6b66\u5937\u5e97)", "biz": "061208 \u8d2d\u7269\u670d\u52a1;\u4e13\u5356\u5e97;\u81ea\u884c\u8f66\u4e13\u5356\u5e97", "pty": "0612"}}, {"type": "Feature", "geometry": {"type": "Point", "coordinates": [121.3874154209367, 31.205740022415494]}, "properties": {"name": "\u98ce\u9a70\u8f66\u884c(\u8679\u53e4\u8def)", "biz": "061208 \u8d2d\u7269\u670d\u52a1;\u4e13\u5356\u5e97;\u81ea\u884c\u8f66\u4e13\u5356\u5e97", "pty": "0612"}}, {"type": "Feature", "geometry": {"type": "Point", "coordinates": [121.41399713722862, 31.19430422930897]}, "properties": {"name": "\u8302\u76db\u8f66\u884c(\u4f9d\u83b1\u8fbe\u4e13\u5356\u5e97)", "biz": "061208 \u8d2d\u7269\u670d\u52a1;\u4e13\u5356\u5e97;\u81ea\u884c\u8f66\u4e13\u5356\u5e97", "pty": "0612"}}, {"type": "Feature", "geometry": {"type": "Point", "coordinates": [121.36271260511369, 31.217560788689003]}, "properties": {"name": "\u4e0a\u6d77\u6b27\u901a", "biz": "061208 \u8d2d\u7269\u670d\u52a1;\u4e13\u5356\u5e97;\u81ea\u884c\u8f66\u4e13\u5356\u5e97", "pty": "0612"}}, {"type": "Feature", "geometry": {"type": "Point", "coordinates": [121.36296370634099, 31.22340569249546]}, "properties": {"name": "\u96c5\u8fea\u7535\u52a8\u8f66", "biz": "061208 \u8d2d\u7269\u670d\u52a1;\u4e13\u5356\u5e97;\u81ea\u884c\u8f66\u4e13\u5356\u5e97", "pty": "0612"}}, {"type": "Feature", "geometry": {"type": "Point", "coordinates": [121.38503507050392, 31.213673363096287]}, "properties": {"name": "\u5c0f\u9a6c\u8f66\u884c(\u65b0\u6e14\u4e1c\u8def)", "biz": "061208 \u8d2d\u7269\u670d\u52a1;\u4e13\u5356\u5e97;\u81ea\u884c\u8f66\u4e13\u5356\u5e97", "pty": "0612"}}, {"type": "Feature", "geometry": {"type": "Point", "coordinates": [121.36374057558443, 31.222684016223674]}, "properties": {"name": "\u5c0f\u6817\u8f66\u884c(\u5251\u6cb3\u8def)", "biz": "061208 \u8d2d\u7269\u670d\u52a1;\u4e13\u5356\u5e97;\u81ea\u884c\u8f66\u4e13\u5356\u5e97", "pty": "0612"}}, {"type": "Feature", "geometry": {"type": "Point", "coordinates": [121.41725033928553, 31.216617999999002]}, "properties": {"name": "\u4e2d\u5174\u8f66\u884c(\u5b89\u5316\u8def)", "biz": "061208 \u8d2d\u7269\u670d\u52a1;\u4e13\u5356\u5e97;\u81ea\u884c\u8f66\u4e13\u5356\u5e97", "pty": "0612"}}, {"type": "Feature", "geometry": {"type": "Point", "coordinates": [121.35938179393705, 31.208265822050944]}, "properties": {"name": "\u65b0\u65e5\u7535\u52a8\u8f66(\u53ef\u4e50\u8def)", "biz": "061208 \u8d2d\u7269\u670d\u52a1;\u4e13\u5356\u5e97;\u81ea\u884c\u8f66\u4e13\u5356\u5e97", "pty": "0612"}}, {"type": "Feature", "geometry": {"type": "Point", "coordinates": [121.36106005938903, 31.207999605708686]}, "properties": {"name": "\u7231\u739b\u7535\u52a8\u8f66(\u53ef\u4e50\u8def\u5e97)", "biz": "061208 \u8d2d\u7269\u670d\u52a1;\u4e13\u5356\u5e97;\u81ea\u884c\u8f66\u4e13\u5356\u5e97", "pty": "0612"}}, {"type": "Feature", "geometry": {"type": "Point", "coordinates": [121.4145607057581, 31.193564013268293]}, "properties": {"name": "\u53f0\u94c3\u7535\u52a8\u8f66", "biz": "061208 \u8d2d\u7269\u670d\u52a1;\u4e13\u5356\u5e97;\u81ea\u884c\u8f66\u4e13\u5356\u5e97", "pty": "0612"}}, {"type": "Feature", "geometry": {"type": "Point", "coordinates": [121.39224456703818, 31.205631433152913]}, "properties": {"name": "memory", "biz": "061208 \u8d2d\u7269\u670d\u52a1;\u4e13\u5356\u5e97;\u81ea\u884c\u8f66\u4e13\u5356\u5e97", "pty": "0612"}}, {"type": "Feature", "geometry": {"type": "Point", "coordinates": [121.36099316672446, 31.208008693286164]}, "properties": {"name": "\u65b0\u5927\u6d32\u7535\u52a8\u8f66", "biz": "061208 \u8d2d\u7269\u670d\u52a1;\u4e13\u5356\u5e97;\u81ea\u884c\u8f66\u4e13\u5356\u5e97", "pty": "0612"}}, {"type": "Feature", "geometry": {"type": "Point", "coordinates": [121.3626877272534, 31.20510281168982]}, "properties": {"name": "\u7eff\u4eae\u7535\u52a8\u8f66(\u54c8\u5bc6\u8def)", "biz": "061208 \u8d2d\u7269\u670d\u52a1;\u4e13\u5356\u5e97;\u81ea\u884c\u8f66\u4e13\u5356\u5e97", "pty": "0612"}}, {"type": "Feature", "geometry": {"type": "Point", "coordinates": [121.39016906136662, 31.207513106455536]}, "properties": {"name": "\u5c0f\u6768\u8f66\u884c", "biz": "061208 \u8d2d\u7269\u670d\u52a1;\u4e13\u5356\u5e97;\u81ea\u884c\u8f66\u4e13\u5356\u5e97", "pty": "0612"}}, {"type": "Feature", "geometry": {"type": "Point", "coordinates": [121.36268573340399, 31.205067831340873]}, "properties": {"name": "\u963f\u5f6d\u8f66\u884c(\u54c8\u5bc6\u8def)", "biz": "061208 \u8d2d\u7269\u670d\u52a1;\u4e13\u5356\u5e97;\u81ea\u884c\u8f66\u4e13\u5356\u5e97", "pty": "0612"}}, {"type": "Feature", "geometry": {"type": "Point", "coordinates": [121.41057373564374, 31.22534604245074]}, "properties": {"name": "\u6234\u8bb0\u8f66\u884c", "biz": "061208 \u8d2d\u7269\u670d\u52a1;\u4e13\u5356\u5e97;\u81ea\u884c\u8f66\u4e13\u5356\u5e97", "pty": "0612"}}, {"type": "Feature", "geometry": {"type": "Point", "coordinates": [121.42067121010041, 31.22855862739997]}, "properties": {"name": "\u6781\u901f\u8f66\u884c\u56de\u6536\u65e7\u7535\u52a8\u8f66", "biz": "061208 \u8d2d\u7269\u670d\u52a1;\u4e13\u5356\u5e97;\u81ea\u884c\u8f66\u4e13\u5356\u5e97", "pty": "0612"}}, {"type": "Feature", "geometry": {"type": "Point", "coordinates": [121.37305727011815, 31.21993061568365]}, "properties": {"name": "\u8001\u738b\u8f66\u884c(\u54c8\u5bc6\u8def\u5e97)", "biz": "061208 \u8d2d\u7269\u670d\u52a1;\u4e13\u5356\u5e97;\u81ea\u884c\u8f66\u4e13\u5356\u5e97", "pty": "0612"}}, {"type": "Feature", "geometry": {"type": "Point", "coordinates": [121.36850386622102, 31.209748356726728]}, "properties": {"name": "\u6377\u5b89\u7279(\u4ed9\u971e\u8def\u81ea\u884c\u8f66\u4e13\u5356\u5e97)", "biz": "061208 \u8d2d\u7269\u670d\u52a1;\u4e13\u5356\u5e97;\u81ea\u884c\u8f66\u4e13\u5356\u5e97", "pty": "0612"}}, {"type": "Feature", "geometry": {"type": "Point", "coordinates": [121.37995382595697, 31.213780560090573]}, "properties": {"name": "\u4e0a\u6d77\u5c1a\u54c1\u7535\u52a8\u8f66(\u5a01\u5b81\u8def)", "biz": "061208 \u8d2d\u7269\u670d\u52a1;\u4e13\u5356\u5e97;\u81ea\u884c\u8f66\u4e13\u5356\u5e97", "pty": "0612"}}, {"type": "Feature", "geometry": {"type": "Point", "coordinates": [121.39474078087771, 31.197408993437623]}, "properties": {"name": "\u5973\u751f\u7684\u5355\u8f66(\u9ec4\u91d1\u57ce\u9053\u5e97)", "biz": "061208 \u8d2d\u7269\u670d\u52a1;\u4e13\u5356\u5e97;\u81ea\u884c\u8f66\u4e13\u5356\u5e97", "pty": "0612"}}, {"type": "Feature", "geometry": {"type": "Point", "coordinates": [121.44259413338676, 31.24233797531528]}, "properties": {"name": "GIANT.\u81ea\u884c\u8f66", "biz": "061208 \u8d2d\u7269\u670d\u52a1;\u4e13\u5356\u5e97;\u81ea\u884c\u8f66\u4e13\u5356\u5e97", "pty": "0612"}}, {"type": "Feature", "geometry": {"type": "Point", "coordinates": [121.46153974307019, 31.269422690347763]}, "properties": {"name": "\u9b45\u529b\u5355\u8f66", "biz": "061208 \u8d2d\u7269\u670d\u52a1;\u4e13\u5356\u5e97;\u81ea\u884c\u8f66\u4e13\u5356\u5e97", "pty": "0612"}}, {"type": "Feature", "geometry": {"type": "Point", "coordinates": [121.45021963147403, 31.222999661626243]}, "properties": {"name": "2 Wheels", "biz": "061208 \u8d2d\u7269\u670d\u52a1;\u4e13\u5356\u5e97;\u81ea\u884c\u8f66\u4e13\u5356\u5e97", "pty": "0612"}}, {"type": "Feature", "geometry": {"type": "Point", "coordinates": [121.46529282585807, 31.252105923513756]}, "properties": {"name": "\u65b0\u65e5\u7535\u52a8\u8f66(\u897f\u85cf\u5317\u8def)", "biz": "061208 \u8d2d\u7269\u670d\u52a1;\u4e13\u5356\u5e97;\u81ea\u884c\u8f66\u4e13\u5356\u5e97", "pty": "0612"}}, {"type": "Feature", "geometry": {"type": "Point", "coordinates": [121.44342208426325, 31.29976020234755]}, "properties": {"name": "\u6377\u5b89\u7279(\u95f8\u5317\u5927\u6da6\u53d1\u5e97)", "biz": "061208 \u8d2d\u7269\u670d\u52a1;\u4e13\u5356\u5e97;\u81ea\u884c\u8f66\u4e13\u5356\u5e97", "pty": "0612"}}, {"type": "Feature", "geometry": {"type": "Point", "coordinates": [121.44439536571377, 31.242254548266573]}, "properties": {"name": "\u4f9d\u83b1\u8fbe\u81ea\u884c\u8f66\u4e13\u5356", "biz": "061208 \u8d2d\u7269\u670d\u52a1;\u4e13\u5356\u5e97;\u81ea\u884c\u8f66\u4e13\u5356\u5e97", "pty": "0612"}}, {"type": "Feature", "geometry": {"type": "Point", "coordinates": [121.45595875154663, 31.26458803786636]}, "properties": {"name": "\u5f00\u5f00\u8f66\u57ce", "biz": "061208 \u8d2d\u7269\u670d\u52a1;\u4e13\u5356\u5e97;\u81ea\u884c\u8f66\u4e13\u5356\u5e97", "pty": "0612"}}, {"type": "Feature", "geometry": {"type": "Point", "coordinates": [121.45935307052464, 31.25919262447532]}, "properties": {"name": "\u7eff\u6e90\u7535\u52a8\u8f66", "biz": "061208 \u8d2d\u7269\u670d\u52a1;\u4e13\u5356\u5e97;\u81ea\u884c\u8f66\u4e13\u5356\u5e97", "pty": "0612"}}, {"type": "Feature", "geometry": {"type": "Point", "coordinates": [121.4446265793414, 31.234610500039423]}, "properties": {"name": "\u5f00\u9759\u8f66\u884c(\u6b66\u5b9a\u8def\u5e97)", "biz": "061208 \u8d2d\u7269\u670d\u52a1;\u4e13\u5356\u5e97;\u81ea\u884c\u8f66\u4e13\u5356\u5e97", "pty": "0612"}}, {"type": "Feature", "geometry": {"type": "Point", "coordinates": [121.44986479115062, 31.221968369370718]}, "properties": {"name": "\u8944\u9633\u8f66\u884c", "biz": "061208 \u8d2d\u7269\u670d\u52a1;\u4e13\u5356\u5e97;\u81ea\u884c\u8f66\u4e13\u5356\u5e97", "pty": "0612"}}, {"type": "Feature", "geometry": {"type": "Point", "coordinates": [121.46249722649223, 31.262843958691448]}, "properties": {"name": "\u7eff\u4eae\u7535\u52a8\u8f66\u4e13\u5356(\u897f\u85cf\u5317\u8def\u5e97)", "biz": "061208 \u8d2d\u7269\u670d\u52a1;\u4e13\u5356\u5e97;\u81ea\u884c\u8f66\u4e13\u5356\u5e97", "pty": "0612"}}, {"type": "Feature", "geometry": {"type": "Point", "coordinates": [121.44060861858286, 31.30028862642285]}, "properties": {"name": "\u6600\u777f\u7cbe\u54c1\u8f66\u884c", "biz": "061208 \u8d2d\u7269\u670d\u52a1;\u4e13\u5356\u5e97;\u81ea\u884c\u8f66\u4e13\u5356\u5e97", "pty": "0612"}}, {"type": "Feature", "geometry": {"type": "Point", "coordinates": [121.46474110897329, 31.251947546379828]}, "properties": {"name": "\u5c0f\u9676\u8f66\u884c(\u897f\u85cf\u5317\u8def)", "biz": "061208 \u8d2d\u7269\u670d\u52a1;\u4e13\u5356\u5e97;\u81ea\u884c\u8f66\u4e13\u5356\u5e97", "pty": "0612"}}, {"type": "Feature", "geometry": {"type": "Point", "coordinates": [121.45094948989573, 31.258557125451187]}, "properties": {"name": "\u8f6e\u9a70\u8f66\u884c", "biz": "061208 \u8d2d\u7269\u670d\u52a1;\u4e13\u5356\u5e97;\u81ea\u884c\u8f66\u4e13\u5356\u5e97", "pty": "0612"}}, {"type": "Feature", "geometry": {"type": "Point", "coordinates": [121.43575577925421, 31.226715860855478]}, "properties": {"name": "\u5b87\u8fb0\u7535\u74f6\u8f66\u914d\u4ef6\u6279\u53d1", "biz": "061208 \u8d2d\u7269\u670d\u52a1;\u4e13\u5356\u5e97;\u81ea\u884c\u8f66\u4e13\u5356\u5e97", "pty": "0612"}}, {"type": "Feature", "geometry": {"type": "Point", "coordinates": [121.42692730534179, 31.293330752714784]}, "properties": {"name": "\u5c0f\u9648\u8f66\u884c(\u539f\u5e73\u8def\u5e97)", "biz": "061208 \u8d2d\u7269\u670d\u52a1;\u4e13\u5356\u5e97;\u81ea\u884c\u8f66\u4e13\u5356\u5e97", "pty": "0612"}}, {"type": "Feature", "geometry": {"type": "Point", "coordinates": [121.47356100236433, 31.260527709444922]}, "properties": {"name": "\u4e1c\u4f26\u8f66\u884c", "biz": "061208 \u8d2d\u7269\u670d\u52a1;\u4e13\u5356\u5e97;\u81ea\u884c\u8f66\u4e13\u5356\u5e97", "pty": "0612"}}, {"type": "Feature", "geometry": {"type": "Point", "coordinates": [121.42329858088205, 31.275085832775964]}, "properties": {"name": "\u96c5\u8fea\u7535\u52a8\u8f66(\u7075\u77f3\u8def\u5e97)", "biz": "061208 \u8d2d\u7269\u670d\u52a1;\u4e13\u5356\u5e97;\u81ea\u884c\u8f66\u4e13\u5356\u5e97", "pty": "0612"}}, {"type": "Feature", "geometry": {"type": "Point", "coordinates": [121.46524870294598, 31.25192188914677]}, "properties": {"name": "\u5251\u9e1f\u8f66\u884c", "biz": "061208 \u8d2d\u7269\u670d\u52a1;\u4e13\u5356\u5e97;\u81ea\u884c\u8f66\u4e13\u5356\u5e97", "pty": "0612"}}, {"type": "Feature", "geometry": {"type": "Point", "coordinates": [121.44370475673533, 31.29966679477585]}, "properties": {"name": "\u827e\u6d3e\u514b\u81ea\u884c\u8f66", "biz": "061208 \u8d2d\u7269\u670d\u52a1;\u4e13\u5356\u5e97;\u81ea\u884c\u8f66\u4e13\u5356\u5e97", "pty": "0612"}}, {"type": "Feature", "geometry": {"type": "Point", "coordinates": [121.45645511735353, 31.276768042347424]}, "properties": {"name": "\u9a8f\u5bcc\u8f66\u884c", "biz": "061208 \u8d2d\u7269\u670d\u52a1;\u4e13\u5356\u5e97;\u81ea\u884c\u8f66\u4e13\u5356\u5e97", "pty": "0612"}}, {"type": "Feature", "geometry": {"type": "Point", "coordinates": [121.43143370139374, 31.23732713668801]}, "properties": {"name": "\u65b0\u5927\u6d32(\u5b89\u8fdc\u8def)", "biz": "061208 \u8d2d\u7269\u670d\u52a1;\u4e13\u5356\u5e97;\u81ea\u884c\u8f66\u4e13\u5356\u5e97", "pty": "0612"}}, {"type": "Feature", "geometry": {"type": "Point", "coordinates": [121.45842847847611, 31.246054167315503]}, "properties": {"name": "\u5c0f\u6c64\u8f66\u884c(\u5927\u7edf\u8def)", "biz": "061208 \u8d2d\u7269\u670d\u52a1;\u4e13\u5356\u5e97;\u81ea\u884c\u8f66\u4e13\u5356\u5e97", "pty": "0612"}}, {"type": "Feature", "geometry": {"type": "Point", "coordinates": [121.4722865281183, 31.25141416280967]}, "properties": {"name": "\u6377\u5b89\u7279(\u5929\u76ee\u4e1c\u8def\u5e97)", "biz": "061208 \u8d2d\u7269\u670d\u52a1;\u4e13\u5356\u5e97;\u81ea\u884c\u8f66\u4e13\u5356\u5e97", "pty": "0612"}}, {"type": "Feature", "geometry": {"type": "Point", "coordinates": [121.45527895587858, 31.309433111305825]}, "properties": {"name": "\u7eff\u4eae\u7535\u52a8\u8f66(\u9633\u66f2\u8def)", "biz": "061208 \u8d2d\u7269\u670d\u52a1;\u4e13\u5356\u5e97;\u81ea\u884c\u8f66\u4e13\u5356\u5e97", "pty": "0612"}}, {"type": "Feature", "geometry": {"type": "Point", "coordinates": [121.445029919618, 31.241885988853074]}, "properties": {"name": "\u80e4\u51ef\u8f66\u884c", "biz": "061208 \u8d2d\u7269\u670d\u52a1;\u4e13\u5356\u5e97;\u81ea\u884c\u8f66\u4e13\u5356\u5e97", "pty": "0612"}}, {"type": "Feature", "geometry": {"type": "Point", "coordinates": [121.45177423612495, 31.310139762400617]}, "properties": {"name": "\u5c0f\u5f90\u8f66\u884c(\u95fb\u559c\u8def)", "biz": "061208 \u8d2d\u7269\u670d\u52a1;\u4e13\u5356\u5e97;\u81ea\u884c\u8f66\u4e13\u5356\u5e97", "pty": "0612"}}, {"type": "Feature", "geometry": {"type": "Point", "coordinates": [121.43825317702563, 31.31573839664738]}, "properties": {"name": "\u7eff\u4eae\u7535\u52a8\u8f66(\u4fdd\u5fb7\u8def)", "biz": "061208 \u8d2d\u7269\u670d\u52a1;\u4e13\u5356\u5e97;\u81ea\u884c\u8f66\u4e13\u5356\u5e97", "pty": "0612"}}, {"type": "Feature", "geometry": {"type": "Point", "coordinates": [121.44346817770469, 31.299929225956728]}, "properties": {"name": "\u7535\u52a8\u8f66\u4e13\u5356\u5385", "biz": "061208 \u8d2d\u7269\u670d\u52a1;\u4e13\u5356\u5e97;\u81ea\u884c\u8f66\u4e13\u5356\u5e97", "pty": "0612"}}, {"type": "Feature", "geometry": {"type": "Point", "coordinates": [121.43143670631478, 31.23733213887293]}, "properties": {"name": "\u8fbe\u8fc8\u8f66\u884c", "biz": "061208 \u8d2d\u7269\u670d\u52a1;\u4e13\u5356\u5e97;\u81ea\u884c\u8f66\u4e13\u5356\u5e97", "pty": "0612"}}, {"type": "Feature", "geometry": {"type": "Point", "coordinates": [121.4625710247986, 31.24455523188788]}, "properties": {"name": "\u4f9d\u83b1\u8fbe(\u4e4c\u9547\u8def)", "biz": "061208 \u8d2d\u7269\u670d\u52a1;\u4e13\u5356\u5e97;\u81ea\u884c\u8f66\u4e13\u5356\u5e97", "pty": "0612"}}, {"type": "Feature", "geometry": {"type": "Point", "coordinates": [121.42620571486384, 31.29884162773663]}, "properties": {"name": "\u7eff\u4eae\u7535\u52a8\u8f66(\u6caa\u592a\u652f\u8def\u5e97)", "biz": "061208 \u8d2d\u7269\u670d\u52a1;\u4e13\u5356\u5e97;\u81ea\u884c\u8f66\u4e13\u5356\u5e97", "pty": "0612"}}, {"type": "Feature", "geometry": {"type": "Point", "coordinates": [121.45597279959999, 31.26449411182054]}, "properties": {"name": "\u96c5\u8fea\u9a91\u884c\u751f\u6d3b\u9986(\u88c5\u4fee\u4e2d)", "biz": "061208 \u8d2d\u7269\u670d\u52a1;\u4e13\u5356\u5e97;\u81ea\u884c\u8f66\u4e13\u5356\u5e97", "pty": "0612"}}, {"type": "Feature", "geometry": {"type": "Point", "coordinates": [121.4407976523148, 31.316261812645404]}, "properties": {"name": "\u6b27\u901a\u7535\u52a8\u8f66\u4e13\u5356(\u4fdd\u5fb7\u5e97)", "biz": "061208 \u8d2d\u7269\u670d\u52a1;\u4e13\u5356\u5e97;\u81ea\u884c\u8f66\u4e13\u5356\u5e97", "pty": "0612"}}, {"type": "Feature", "geometry": {"type": "Point", "coordinates": [121.44677623372537, 31.276149603146667]}, "properties": {"name": "\u6377\u5b89\u7279(\u5927\u5b81\u56fd\u9645\u5e97)", "biz": "061208 \u8d2d\u7269\u670d\u52a1;\u4e13\u5356\u5e97;\u81ea\u884c\u8f66\u4e13\u5356\u5e97", "pty": "0612"}}, {"type": "Feature", "geometry": {"type": "Point", "coordinates": [121.47272530756703, 31.259369879555496]}, "properties": {"name": "\u4f9d\u83b1\u8fbe\u4e13\u5356", "biz": "061208 \u8d2d\u7269\u670d\u52a1;\u4e13\u5356\u5e97;\u81ea\u884c\u8f66\u4e13\u5356\u5e97", "pty": "0612"}}, {"type": "Feature", "geometry": {"type": "Point", "coordinates": [121.42633291391117, 31.2987818130006]}, "properties": {"name": "\u65b0\u5927\u6d32\u7535\u52a8\u8f66(\u539f\u5e73\u8def)", "biz": "061208 \u8d2d\u7269\u670d\u52a1;\u4e13\u5356\u5e97;\u81ea\u884c\u8f66\u4e13\u5356\u5e97", "pty": "0612"}}, {"type": "Feature", "geometry": {"type": "Point", "coordinates": [121.44519461745172, 31.307723621142163]}, "properties": {"name": "\u96c5\u8fea\u7535\u52a8\u8f66(\u4e0a\u6d77\u573a\u4e2d\u8def\u5e97)", "biz": "061208 \u8d2d\u7269\u670d\u52a1;\u4e13\u5356\u5e97;\u81ea\u884c\u8f66\u4e13\u5356\u5e97", "pty": "0612"}}, {"type": "Feature", "geometry": {"type": "Point", "coordinates": [121.45235348934638, 31.25586545841602]}, "properties": {"name": "\u5c0f\u5510\u8f66\u884c", "biz": "061208 \u8d2d\u7269\u670d\u52a1;\u4e13\u5356\u5e97;\u81ea\u884c\u8f66\u4e13\u5356\u5e97", "pty": "0612"}}, {"type": "Feature", "geometry": {"type": "Point", "coordinates": [121.43529292288281, 31.30665782380714]}, "properties": {"name": "\u65b0\u5927\u6d32\u7535\u52a8\u8f66(\u573a\u4e2d\u8def\u5e97)", "biz": "061208 \u8d2d\u7269\u670d\u52a1;\u4e13\u5356\u5e97;\u81ea\u884c\u8f66\u4e13\u5356\u5e97", "pty": "0612"}}, {"type": "Feature", "geometry": {"type": "Point", "coordinates": [121.44758479838443, 31.269906937140533]}, "properties": {"name": "\u5c0f\u6c88\u8f66\u884c", "biz": "061208 \u8d2d\u7269\u670d\u52a1;\u4e13\u5356\u5e97;\u81ea\u884c\u8f66\u4e13\u5356\u5e97", "pty": "0612"}}, {"type": "Feature", "geometry": {"type": "Point", "coordinates": [121.42619769971772, 31.298875604120372]}, "properties": {"name": "\u5c0f\u725b\u7535\u52a8\u8f66\u4e13\u5356", "biz": "061208 \u8d2d\u7269\u670d\u52a1;\u4e13\u5356\u5e97;\u81ea\u884c\u8f66\u4e13\u5356\u5e97", "pty": "0612"}}, {"type": "Feature", "geometry": {"type": "Point", "coordinates": [121.45840139588856, 31.24609208389977]}, "properties": {"name": "\u65b0\u5927\u6d32(\u5927\u7edf\u8def)", "biz": "061208 \u8d2d\u7269\u670d\u52a1;\u4e13\u5356\u5e97;\u81ea\u884c\u8f66\u4e13\u5356\u5e97", "pty": "0612"}}, {"type": "Feature", "geometry": {"type": "Point", "coordinates": [121.470133226154, 31.253732197790978]}, "properties": {"name": "\u987a\u5fc3\u8f66\u884c(\u866c\u6c5f\u8def\u5e97)", "biz": "061208 \u8d2d\u7269\u670d\u52a1;\u4e13\u5356\u5e97;\u81ea\u884c\u8f66\u4e13\u5356\u5e97", "pty": "0612"}}, {"type": "Feature", "geometry": {"type": "Point", "coordinates": [121.43999205656404, 31.233416159162452]}, "properties": {"name": "\u5c0f\u5200\u7535\u52a8\u8f66", "biz": "061208 \u8d2d\u7269\u670d\u52a1;\u4e13\u5356\u5e97;\u81ea\u884c\u8f66\u4e13\u5356\u5e97", "pty": "0612"}}, {"type": "Feature", "geometry": {"type": "Point", "coordinates": [121.42677741852573, 31.27786889878032]}, "properties": {"name": "\u5c0f\u8d75\u8f66\u884c(\u7075\u77f3\u8def\u5e97)", "biz": "061208 \u8d2d\u7269\u670d\u52a1;\u4e13\u5356\u5e97;\u81ea\u884c\u8f66\u4e13\u5356\u5e97", "pty": "0612"}}, {"type": "Feature", "geometry": {"type": "Point", "coordinates": [121.47357605522177, 31.260499763781944]}, "properties": {"name": "\u96c5\u8fea\u7535\u52a8\u8f66", "biz": "061208 \u8d2d\u7269\u670d\u52a1;\u4e13\u5356\u5e97;\u81ea\u884c\u8f66\u4e13\u5356\u5e97", "pty": "0612"}}, {"type": "Feature", "geometry": {"type": "Point", "coordinates": [121.46858313868422, 31.26590067418032]}, "properties": {"name": "\u9752\u4e91\u8f66\u884c", "biz": "061208 \u8d2d\u7269\u670d\u52a1;\u4e13\u5356\u5e97;\u81ea\u884c\u8f66\u4e13\u5356\u5e97", "pty": "0612"}}, {"type": "Feature", "geometry": {"type": "Point", "coordinates": [121.42734958687382, 31.286216191341587]}, "properties": {"name": "\u5c0f\u5434\u8f66\u884c(\u539f\u5e73\u8def)", "biz": "061208 \u8d2d\u7269\u670d\u52a1;\u4e13\u5356\u5e97;\u81ea\u884c\u8f66\u4e13\u5356\u5e97", "pty": "0612"}}, {"type": "Feature", "geometry": {"type": "Point", "coordinates": [121.45397088341666, 31.267906941288068]}, "properties": {"name": "\u5361\u5361\u5355\u8f66", "biz": "061208 \u8d2d\u7269\u670d\u52a1;\u4e13\u5356\u5e97;\u81ea\u884c\u8f66\u4e13\u5356\u5e97", "pty": "0612"}}, {"type": "Feature", "geometry": {"type": "Point", "coordinates": [121.43197956677346, 31.227125670501874]}, "properties": {"name": "\u5c0f\u9ec4\u8f66\u884c", "biz": "061208 \u8d2d\u7269\u670d\u52a1;\u4e13\u5356\u5e97;\u81ea\u884c\u8f66\u4e13\u5356\u5e97", "pty": "0612"}}, {"type": "Feature", "geometry": {"type": "Point", "coordinates": [121.46380772343005, 31.257511660297602]}, "properties": {"name": "\u6d77\u5cf0\u8f66\u884c", "biz": "061208 \u8d2d\u7269\u670d\u52a1;\u4e13\u5356\u5e97;\u81ea\u884c\u8f66\u4e13\u5356\u5e97", "pty": "0612"}}, {"type": "Feature", "geometry": {"type": "Point", "coordinates": [121.42696359353518, 31.27918259176679]}, "properties": {"name": "\u4f9d\u83b1\u8fbe\u7535\u52a8\u8f66", "biz": "061208 \u8d2d\u7269\u670d\u52a1;\u4e13\u5356\u5e97;\u81ea\u884c\u8f66\u4e13\u5356\u5e97", "pty": "0612"}}, {"type": "Feature", "geometry": {"type": "Point", "coordinates": [121.44678987194155, 31.26916558798081]}, "properties": {"name": "\u6770\u5b9d\u5927\u738b\u7535\u8f66(\u666e\u5584\u8def)", "biz": "061208 \u8d2d\u7269\u670d\u52a1;\u4e13\u5356\u5e97;\u81ea\u884c\u8f66\u4e13\u5356\u5e97", "pty": "0612"}}, {"type": "Feature", "geometry": {"type": "Point", "coordinates": [121.44092311259115, 31.26807146718469]}, "properties": {"name": "\u6770\u5b9d\u5927\u738b\u7535\u52a8\u8f66", "biz": "061208 \u8d2d\u7269\u670d\u52a1;\u4e13\u5356\u5e97;\u81ea\u884c\u8f66\u4e13\u5356\u5e97", "pty": "0612"}}, {"type": "Feature", "geometry": {"type": "Point", "coordinates": [121.46254538600633, 31.262704142629868]}, "properties": {"name": "\u5c0f\u5218\u8f66\u884c", "biz": "061208 \u8d2d\u7269\u670d\u52a1;\u4e13\u5356\u5e97;\u81ea\u884c\u8f66\u4e13\u5356\u5e97", "pty": "0612"}}, {"type": "Feature", "geometry": {"type": "Point", "coordinates": [121.46093119724901, 31.26601261235011]}, "properties": {"name": "\u7535\u52a8\u8f66\u4e13\u5356\u5e97", "biz": "061208 \u8d2d\u7269\u670d\u52a1;\u4e13\u5356\u5e97;\u81ea\u884c\u8f66\u4e13\u5356\u5e97", "pty": "0612"}}, {"type": "Feature", "geometry": {"type": "Point", "coordinates": [121.47022304188862, 31.259312991771157]}, "properties": {"name": "\u5c0f\u5f6a\u8f66\u884c(\u95f8\u5317\u5e97)", "biz": "061208 \u8d2d\u7269\u670d\u52a1;\u4e13\u5356\u5e97;\u81ea\u884c\u8f66\u4e13\u5356\u5e97", "pty": "0612"}}, {"type": "Feature", "geometry": {"type": "Point", "coordinates": [121.42620671403215, 31.298868618311378]}, "properties": {"name": "\u7231\u739b\u7535\u52a8\u8f66(\u539f\u5e73\u8def)", "biz": "061208 \u8d2d\u7269\u670d\u52a1;\u4e13\u5356\u5e97;\u81ea\u884c\u8f66\u4e13\u5356\u5e97", "pty": "0612"}}, {"type": "Feature", "geometry": {"type": "Point", "coordinates": [121.44414440540592, 31.315715460224705]}, "properties": {"name": "\u5f00\u9759\u8f66\u884c(\u79d1\u676f\u5171\u548c\u5e97)", "biz": "061208 \u8d2d\u7269\u670d\u52a1;\u4e13\u5356\u5e97;\u81ea\u884c\u8f66\u4e13\u5356\u5e97", "pty": "0612"}}, {"type": "Feature", "geometry": {"type": "Point", "coordinates": [121.45294511006465, 31.255741860113368]}, "properties": {"name": "\u5de2\u6210\u8f66\u884c", "biz": "061208 \u8d2d\u7269\u670d\u52a1;\u4e13\u5356\u5e97;\u81ea\u884c\u8f66\u4e13\u5356\u5e97", "pty": "0612"}}, {"type": "Feature", "geometry": {"type": "Point", "coordinates": [121.47121189505032, 31.26395369343169]}, "properties": {"name": "\u987a\u98ce\u8f66\u884c(\u5929\u901a\u5eb5\u8def\u5e97)", "biz": "061208 \u8d2d\u7269\u670d\u52a1;\u4e13\u5356\u5e97;\u81ea\u884c\u8f66\u4e13\u5356\u5e97", "pty": "0612"}}, {"type": "Feature", "geometry": {"type": "Point", "coordinates": [121.46138630572462, 31.3155447282172]}, "properties": {"name": "\u7231\u739b\u7535\u52a8\u8f66(\u6c7e\u897f\u8def)", "biz": "061208 \u8d2d\u7269\u670d\u52a1;\u4e13\u5356\u5e97;\u81ea\u884c\u8f66\u4e13\u5356\u5e97", "pty": "0612"}}, {"type": "Feature", "geometry": {"type": "Point", "coordinates": [121.47175133103646, 31.256334504306363]}, "properties": {"name": "\u96c5\u9a70\u8fd0\u52a8\u81ea\u884c\u8f66", "biz": "061208 \u8d2d\u7269\u670d\u52a1;\u4e13\u5356\u5e97;\u81ea\u884c\u8f66\u4e13\u5356\u5e97", "pty": "0612"}}, {"type": "Feature", "geometry": {"type": "Point", "coordinates": [121.46093921745332, 31.266058612783922]}, "properties": {"name": "\u653f\u68ee\u914d\u4ef6", "biz": "061208 \u8d2d\u7269\u670d\u52a1;\u4e13\u5356\u5e97;\u81ea\u884c\u8f66\u4e13\u5356\u5e97", "pty": "0612"}}, {"type": "Feature", "geometry": {"type": "Point", "coordinates": [121.45085705145809, 31.318624494704427]}, "properties": {"name": "\u5c0f\u738b\u8f66\u884c(\u4fdd\u5fb7\u8def)", "biz": "061208 \u8d2d\u7269\u670d\u52a1;\u4e13\u5356\u5e97;\u81ea\u884c\u8f66\u4e13\u5356\u5e97", "pty": "0612"}}, {"type": "Feature", "geometry": {"type": "Point", "coordinates": [121.47272801553983, 31.262885358403484]}, "properties": {"name": "\u5c0f\u90ed\u8f66\u884c", "biz": "061208 \u8d2d\u7269\u670d\u52a1;\u4e13\u5356\u5e97;\u81ea\u884c\u8f66\u4e13\u5356\u5e97", "pty": "0612"}}, {"type": "Feature", "geometry": {"type": "Point", "coordinates": [121.4564781782717, 31.276827072826382]}, "properties": {"name": "\u4e0a\u6d77\u4f9d\u83b1\u8fbe\u7535\u52a8\u8f66", "biz": "061208 \u8d2d\u7269\u670d\u52a1;\u4e13\u5356\u5e97;\u81ea\u884c\u8f66\u4e13\u5356\u5e97", "pty": "0612"}}, {"type": "Feature", "geometry": {"type": "Point", "coordinates": [121.44431858535167, 31.237599513664573]}, "properties": {"name": "\u96c5\u8fea\u7535\u52a8\u8f66", "biz": "061208 \u8d2d\u7269\u670d\u52a1;\u4e13\u5356\u5e97;\u81ea\u884c\u8f66\u4e13\u5356\u5e97", "pty": "0612"}}, {"type": "Feature", "geometry": {"type": "Point", "coordinates": [121.44769179034276, 31.307780764963617]}, "properties": {"name": "\u7231\u739b\u7535\u52a8\u8f66(\u5e73\u987a\u8def\u5e97)", "biz": "061208 \u8d2d\u7269\u670d\u52a1;\u4e13\u5356\u5e97;\u81ea\u884c\u8f66\u4e13\u5356\u5e97", "pty": "0612"}}, {"type": "Feature", "geometry": {"type": "Point", "coordinates": [121.45252048624037, 31.31901608473601]}, "properties": {"name": "\u5c0f\u78ca\u8f66\u884c(\u4fdd\u5fb7\u8def)", "biz": "061208 \u8d2d\u7269\u670d\u52a1;\u4e13\u5356\u5e97;\u81ea\u884c\u8f66\u4e13\u5356\u5e97", "pty": "0612"}}, {"type": "Feature", "geometry": {"type": "Point", "coordinates": [121.46733299569983, 31.267296711096385]}, "properties": {"name": "\u65b0\u65e5\u7535\u52a8\u8f66", "biz": "061208 \u8d2d\u7269\u670d\u52a1;\u4e13\u5356\u5e97;\u81ea\u884c\u8f66\u4e13\u5356\u5e97", "pty": "0612"}}, {"type": "Feature", "geometry": {"type": "Point", "coordinates": [121.42454757383075, 31.283804661602318]}, "properties": {"name": "\u4e0a\u6d77\u7eff\u4eae\u7535\u52a8\u8f66\u4e13\u5356\u5e97", "biz": "061208 \u8d2d\u7269\u670d\u52a1;\u4e13\u5356\u5e97;\u81ea\u884c\u8f66\u4e13\u5356\u5e97", "pty": "0612"}}, {"type": "Feature", "geometry": {"type": "Point", "coordinates": [121.4269166175388, 31.278065996664452]}, "properties": {"name": "\u7231\u739b\u7535\u52a8\u8f66", "biz": "061208 \u8d2d\u7269\u670d\u52a1;\u4e13\u5356\u5e97;\u81ea\u884c\u8f66\u4e13\u5356\u5e97", "pty": "0612"}}, {"type": "Feature", "geometry": {"type": "Point", "coordinates": [121.45487749061583, 31.255392491185052]}, "properties": {"name": "\u5c0f\u95eb\u8f66\u884c", "biz": "061208 \u8d2d\u7269\u670d\u52a1;\u4e13\u5356\u5e97;\u81ea\u884c\u8f66\u4e13\u5356\u5e97", "pty": "0612"}}, {"type": "Feature", "geometry": {"type": "Point", "coordinates": [121.47182535885464, 31.258872596838607]}, "properties": {"name": "\u987a\u4e30\u8f66\u884c", "biz": "061208 \u8d2d\u7269\u670d\u52a1;\u4e13\u5356\u5e97;\u81ea\u884c\u8f66\u4e13\u5356\u5e97", "pty": "0612"}}, {"type": "Feature", "geometry": {"type": "Point", "coordinates": [121.42196420284236, 31.304864275357552]}, "properties": {"name": "\u574e\u666e\u81ea\u884c\u8f66\u4e13\u5356", "biz": "061208 \u8d2d\u7269\u670d\u52a1;\u4e13\u5356\u5e97;\u81ea\u884c\u8f66\u4e13\u5356\u5e97", "pty": "0612"}}, {"type": "Feature", "geometry": {"type": "Point", "coordinates": [121.4635768669632, 31.317266687606814]}, "properties": {"name": "\u963f\u5cf0\u8f66\u884c", "biz": "061208 \u8d2d\u7269\u670d\u52a1;\u4e13\u5356\u5e97;\u81ea\u884c\u8f66\u4e13\u5356\u5e97", "pty": "0612"}}, {"type": "Feature", "geometry": {"type": "Point", "coordinates": [121.43949594431449, 31.233784085808466]}, "properties": {"name": "\u6770\u5b9d\u5927\u738b\u7535\u52a8\u8f66\u4e13\u5356(\u5e38\u5fb7\u8def)", "biz": "061208 \u8d2d\u7269\u670d\u52a1;\u4e13\u5356\u5e97;\u81ea\u884c\u8f66\u4e13\u5356\u5e97", "pty": "0612"}}, {"type": "Feature", "geometry": {"type": "Point", "coordinates": [121.46737714315077, 31.267225859672592]}, "properties": {"name": "\u5c0f\u5218\u8f66\u884c(\u4e1c\u5b9d\u5174\u8def)", "biz": "061208 \u8d2d\u7269\u670d\u52a1;\u4e13\u5356\u5e97;\u81ea\u884c\u8f66\u4e13\u5356\u5e97", "pty": "0612"}}, {"type": "Feature", "geometry": {"type": "Point", "coordinates": [121.43907261998714, 31.284669114980595]}, "properties": {"name": "\u53cc\u9f99\u8f66\u884c(\u7075\u77f3\u8def\u5e97)", "biz": "061208 \u8d2d\u7269\u670d\u52a1;\u4e13\u5356\u5e97;\u81ea\u884c\u8f66\u4e13\u5356\u5e97", "pty": "0612"}}, {"type": "Feature", "geometry": {"type": "Point", "coordinates": [121.42593095322971, 31.291330286593965]}, "properties": {"name": "\u65b0\u857e\u7535\u52a8\u8f66", "biz": "061208 \u8d2d\u7269\u670d\u52a1;\u4e13\u5356\u5e97;\u81ea\u884c\u8f66\u4e13\u5356\u5e97", "pty": "0612"}}, {"type": "Feature", "geometry": {"type": "Point", "coordinates": [121.43328040084482, 31.314155715271504]}, "properties": {"name": "\u6d2a\u4e30\u7535\u52a8\u8f66\u4e13\u5356\u5e97", "biz": "061208 \u8d2d\u7269\u670d\u52a1;\u4e13\u5356\u5e97;\u81ea\u884c\u8f66\u4e13\u5356\u5e97", "pty": "0612"}}, {"type": "Feature", "geometry": {"type": "Point", "coordinates": [121.45217054759281, 31.237862119555764]}, "properties": {"name": "\u5411\u534e\u8f66\u884c(\u6cf0\u5174\u8def)", "biz": "061208 \u8d2d\u7269\u670d\u52a1;\u4e13\u5356\u5e97;\u81ea\u884c\u8f66\u4e13\u5356\u5e97", "pty": "0612"}}, {"type": "Feature", "geometry": {"type": "Point", "coordinates": [121.45082773316396, 31.30984776026893]}, "properties": {"name": "\u5cad\u5357\u8f66\u884c", "biz": "061208 \u8d2d\u7269\u670d\u52a1;\u4e13\u5356\u5e97;\u81ea\u884c\u8f66\u4e13\u5356\u5e97", "pty": "0612"}}, {"type": "Feature", "geometry": {"type": "Point", "coordinates": [121.46358287627123, 31.31737466254941]}, "properties": {"name": "\u65af\u7c73\u7279\u7535\u52a8\u8f66(\u6c5f\u6768\u5357\u8def)", "biz": "061208 \u8d2d\u7269\u670d\u52a1;\u4e13\u5356\u5e97;\u81ea\u884c\u8f66\u4e13\u5356\u5e97", "pty": "0612"}}, {"type": "Feature", "geometry": {"type": "Point", "coordinates": [121.42324751523165, 31.275036795189365]}, "properties": {"name": "\u53f0\u94c3\u4e91\u7535\u52a8\u8f66(\u7075\u77f3\u8def)", "biz": "061208 \u8d2d\u7269\u670d\u52a1;\u4e13\u5356\u5e97;\u81ea\u884c\u8f66\u4e13\u5356\u5e97", "pty": "0612"}}, {"type": "Feature", "geometry": {"type": "Point", "coordinates": [121.46273665799407, 31.31283220075862]}, "properties": {"name": "\u65b0\u5927\u6d32\u7535\u52a8\u8f66(\u4e34\u6c7e\u8def)", "biz": "061208 \u8d2d\u7269\u670d\u52a1;\u4e13\u5356\u5e97;\u81ea\u884c\u8f66\u4e13\u5356\u5e97", "pty": "0612"}}, {"type": "Feature", "geometry": {"type": "Point", "coordinates": [121.46357383052619, 31.317580561730008]}, "properties": {"name": "\u4f9d\u83b1\u8fbe\u7535\u52a8\u8f66(\u6c5f\u6768\u5357\u8def\u5e97)", "biz": "061208 \u8d2d\u7269\u670d\u52a1;\u4e13\u5356\u5e97;\u81ea\u884c\u8f66\u4e13\u5356\u5e97", "pty": "0612"}}, {"type": "Feature", "geometry": {"type": "Point", "coordinates": [121.44413437941972, 31.315740430875305]}, "properties": {"name": "\u4f9d\u83b1\u8fbe\u7535\u52a8\u8f66(\u79d1\u676f\u5171\u548c\u5e97)", "biz": "061208 \u8d2d\u7269\u670d\u52a1;\u4e13\u5356\u5e97;\u81ea\u884c\u8f66\u4e13\u5356\u5e97", "pty": "0612"}}, {"type": "Feature", "geometry": {"type": "Point", "coordinates": [121.4220062577149, 31.304863321310755]}, "properties": {"name": "\u4e0a\u6d77\u4f9d\u83b1\u8fbe\u7535\u52a8\u8f66(\u573a\u4e2d\u8def)", "biz": "061208 \u8d2d\u7269\u670d\u52a1;\u4e13\u5356\u5e97;\u81ea\u884c\u8f66\u4e13\u5356\u5e97", "pty": "0612"}}, {"type": "Feature", "geometry": {"type": "Point", "coordinates": [121.4362049119741, 31.31618869608199]}, "properties": {"name": "\u4e0a\u6d77\u6c38\u4e45\u7535\u52a8\u8f66(\u4e09\u6cc9\u8def)", "biz": "061208 \u8d2d\u7269\u670d\u52a1;\u4e13\u5356\u5e97;\u81ea\u884c\u8f66\u4e13\u5356\u5e97", "pty": "0612"}}, {"type": "Feature", "geometry": {"type": "Point", "coordinates": [121.45550351863025, 31.32183695381879]}, "properties": {"name": "\u65b0\u5927\u6d32\u7535\u52a8\u8f66(\u9633\u66f2\u8def\u5e97)", "biz": "061208 \u8d2d\u7269\u670d\u52a1;\u4e13\u5356\u5e97;\u81ea\u884c\u8f66\u4e13\u5356\u5e97", "pty": "0612"}}, {"type": "Feature", "geometry": {"type": "Point", "coordinates": [121.46192646467657, 31.263068403936604]}, "properties": {"name": "\u4e0a\u6d77\u5c1a\u54c1\u7535\u52a8\u8f66(\u5c0f\u9648\u8f66\u884c)", "biz": "061208 \u8d2d\u7269\u670d\u52a1;\u4e13\u5356\u5e97;\u81ea\u884c\u8f66\u4e13\u5356\u5e97", "pty": "0612"}}, {"type": "Feature", "geometry": {"type": "Point", "coordinates": [121.45504893246202, 31.279036756834355]}, "properties": {"name": "\u5c0f\u5468\u8f66\u884c(\u4e0a\u5927\u4e1c\u6751\u897f)", "biz": "061208 \u8d2d\u7269\u670d\u52a1;\u4e13\u5356\u5e97;\u81ea\u884c\u8f66\u4e13\u5356\u5e97", "pty": "0612"}}, {"type": "Feature", "geometry": {"type": "Point", "coordinates": [121.44795165157154, 31.31697780629774]}, "properties": {"name": "\u7eff\u4eae\u7535\u52a8\u8f66(\u5e73\u987a\u8def\u5e97)", "biz": "061208 \u8d2d\u7269\u670d\u52a1;\u4e13\u5356\u5e97;\u81ea\u884c\u8f66\u4e13\u5356\u5e97", "pty": "0612"}}, {"type": "Feature", "geometry": {"type": "Point", "coordinates": [121.46206690760523, 31.262892837827447]}, "properties": {"name": "\u5c0f\u9648\u8f66\u884c(\u9752\u4e91\u8def)", "biz": "061208 \u8d2d\u7269\u670d\u52a1;\u4e13\u5356\u5e97;\u81ea\u884c\u8f66\u4e13\u5356\u5e97", "pty": "0612"}}, {"type": "Feature", "geometry": {"type": "Point", "coordinates": [121.43023619523971, 31.322505011788838]}, "properties": {"name": "\u6770\u5b9d\u5927\u738b\u7535\u52a8\u8f66", "biz": "061208 \u8d2d\u7269\u670d\u52a1;\u4e13\u5356\u5e97;\u81ea\u884c\u8f66\u4e13\u5356\u5e97", "pty": "0612"}}, {"type": "Feature", "geometry": {"type": "Point", "coordinates": [121.4487983473647, 31.26458780217781]}, "properties": {"name": "\u963f\u4e1c\u8f66\u884c(\u666e\u5584\u8def)", "biz": "061208 \u8d2d\u7269\u670d\u52a1;\u4e13\u5356\u5e97;\u81ea\u884c\u8f66\u4e13\u5356\u5e97", "pty": "0612"}}, {"type": "Feature", "geometry": {"type": "Point", "coordinates": [121.46253733392165, 31.263022983903284]}, "properties": {"name": "\u5c0f\u59dc\u8f66\u884c(\u4e2d\u5c71\u5317\u8def)", "biz": "061208|071200 \u8d2d\u7269\u670d\u52a1;\u4e13\u5356\u5e97;\u81ea\u884c\u8f66\u4e13\u5356\u5e97|\u751f\u6d3b\u670d\u52a1;\u7ef4\u4fee\u7ad9\u70b9;\u7ef4\u4fee\u7ad9\u70b9", "pty": "0612"}}, {"type": "Feature", "geometry": {"type": "Point", "coordinates": [121.45934704269614, 31.259308558919358]}, "properties": {"name": "\u6770\u5b9d\u5927\u738b\u7535\u52a8\u8f66(\u5171\u548c\u65b0\u8def)", "biz": "061208 \u8d2d\u7269\u670d\u52a1;\u4e13\u5356\u5e97;\u81ea\u884c\u8f66\u4e13\u5356\u5e97", "pty": "0612"}}, {"type": "Feature", "geometry": {"type": "Point", "coordinates": [121.4290546697882, 31.305543781377043]}, "properties": {"name": "\u5468\u8bb0\u8f66\u884c(\u573a\u4e2d\u8def)", "biz": "061208 \u8d2d\u7269\u670d\u52a1;\u4e13\u5356\u5e97;\u81ea\u884c\u8f66\u4e13\u5356\u5e97", "pty": "0612"}}, {"type": "Feature", "geometry": {"type": "Point", "coordinates": [121.43762310267729, 31.23222947743096]}, "properties": {"name": "Rideal", "biz": "061208 \u8d2d\u7269\u670d\u52a1;\u4e13\u5356\u5e97;\u81ea\u884c\u8f66\u4e13\u5356\u5e97", "pty": "0612"}}, {"type": "Feature", "geometry": {"type": "Point", "coordinates": [121.43976711812496, 31.284725348369026]}, "properties": {"name": "\u4e0a\u6d77\u65b0\u65e5\u7535\u52a8\u8f66(\u7075\u77f3\u8def\u76f4\u8425\u5e97)", "biz": "061208 \u8d2d\u7269\u670d\u52a1;\u4e13\u5356\u5e97;\u81ea\u884c\u8f66\u4e13\u5356\u5e97", "pty": "0612"}}, {"type": "Feature", "geometry": {"type": "Point", "coordinates": [121.42745045122192, 31.301091350137504]}, "properties": {"name": "\u8d8a\u91ceX\u8054\u76df", "biz": "061208 \u8d2d\u7269\u670d\u52a1;\u4e13\u5356\u5e97;\u81ea\u884c\u8f66\u4e13\u5356\u5e97", "pty": "0612"}}, {"type": "Feature", "geometry": {"type": "Point", "coordinates": [121.44441107607483, 31.234474131760088]}, "properties": {"name": "\u4e0a\u6d77\u4f9d\u83b1\u8fbe\u7535\u52a8\u8f66(\u9759\u5b89\u9500\u552e\u4e2d\u5fc3)", "biz": "061208 \u8d2d\u7269\u670d\u52a1;\u4e13\u5356\u5e97;\u81ea\u884c\u8f66\u4e13\u5356\u5e97", "pty": "0612"}}, {"type": "Feature", "geometry": {"type": "Point", "coordinates": [121.45086719560693, 31.317270025696804]}, "properties": {"name": "\u4e0a\u6d77\u5c1a\u54c1\u7535\u52a8\u8f66(\u5cad\u5357\u8def\u4e13\u5356\u5e97)", "biz": "061208 \u8d2d\u7269\u670d\u52a1;\u4e13\u5356\u5e97;\u81ea\u884c\u8f66\u4e13\u5356\u5e97", "pty": "0612"}}, {"type": "Feature", "geometry": {"type": "Point", "coordinates": [121.46067479414032, 31.30817474935711]}, "properties": {"name": "\u6770\u5b9d\u5927\u738b\u7535\u52a8\u8f66(\u573a\u4e2d\u8def\u65d7\u8230\u5e97)", "biz": "061208 \u8d2d\u7269\u670d\u52a1;\u4e13\u5356\u5e97;\u81ea\u884c\u8f66\u4e13\u5356\u5e97", "pty": "0612"}}, {"type": "Feature", "geometry": {"type": "Point", "coordinates": [121.41970724978025, 31.29510079930777]}, "properties": {"name": "\u516d\u5b50\u8f66\u884c(\u6caa\u592a\u652f\u8def\u5e97)", "biz": "061208 \u8d2d\u7269\u670d\u52a1;\u4e13\u5356\u5e97;\u81ea\u884c\u8f66\u4e13\u5356\u5e97", "pty": "0612"}}, {"type": "Feature", "geometry": {"type": "Point", "coordinates": [121.43650103307276, 31.310179483546296]}, "properties": {"name": "\u6770\u5b9d\u5927\u738b\u7535\u52a8\u8f66(\u4e09\u6cc9\u8def\u65d7\u8230\u5e97)", "biz": "061208 \u8d2d\u7269\u670d\u52a1;\u4e13\u5356\u5e97;\u81ea\u884c\u8f66\u4e13\u5356\u5e97", "pty": "0612"}}, {"type": "Feature", "geometry": {"type": "Point", "coordinates": [121.46261762058234, 31.262550394409956]}, "properties": {"name": "\u4e0a\u6d77\u8d5b\u5cf0\u7535\u52a8\u8f66\u4e13\u5356(\u897f\u85cf\u5317\u8def\u5e97)", "biz": "061208 \u8d2d\u7269\u670d\u52a1;\u4e13\u5356\u5e97;\u81ea\u884c\u8f66\u4e13\u5356\u5e97", "pty": "0612"}}, {"type": "Feature", "geometry": {"type": "Point", "coordinates": [121.4301330088592, 31.322604826589195]}, "properties": {"name": "\u90a6\u5fb7", "biz": "061208 \u8d2d\u7269\u670d\u52a1;\u4e13\u5356\u5e97;\u81ea\u884c\u8f66\u4e13\u5356\u5e97", "pty": "0612"}}, {"type": "Feature", "geometry": {"type": "Point", "coordinates": [121.45095048615374, 31.25863109531852]}, "properties": {"name": "\u65b0\u65e5\u7535\u52a8\u8f66(\u666e\u5584\u8def)", "biz": "061208 \u8d2d\u7269\u670d\u52a1;\u4e13\u5356\u5e97;\u81ea\u884c\u8f66\u4e13\u5356\u5e97", "pty": "0612"}}, {"type": "Feature", "geometry": {"type": "Point", "coordinates": [121.44465449096542, 31.236405731632992]}, "properties": {"name": "\u7ef4\u8fbe\u8f66\u884c", "biz": "061208|071200 \u8d2d\u7269\u670d\u52a1;\u4e13\u5356\u5e97;\u81ea\u884c\u8f66\u4e13\u5356\u5e97|\u751f\u6d3b\u670d\u52a1;\u7ef4\u4fee\u7ad9\u70b9;\u7ef4\u4fee\u7ad9\u70b9", "pty": "0612"}}, {"type": "Feature", "geometry": {"type": "Point", "coordinates": [121.44904519142055, 31.31996902546684]}, "properties": {"name": "\u5c0f\u738b\u8f66\u884c(\u5e73\u987a\u8def)", "biz": "061208 \u8d2d\u7269\u670d\u52a1;\u4e13\u5356\u5e97;\u81ea\u884c\u8f66\u4e13\u5356\u5e97", "pty": "0612"}}, {"type": "Feature", "geometry": {"type": "Point", "coordinates": [121.45239807724678, 31.238862178478914]}, "properties": {"name": "\u901a\u8fbe\u8f66\u884c(\u4e16\u5fb7\u91cc\u897f)", "biz": "061208 \u8d2d\u7269\u670d\u52a1;\u4e13\u5356\u5e97;\u81ea\u884c\u8f66\u4e13\u5356\u5e97", "pty": "0612"}}, {"type": "Feature", "geometry": {"type": "Point", "coordinates": [121.42607101349323, 31.247100331745592]}, "properties": {"name": "\u96c5\u8fea\u7535\u52a8\u8f66(\u5149\u590d\u897f\u8def)", "biz": "061208 \u8d2d\u7269\u670d\u52a1;\u4e13\u5356\u5e97;\u81ea\u884c\u8f66\u4e13\u5356\u5e97", "pty": "0612"}}, {"type": "Feature", "geometry": {"type": "Point", "coordinates": [121.40042145010426, 31.259159217390497]}, "properties": {"name": "\u7eff\u6e90\u7535\u52a8\u8f66(\u666e\u9640\u4e13\u5356\u5e97)", "biz": "061208 \u8d2d\u7269\u670d\u52a1;\u4e13\u5356\u5e97;\u81ea\u884c\u8f66\u4e13\u5356\u5e97", "pty": "0612"}}, {"type": "Feature", "geometry": {"type": "Point", "coordinates": [121.41821019859667, 31.230126508118122]}, "properties": {"name": "\u6781\u54c1\u5355\u8f66", "biz": "061208 \u8d2d\u7269\u670d\u52a1;\u4e13\u5356\u5e97;\u81ea\u884c\u8f66\u4e13\u5356\u5e97", "pty": "0612"}}, {"type": "Feature", "geometry": {"type": "Point", "coordinates": [121.38527345892246, 31.241935059588492]}, "properties": {"name": "\u6377\u5b89\u7279(\u6885\u5ddd\u8def\u4e13\u5356\u5e97)", "biz": "061208 \u8d2d\u7269\u670d\u52a1;\u4e13\u5356\u5e97;\u81ea\u884c\u8f66\u4e13\u5356\u5e97", "pty": "0612"}}, {"type": "Feature", "geometry": {"type": "Point", "coordinates": [121.3602305364623, 31.241051247057886]}, "properties": {"name": "\u7eff\u4eae\u7535\u52a8\u8f66(\u5409\u9547\u8def)", "biz": "061208 \u8d2d\u7269\u670d\u52a1;\u4e13\u5356\u5e97;\u81ea\u884c\u8f66\u4e13\u5356\u5e97", "pty": "0612"}}, {"type": "Feature", "geometry": {"type": "Point", "coordinates": [121.42200941709656, 31.26865712436131]}, "properties": {"name": "\u4f9d\u83b1\u8fbe\u7535\u52a8\u8f66(\u897f\u4e61\u8def)", "biz": "061208 \u8d2d\u7269\u670d\u52a1;\u4e13\u5356\u5e97;\u81ea\u884c\u8f66\u4e13\u5356\u5e97", "pty": "0612"}}, {"type": "Feature", "geometry": {"type": "Point", "coordinates": [121.39770017815091, 31.24811394147017]}, "properties": {"name": "\u6377\u5b89\u7279(\u5170\u6eaa\u8def\u5e97)", "biz": "061208 \u8d2d\u7269\u670d\u52a1;\u4e13\u5356\u5e97;\u81ea\u884c\u8f66\u4e13\u5356\u5e97", "pty": "0612"}}, {"type": "Feature", "geometry": {"type": "Point", "coordinates": [121.37647083658935, 31.28547141928561]}, "properties": {"name": "\u4e0a\u6d77\u5c1a\u54c1\u7535\u52a8\u8f66(\u53e4\u6d6a\u8def\u76f4\u8425\u5e97)", "biz": "061208 \u8d2d\u7269\u670d\u52a1;\u4e13\u5356\u5e97;\u81ea\u884c\u8f66\u4e13\u5356\u5e97", "pty": "0612"}}, {"type": "Feature", "geometry": {"type": "Point", "coordinates": [121.38818789962626, 31.24180675132017]}, "properties": {"name": "\u840d\u4f73\u8f66\u884c(\u6885\u5ddd\u8def\u5e97)", "biz": "061208 \u8d2d\u7269\u670d\u52a1;\u4e13\u5356\u5e97;\u81ea\u884c\u8f66\u4e13\u5356\u5e97", "pty": "0612"}}, {"type": "Feature", "geometry": {"type": "Point", "coordinates": [121.39746390073303, 31.25126653702526]}, "properties": {"name": "\u96c5\u8fea\u7535\u52a8\u8f66", "biz": "061208 \u8d2d\u7269\u670d\u52a1;\u4e13\u5356\u5e97;\u81ea\u884c\u8f66\u4e13\u5356\u5e97", "pty": "0612"}}, {"type": "Feature", "geometry": {"type": "Point", "coordinates": [121.38893249248432, 31.242639081358984]}, "properties": {"name": "\u7eff\u80fd\u7535\u52a8\u8f66(\u4e2d\u6c5f\u8def)", "biz": "061208 \u8d2d\u7269\u670d\u52a1;\u4e13\u5356\u5e97;\u81ea\u884c\u8f66\u4e13\u5356\u5e97", "pty": "0612"}}, {"type": "Feature", "geometry": {"type": "Point", "coordinates": [121.38476873934971, 31.242317158289502]}, "properties": {"name": "\u7eff\u4eae\u7535\u52a8\u8f66(\u6885\u5ddd\u8def)", "biz": "061208 \u8d2d\u7269\u670d\u52a1;\u4e13\u5356\u5e97;\u81ea\u884c\u8f66\u4e13\u5356\u5e97", "pty": "0612"}}, {"type": "Feature", "geometry": {"type": "Point", "coordinates": [121.39910534295541, 31.247067451912645]}, "properties": {"name": "\u901f\u8d77\u8f66\u884c(\u5357\u77f3\u4e8c\u8def)", "biz": "061208 \u8d2d\u7269\u670d\u52a1;\u4e13\u5356\u5e97;\u81ea\u884c\u8f66\u4e13\u5356\u5e97", "pty": "0612"}}, {"type": "Feature", "geometry": {"type": "Point", "coordinates": [121.37022862261153, 31.24399143316041]}, "properties": {"name": "\u5c0f\u987e\u8f66\u884c(\u5ef6\u5ddd\u8def\u5e97)", "biz": "061208 \u8d2d\u7269\u670d\u52a1;\u4e13\u5356\u5e97;\u81ea\u884c\u8f66\u4e13\u5356\u5e97", "pty": "0612"}}, {"type": "Feature", "geometry": {"type": "Point", "coordinates": [121.41064776687936, 31.237058660306417]}, "properties": {"name": "\u5e73\u4ef7\u8f66\u884c(\u767d\u5170\u8def\u5e97)", "biz": "061208|071200 \u8d2d\u7269\u670d\u52a1;\u4e13\u5356\u5e97;\u81ea\u884c\u8f66\u4e13\u5356\u5e97|\u751f\u6d3b\u670d\u52a1;\u7ef4\u4fee\u7ad9\u70b9;\u7ef4\u4fee\u7ad9\u70b9", "pty": "0612"}}, {"type": "Feature", "geometry": {"type": "Point", "coordinates": [121.42753449050451, 31.267703191225966]}, "properties": {"name": "\u6b27\u901a\u7535\u52a8\u8f66\u4e13\u5356\u5e97(\u65b0\u6751\u8def\u5e97)", "biz": "061208 \u8d2d\u7269\u670d\u52a1;\u4e13\u5356\u5e97;\u81ea\u884c\u8f66\u4e13\u5356\u5e97", "pty": "0612"}}, {"type": "Feature", "geometry": {"type": "Point", "coordinates": [121.34117165118268, 31.290476832972352]}, "properties": {"name": "\u8001\u674e\u8f66\u884c(\u767d\u4e3d\u8def)", "biz": "061208 \u8d2d\u7269\u670d\u52a1;\u4e13\u5356\u5e97;\u81ea\u884c\u8f66\u4e13\u5356\u5e97", "pty": "0612"}}, {"type": "Feature", "geometry": {"type": "Point", "coordinates": [121.39728494192889, 31.239338908776684]}, "properties": {"name": "\u7535\u52a8\u8f66\u914d\u4ef6\u6279\u53d1", "biz": "061208 \u8d2d\u7269\u670d\u52a1;\u4e13\u5356\u5e97;\u81ea\u884c\u8f66\u4e13\u5356\u5e97", "pty": "0612"}}, {"type": "Feature", "geometry": {"type": "Point", "coordinates": [121.39180567214159, 31.22875254469333]}, "properties": {"name": "\u7eff\u4eae\u7535\u52a8\u8f66(\u5927\u6e21\u6cb3\u8def\u5e97)", "biz": "061208 \u8d2d\u7269\u670d\u52a1;\u4e13\u5356\u5e97;\u81ea\u884c\u8f66\u4e13\u5356\u5e97", "pty": "0612"}}, {"type": "Feature", "geometry": {"type": "Point", "coordinates": [121.43952781906162, 31.259110774053905]}, "properties": {"name": "\u5c0f\u5218\u8f66\u884c(\u4e2d\u5c71\u5317\u8def)", "biz": "061208 \u8d2d\u7269\u670d\u52a1;\u4e13\u5356\u5e97;\u81ea\u884c\u8f66\u4e13\u5356\u5e97", "pty": "0612"}}, {"type": "Feature", "geometry": {"type": "Point", "coordinates": [121.41940568553467, 31.25160887842508]}, "properties": {"name": "\u666e\u9640\u4ea4\u901a\u5668\u6750\u603b\u6c47", "biz": "061208 \u8d2d\u7269\u670d\u52a1;\u4e13\u5356\u5e97;\u81ea\u884c\u8f66\u4e13\u5356\u5e97", "pty": "0612"}}, {"type": "Feature", "geometry": {"type": "Point", "coordinates": [121.38547933576827, 31.241919958505672]}, "properties": {"name": "\u5c0f\u725b\u7535\u52a8\u8f66", "biz": "061208 \u8d2d\u7269\u670d\u52a1;\u4e13\u5356\u5e97;\u81ea\u884c\u8f66\u4e13\u5356\u5e97", "pty": "0612"}}, {"type": "Feature", "geometry": {"type": "Point", "coordinates": [121.44303062675904, 31.25986802869955]}, "properties": {"name": "\u5929\u739b\u7535\u52a8\u8f66\u4e13\u5356", "biz": "061208 \u8d2d\u7269\u670d\u52a1;\u4e13\u5356\u5e97;\u81ea\u884c\u8f66\u4e13\u5356\u5e97", "pty": "0612"}}, {"type": "Feature", "geometry": {"type": "Point", "coordinates": [121.34069662869709, 31.29087552648847]}, "properties": {"name": "\u6770\u5b9d\u00b7\u5927\u738b(\u6843\u6d66\u5e97)", "biz": "061208 \u8d2d\u7269\u670d\u52a1;\u4e13\u5356\u5e97;\u81ea\u884c\u8f66\u4e13\u5356\u5e97", "pty": "0612"}}, {"type": "Feature", "geometry": {"type": "Point", "coordinates": [121.4276399468379, 31.26438475791619]}, "properties": {"name": "\u6b27\u6d3e\u7535\u52a8\u8f66", "biz": "061208 \u8d2d\u7269\u670d\u52a1;\u4e13\u5356\u5e97;\u81ea\u884c\u8f66\u4e13\u5356\u5e97", "pty": "0612"}}, {"type": "Feature", "geometry": {"type": "Point", "coordinates": [121.41065321918731, 31.254855664492776]}, "properties": {"name": "\u6770\u5b9d\u5927\u738b\u7535\u52a8\u8f66(\u94dc\u5ddd\u8def\u5e97)", "biz": "061208 \u8d2d\u7269\u670d\u52a1;\u4e13\u5356\u5e97;\u81ea\u884c\u8f66\u4e13\u5356\u5e97", "pty": "0612"}}, {"type": "Feature", "geometry": {"type": "Point", "coordinates": [121.42656252746382, 31.26131068245234]}, "properties": {"name": "\u5c1a\u54c1\u5c0f\u7f9a\u7f8a\u7535\u52a8\u8f66", "biz": "061208 \u8d2d\u7269\u670d\u52a1;\u4e13\u5356\u5e97;\u81ea\u884c\u8f66\u4e13\u5356\u5e97", "pty": "0612"}}, {"type": "Feature", "geometry": {"type": "Point", "coordinates": [121.42328226571279, 31.266964265637206]}, "properties": {"name": "\u5c1a\u54c1\u7535\u52a8\u8f66(\u9ec4\u9675\u8def\u5e97)", "biz": "061208 \u8d2d\u7269\u670d\u52a1;\u4e13\u5356\u5e97;\u81ea\u884c\u8f66\u4e13\u5356\u5e97", "pty": "0612"}}, {"type": "Feature", "geometry": {"type": "Point", "coordinates": [121.41316008949302, 31.232561321391287]}, "properties": {"name": "\u5c0f\u9ad8\u8f66\u884c(\u987a\u4e49\u8def)", "biz": "061208 \u8d2d\u7269\u670d\u52a1;\u4e13\u5356\u5e97;\u81ea\u884c\u8f66\u4e13\u5356\u5e97", "pty": "0612"}}, {"type": "Feature", "geometry": {"type": "Point", "coordinates": [121.41782296804811, 31.250882721786738]}, "properties": {"name": "\u65b0\u5927\u6d32\u7535\u52a8\u8f66", "biz": "061208 \u8d2d\u7269\u670d\u52a1;\u4e13\u5356\u5e97;\u81ea\u884c\u8f66\u4e13\u5356\u5e97", "pty": "0612"}}, {"type": "Feature", "geometry": {"type": "Point", "coordinates": [121.39691720530668, 31.259300010497636]}, "properties": {"name": "\u6c38\u661f\u8f66\u884c(\u829d\u5ddd\u8def\u5e97)", "biz": "061208 \u8d2d\u7269\u670d\u52a1;\u4e13\u5356\u5e97;\u81ea\u884c\u8f66\u4e13\u5356\u5e97", "pty": "0612"}}, {"type": "Feature", "geometry": {"type": "Point", "coordinates": [121.42153158711834, 31.248133589341467]}, "properties": {"name": "\u5c0f\u8bb8\u8f66\u884c(\u5c9a\u768b\u8def)", "biz": "061208 \u8d2d\u7269\u670d\u52a1;\u4e13\u5356\u5e97;\u81ea\u884c\u8f66\u4e13\u5356\u5e97", "pty": "0612"}}, {"type": "Feature", "geometry": {"type": "Point", "coordinates": [121.43708309294624, 31.265599643405345]}, "properties": {"name": "\u7eff\u4eae\u7535\u52a8\u8f66(\u5ef6\u957f\u897f\u8def)", "biz": "061208 \u8d2d\u7269\u670d\u52a1;\u4e13\u5356\u5e97;\u81ea\u884c\u8f66\u4e13\u5356\u5e97", "pty": "0612"}}, {"type": "Feature", "geometry": {"type": "Point", "coordinates": [121.34574791635032, 31.281223563392505]}, "properties": {"name": "\u5c0f\u5200\u7535\u52a8\u8f66(\u7ea2\u68c9\u8def\u5e97)", "biz": "061208 \u8d2d\u7269\u670d\u52a1;\u4e13\u5356\u5e97;\u81ea\u884c\u8f66\u4e13\u5356\u5e97", "pty": "0612"}}, {"type": "Feature", "geometry": {"type": "Point", "coordinates": [121.40624738133927, 31.234941526633857]}, "properties": {"name": "\u6b27\u901a\u7535\u52a8\u8f66(\u4e2d\u5c71\u5317\u8def)", "biz": "061208 \u8d2d\u7269\u670d\u52a1;\u4e13\u5356\u5e97;\u81ea\u884c\u8f66\u4e13\u5356\u5e97", "pty": "0612"}}, {"type": "Feature", "geometry": {"type": "Point", "coordinates": [121.39710776989584, 31.241332006458897]}, "properties": {"name": "\u4f73\u5229\u8f66\u884c", "biz": "061208 \u8d2d\u7269\u670d\u52a1;\u4e13\u5356\u5e97;\u81ea\u884c\u8f66\u4e13\u5356\u5e97", "pty": "0612"}}, {"type": "Feature", "geometry": {"type": "Point", "coordinates": [121.43667825723473, 31.265686913603073]}, "properties": {"name": "\u7231\u739b\u7535\u52a8\u8f66", "biz": "061208 \u8d2d\u7269\u670d\u52a1;\u4e13\u5356\u5e97;\u81ea\u884c\u8f66\u4e13\u5356\u5e97", "pty": "0612"}}, {"type": "Feature", "geometry": {"type": "Point", "coordinates": [121.41549119610542, 31.266827777106933]}, "properties": {"name": "\u8fc5\u52a8\u7535\u52a8\u8f66", "biz": "061208 \u8d2d\u7269\u670d\u52a1;\u4e13\u5356\u5e97;\u81ea\u884c\u8f66\u4e13\u5356\u5e97", "pty": "0612"}}, {"type": "Feature", "geometry": {"type": "Point", "coordinates": [121.35458161984175, 31.23765310878096]}, "properties": {"name": "\u7eff\u6e90\u6b27\u901a\u4e13\u5356\u5e97", "biz": "061208 \u8d2d\u7269\u670d\u52a1;\u4e13\u5356\u5e97;\u81ea\u884c\u8f66\u4e13\u5356\u5e97", "pty": "0612"}}, {"type": "Feature", "geometry": {"type": "Point", "coordinates": [121.3392055639416, 31.282411693381903]}, "properties": {"name": "\u5148\u798f\u8f66\u884c(\u534e\u8054\u8def)", "biz": "061208 \u8d2d\u7269\u670d\u52a1;\u4e13\u5356\u5e97;\u81ea\u884c\u8f66\u4e13\u5356\u5e97", "pty": "0612"}}, {"type": "Feature", "geometry": {"type": "Point", "coordinates": [121.38884637169564, 31.24445029569765]}, "properties": {"name": "\u66fc\u8d85\u8f66\u884c", "biz": "061208 \u8d2d\u7269\u670d\u52a1;\u4e13\u5356\u5e97;\u81ea\u884c\u8f66\u4e13\u5356\u5e97", "pty": "0612"}}, {"type": "Feature", "geometry": {"type": "Point", "coordinates": [121.42663166708367, 31.272424002190633]}, "properties": {"name": "\u5c0f\u9ad8\u8f66\u884c(\u5fd7\u4e39\u8def)", "biz": "061208 \u8d2d\u7269\u670d\u52a1;\u4e13\u5356\u5e97;\u81ea\u884c\u8f66\u4e13\u5356\u5e97", "pty": "0612"}}, {"type": "Feature", "geometry": {"type": "Point", "coordinates": [121.38122140767663, 31.286729197064965]}, "properties": {"name": "\u5c0f\u5218\u8f66\u884c(\u7941\u5b89\u8def\u5e97)", "biz": "061208 \u8d2d\u7269\u670d\u52a1;\u4e13\u5356\u5e97;\u81ea\u884c\u8f66\u4e13\u5356\u5e97", "pty": "0612"}}, {"type": "Feature", "geometry": {"type": "Point", "coordinates": [121.44153950722051, 31.256411681865938]}, "properties": {"name": "\u6770\u5b9d\u5927\u738b\u7535\u52a8\u8f66\u4e13\u5356\u5e97", "biz": "061208 \u8d2d\u7269\u670d\u52a1;\u4e13\u5356\u5e97;\u81ea\u884c\u8f66\u4e13\u5356\u5e97", "pty": "0612"}}, {"type": "Feature", "geometry": {"type": "Point", "coordinates": [121.39919735834555, 31.24698749353913]}, "properties": {"name": "\u7eff\u4eae\u7535\u52a8\u8f66(\u5357\u77f3\u4e8c\u8def)", "biz": "061208 \u8d2d\u7269\u670d\u52a1;\u4e13\u5356\u5e97;\u81ea\u884c\u8f66\u4e13\u5356\u5e97", "pty": "0612"}}, {"type": "Feature", "geometry": {"type": "Point", "coordinates": [121.37533796007969, 31.263189824702753]}, "properties": {"name": "\u65b0\u5927\u6d32\u7535\u52a8\u8f66", "biz": "061208 \u8d2d\u7269\u670d\u52a1;\u4e13\u5356\u5e97;\u81ea\u884c\u8f66\u4e13\u5356\u5e97", "pty": "0612"}}, {"type": "Feature", "geometry": {"type": "Point", "coordinates": [121.38870822965266, 31.269675279362332]}, "properties": {"name": "\u65b0\u5927\u6d32\u7535\u52a8\u8f66(\u771f\u5317\u8def)", "biz": "061208 \u8d2d\u7269\u670d\u52a1;\u4e13\u5356\u5e97;\u81ea\u884c\u8f66\u4e13\u5356\u5e97", "pty": "0612"}}, {"type": "Feature", "geometry": {"type": "Point", "coordinates": [121.38880838258859, 31.24451528091164]}, "properties": {"name": "\u53f0\u94c3\u7535\u52a8\u8f66\u4e13\u5356\u5e97", "biz": "061208 \u8d2d\u7269\u670d\u52a1;\u4e13\u5356\u5e97;\u81ea\u884c\u8f66\u4e13\u5356\u5e97", "pty": "0612"}}, {"type": "Feature", "geometry": {"type": "Point", "coordinates": [121.37503310535155, 31.288172602686007]}, "properties": {"name": "\u5c0f\u6731\u8f66\u884c(\u7941\u8fde\u5c71\u8def)", "biz": "061208 \u8d2d\u7269\u670d\u52a1;\u4e13\u5356\u5e97;\u81ea\u884c\u8f66\u4e13\u5356\u5e97", "pty": "0612"}}, {"type": "Feature", "geometry": {"type": "Point", "coordinates": [121.35893611918401, 31.236131324469337]}, "properties": {"name": "\u65b0\u5927\u6d32\u7535\u52a8\u8f66(\u540c\u666e\u8def)", "biz": "061208 \u8d2d\u7269\u670d\u52a1;\u4e13\u5356\u5e97;\u81ea\u884c\u8f66\u4e13\u5356\u5e97", "pty": "0612"}}, {"type": "Feature", "geometry": {"type": "Point", "coordinates": [121.3620346499944, 31.286691051666626]}, "properties": {"name": "\u6b27\u6d3e\u7535\u52a8\u8f66", "biz": "061208 \u8d2d\u7269\u670d\u52a1;\u4e13\u5356\u5e97;\u81ea\u884c\u8f66\u4e13\u5356\u5e97", "pty": "0612"}}, {"type": "Feature", "geometry": {"type": "Point", "coordinates": [121.3620955540735, 31.2866859718216]}, "properties": {"name": "\u7eff\u4eae\u7535\u52a8\u8f66", "biz": "061208 \u8d2d\u7269\u670d\u52a1;\u4e13\u5356\u5e97;\u81ea\u884c\u8f66\u4e13\u5356\u5e97", "pty": "0612"}}, {"type": "Feature", "geometry": {"type": "Point", "coordinates": [121.34157394687836, 31.288750812319385]}, "properties": {"name": "\u53f0\u94c3\u7535\u52a8\u8f66(\u94f6\u674f\u8def\u5e97)", "biz": "061208 \u8d2d\u7269\u670d\u52a1;\u4e13\u5356\u5e97;\u81ea\u884c\u8f66\u4e13\u5356\u5e97", "pty": "0612"}}, {"type": "Feature", "geometry": {"type": "Point", "coordinates": [121.34007274800165, 31.293360651290367]}, "properties": {"name": "\u90fd\u5e02\u98ce\u7535\u52a8\u8f66(\u6c34\u6749\u8def)", "biz": "061208 \u8d2d\u7269\u670d\u52a1;\u4e13\u5356\u5e97;\u81ea\u884c\u8f66\u4e13\u5356\u5e97", "pty": "0612"}}, {"type": "Feature", "geometry": {"type": "Point", "coordinates": [121.34141129887213, 31.28867013664469]}, "properties": {"name": "\u946b\u9a6c\u8f66\u884c", "biz": "061208 \u8d2d\u7269\u670d\u52a1;\u4e13\u5356\u5e97;\u81ea\u884c\u8f66\u4e13\u5356\u5e97", "pty": "0612"}}, {"type": "Feature", "geometry": {"type": "Point", "coordinates": [121.37632398727659, 31.28545855265604]}, "properties": {"name": "\u7eff\u4eae\u7535\u52a8\u8f66", "biz": "061208 \u8d2d\u7269\u670d\u52a1;\u4e13\u5356\u5e97;\u81ea\u884c\u8f66\u4e13\u5356\u5e97", "pty": "0612"}}, {"type": "Feature", "geometry": {"type": "Point", "coordinates": [121.35850885273778, 31.236010994080907]}, "properties": {"name": "\u96c5\u8fea\u7535\u52a8\u8f66(\u540c\u666e\u8def)", "biz": "061208 \u8d2d\u7269\u670d\u52a1;\u4e13\u5356\u5e97;\u81ea\u884c\u8f66\u4e13\u5356\u5e97", "pty": "0612"}}, {"type": "Feature", "geometry": {"type": "Point", "coordinates": [121.4299321685088, 31.25934610275174]}, "properties": {"name": "\u4e0a\u6d77\u6d77\u8fbe\u6469\u914d\u7ecf\u8425\u90e8", "biz": "061208|040000 \u8d2d\u7269\u670d\u52a1;\u4e13\u5356\u5e97;\u81ea\u884c\u8f66\u4e13\u5356\u5e97|\u6469\u6258\u8f66\u670d\u52a1;\u6469\u6258\u8f66\u670d\u52a1\u76f8\u5173;\u6469\u6258\u8f66\u670d\u52a1\u76f8\u5173", "pty": "0612"}}, {"type": "Feature", "geometry": {"type": "Point", "coordinates": [121.42038790932178, 31.262491077211614]}, "properties": {"name": "\u6d77\u5b9d\u7535\u52a8\u8f66", "biz": "061208 \u8d2d\u7269\u670d\u52a1;\u4e13\u5356\u5e97;\u81ea\u884c\u8f66\u4e13\u5356\u5e97", "pty": "0612"}}, {"type": "Feature", "geometry": {"type": "Point", "coordinates": [121.42645619779195, 31.274716808742706]}, "properties": {"name": "\u5c0f\u5200\u7535\u52a8\u8f66", "biz": "061208 \u8d2d\u7269\u670d\u52a1;\u4e13\u5356\u5e97;\u81ea\u884c\u8f66\u4e13\u5356\u5e97", "pty": "0612"}}, {"type": "Feature", "geometry": {"type": "Point", "coordinates": [121.41544515117751, 31.266836736689914]}, "properties": {"name": "\u4f18\u72d0\u7535\u52a8\u8f66", "biz": "061208 \u8d2d\u7269\u670d\u52a1;\u4e13\u5356\u5e97;\u81ea\u884c\u8f66\u4e13\u5356\u5e97", "pty": "0612"}}, {"type": "Feature", "geometry": {"type": "Point", "coordinates": [121.40770139109978, 31.231788579889844]}, "properties": {"name": "\u7f8e\u56fd\u5927\u884c\u6298\u53e0\u81ea\u884c(\u666e\u9640\u751f\u6d3b\u9986)", "biz": "061208 \u8d2d\u7269\u670d\u52a1;\u4e13\u5356\u5e97;\u81ea\u884c\u8f66\u4e13\u5356\u5e97", "pty": "0612"}}, {"type": "Feature", "geometry": {"type": "Point", "coordinates": [121.40031215919116, 31.2622968389402]}, "properties": {"name": "\u65b0\u857e\u7535\u52a8\u8f66", "biz": "061208 \u8d2d\u7269\u670d\u52a1;\u4e13\u5356\u5e97;\u81ea\u884c\u8f66\u4e13\u5356\u5e97", "pty": "0612"}}, {"type": "Feature", "geometry": {"type": "Point", "coordinates": [121.41381560564571, 31.244533319617062]}, "properties": {"name": "\u6b27\u901a\u7535\u52a8\u8f66(\u6b66\u5b81\u82d1\u5357)", "biz": "061208 \u8d2d\u7269\u670d\u52a1;\u4e13\u5356\u5e97;\u81ea\u884c\u8f66\u4e13\u5356\u5e97", "pty": "0612"}}, {"type": "Feature", "geometry": {"type": "Point", "coordinates": [121.38543636140534, 31.24192197997608]}, "properties": {"name": "\u7231\u739b\u7535\u52a8\u8f66(\u6885\u5ddd\u8def)", "biz": "061208 \u8d2d\u7269\u670d\u52a1;\u4e13\u5356\u5e97;\u81ea\u884c\u8f66\u4e13\u5356\u5e97", "pty": "0612"}}, {"type": "Feature", "geometry": {"type": "Point", "coordinates": [121.32492792672883, 31.28897390387103]}, "properties": {"name": "\u4e94\u91d1\u8f66\u884c", "biz": "061208 \u8d2d\u7269\u670d\u52a1;\u4e13\u5356\u5e97;\u81ea\u884c\u8f66\u4e13\u5356\u5e97", "pty": "0612"}}, {"type": "Feature", "geometry": {"type": "Point", "coordinates": [121.42202560176322, 31.26677894634765]}, "properties": {"name": "\u7231\u739b\u7535\u52a8\u8f66(\u65b0\u6751\u8def)", "biz": "061208 \u8d2d\u7269\u670d\u52a1;\u4e13\u5356\u5e97;\u81ea\u884c\u8f66\u4e13\u5356\u5e97", "pty": "0612"}}, {"type": "Feature", "geometry": {"type": "Point", "coordinates": [121.38878415537378, 31.270143050734088]}, "properties": {"name": "\u4e0a\u6d77\u6770\u6797\u7535\u52a8\u8f66", "biz": "061208 \u8d2d\u7269\u670d\u52a1;\u4e13\u5356\u5e97;\u81ea\u884c\u8f66\u4e13\u5356\u5e97", "pty": "0612"}}, {"type": "Feature", "geometry": {"type": "Point", "coordinates": [121.3753769282351, 31.263079836850682]}, "properties": {"name": "\u5c0f\u5200\u7535\u52a8\u8f66", "biz": "061208 \u8d2d\u7269\u670d\u52a1;\u4e13\u5356\u5e97;\u81ea\u884c\u8f66\u4e13\u5356\u5e97", "pty": "0612"}}, {"type": "Feature", "geometry": {"type": "Point", "coordinates": [121.37666864100403, 31.28542126858516]}, "properties": {"name": "\u4e0a\u6d77\u4f9d\u83b1\u8fbe\u7535\u52a8\u8f66", "biz": "061208 \u8d2d\u7269\u670d\u52a1;\u4e13\u5356\u5e97;\u81ea\u884c\u8f66\u4e13\u5356\u5e97", "pty": "0612"}}, {"type": "Feature", "geometry": {"type": "Point", "coordinates": [121.375710405933, 31.253571697177097]}, "properties": {"name": "\u65b0\u65e5\u7535\u52a8\u8f66", "biz": "061208 \u8d2d\u7269\u670d\u52a1;\u4e13\u5356\u5e97;\u81ea\u884c\u8f66\u4e13\u5356\u5e97", "pty": "0612"}}, {"type": "Feature", "geometry": {"type": "Point", "coordinates": [121.36335562091558, 31.28632344946438]}, "properties": {"name": "\u5927\u5168\u8f66\u4e1a", "biz": "061208 \u8d2d\u7269\u670d\u52a1;\u4e13\u5356\u5e97;\u81ea\u884c\u8f66\u4e13\u5356\u5e97", "pty": "0612"}}, {"type": "Feature", "geometry": {"type": "Point", "coordinates": [121.3627176303172, 31.286076390790424]}, "properties": {"name": "\u7eff\u80fd\u7535\u52a8\u8f66", "biz": "061208 \u8d2d\u7269\u670d\u52a1;\u4e13\u5356\u5e97;\u81ea\u884c\u8f66\u4e13\u5356\u5e97", "pty": "0612"}}, {"type": "Feature", "geometry": {"type": "Point", "coordinates": [121.3628803618398, 31.286250104199986]}, "properties": {"name": "\u8f66\u9970\u4f73\u9a91\u58eb\u7528\u54c1\u6279\u53d1", "biz": "061208 \u8d2d\u7269\u670d\u52a1;\u4e13\u5356\u5e97;\u81ea\u884c\u8f66\u4e13\u5356\u5e97", "pty": "0612"}}, {"type": "Feature", "geometry": {"type": "Point", "coordinates": [121.44159761543668, 31.245131809593325]}, "properties": {"name": "\u91d1\u67a2\u8f66\u884c", "biz": "061208 \u8d2d\u7269\u670d\u52a1;\u4e13\u5356\u5e97;\u81ea\u884c\u8f66\u4e13\u5356\u5e97", "pty": "0612"}}, {"type": "Feature", "geometry": {"type": "Point", "coordinates": [121.34194116513814, 31.288803134315934]}, "properties": {"name": "\u9e70\u4f26\u7535\u52a8\u8f66(\u7279\u7ea6\u7ef4\u4fee\u70b9)", "biz": "061208 \u8d2d\u7269\u670d\u52a1;\u4e13\u5356\u5e97;\u81ea\u884c\u8f66\u4e13\u5356\u5e97", "pty": "0612"}}, {"type": "Feature", "geometry": {"type": "Point", "coordinates": [121.44302962434118, 31.259869026314252]}, "properties": {"name": "\u5c0f\u4e01\u8f66\u884c(\u4e2d\u5c71\u5317\u8def)", "biz": "061208 \u8d2d\u7269\u670d\u52a1;\u4e13\u5356\u5e97;\u81ea\u884c\u8f66\u4e13\u5356\u5e97", "pty": "0612"}}, {"type": "Feature", "geometry": {"type": "Point", "coordinates": [121.35991903344164, 31.241241597125253]}, "properties": {"name": "\u6c38\u6cf0&\u7231\u739b&\u65b0\u5927\u6d32\u7535\u52a8\u8f66", "biz": "061208 \u8d2d\u7269\u670d\u52a1;\u4e13\u5356\u5e97;\u81ea\u884c\u8f66\u4e13\u5356\u5e97", "pty": "0612"}}, {"type": "Feature", "geometry": {"type": "Point", "coordinates": [121.42917038297968, 31.26508453968485]}, "properties": {"name": "\u632f\u5174\u8f66\u884c(\u5b50\u957f\u8def\u5e97)", "biz": "061208 \u8d2d\u7269\u670d\u52a1;\u4e13\u5356\u5e97;\u81ea\u884c\u8f66\u4e13\u5356\u5e97", "pty": "0612"}}, {"type": "Feature", "geometry": {"type": "Point", "coordinates": [121.42151762451896, 31.24749885866291]}, "properties": {"name": "\u4e0a\u6d77\u660c\u5efa\u7535\u52a8\u8f66\u914d\u4ef6\u603b\u6c47", "biz": "061208 \u8d2d\u7269\u670d\u52a1;\u4e13\u5356\u5e97;\u81ea\u884c\u8f66\u4e13\u5356\u5e97", "pty": "0612"}}, {"type": "Feature", "geometry": {"type": "Point", "coordinates": [121.40834182635166, 31.265318888816896]}, "properties": {"name": "\u5c0f\u8303\u8f66\u884c(\u9999\u6cc9\u8def\u5e97)", "biz": "061208 \u8d2d\u7269\u670d\u52a1;\u4e13\u5356\u5e97;\u81ea\u884c\u8f66\u4e13\u5356\u5e97", "pty": "0612"}}, {"type": "Feature", "geometry": {"type": "Point", "coordinates": [121.4204379405751, 31.262832979814085]}, "properties": {"name": "\u8001\u8ba1\u8f66\u884c", "biz": "061208 \u8d2d\u7269\u670d\u52a1;\u4e13\u5356\u5e97;\u81ea\u884c\u8f66\u4e13\u5356\u5e97", "pty": "0612"}}, {"type": "Feature", "geometry": {"type": "Point", "coordinates": [121.39801259415022, 31.27778909378096]}, "properties": {"name": "\u95eb\u4f0d\u8f66\u884c", "biz": "061208 \u8d2d\u7269\u670d\u52a1;\u4e13\u5356\u5e97;\u81ea\u884c\u8f66\u4e13\u5356\u5e97", "pty": "0612"}}, {"type": "Feature", "geometry": {"type": "Point", "coordinates": [121.44007891904816, 31.24874735795714]}, "properties": {"name": "\u5927\u534e\u8f66\u884c(\u6fb3\u95e8\u8def)", "biz": "061208 \u8d2d\u7269\u670d\u52a1;\u4e13\u5356\u5e97;\u81ea\u884c\u8f66\u4e13\u5356\u5e97", "pty": "0612"}}, {"type": "Feature", "geometry": {"type": "Point", "coordinates": [121.38432035315206, 31.261507890641795]}, "properties": {"name": "\u4e0a\u6d77\u6b27\u901a\u4e13\u5356", "biz": "061208 \u8d2d\u7269\u670d\u52a1;\u4e13\u5356\u5e97;\u81ea\u884c\u8f66\u4e13\u5356\u5e97", "pty": "0612"}}, {"type": "Feature", "geometry": {"type": "Point", "coordinates": [121.37033064322516, 31.276662088987933]}, "properties": {"name": "\u5e7b\u5f71\u7535\u8f66\u8054\u76df", "biz": "061208 \u8d2d\u7269\u670d\u52a1;\u4e13\u5356\u5e97;\u81ea\u884c\u8f66\u4e13\u5356\u5e97", "pty": "0612"}}, {"type": "Feature", "geometry": {"type": "Point", "coordinates": [121.38891187066854, 31.261317800051632]}, "properties": {"name": "\u4e0a\u6d77\u6c38\u4e45\u7535\u52a8\u8f66", "biz": "061208 \u8d2d\u7269\u670d\u52a1;\u4e13\u5356\u5e97;\u81ea\u884c\u8f66\u4e13\u5356\u5e97", "pty": "0612"}}, {"type": "Feature", "geometry": {"type": "Point", "coordinates": [121.3933593836935, 31.262019228854502]}, "properties": {"name": "\u6b27\u901a\u7535\u52a8\u8f66\u4e13\u5356(\u6843\u6d66\u8def)", "biz": "061208 \u8d2d\u7269\u670d\u52a1;\u4e13\u5356\u5e97;\u81ea\u884c\u8f66\u4e13\u5356\u5e97", "pty": "0612"}}, {"type": "Feature", "geometry": {"type": "Point", "coordinates": [121.39105248923117, 31.233491554472565]}, "properties": {"name": "\u4e1c\u65fa\u8f66\u884c", "biz": "061208 \u8d2d\u7269\u670d\u52a1;\u4e13\u5356\u5e97;\u81ea\u884c\u8f66\u4e13\u5356\u5e97", "pty": "0612"}}, {"type": "Feature", "geometry": {"type": "Point", "coordinates": [121.38866229026223, 31.269214493785498]}, "properties": {"name": "\u5c0f\u5434\u8f66\u884c(\u771f\u5317\u8def)", "biz": "061208 \u8d2d\u7269\u670d\u52a1;\u4e13\u5356\u5e97;\u81ea\u884c\u8f66\u4e13\u5356\u5e97", "pty": "0612"}}, {"type": "Feature", "geometry": {"type": "Point", "coordinates": [121.43914932227696, 31.266945698459597]}, "properties": {"name": "\u5c0f\u80e1\u8f66\u884c(\u5ef6\u957f\u897f\u8def)", "biz": "061208|071200 \u8d2d\u7269\u670d\u52a1;\u4e13\u5356\u5e97;\u81ea\u884c\u8f66\u4e13\u5356\u5e97|\u751f\u6d3b\u670d\u52a1;\u7ef4\u4fee\u7ad9\u70b9;\u7ef4\u4fee\u7ad9\u70b9", "pty": "0612"}}, {"type": "Feature", "geometry": {"type": "Point", "coordinates": [121.40680326150606, 31.227914997515157]}, "properties": {"name": "\u96c5\u8fea\u7535\u52a8\u8f66", "biz": "061208 \u8d2d\u7269\u670d\u52a1;\u4e13\u5356\u5e97;\u81ea\u884c\u8f66\u4e13\u5356\u5e97", "pty": "0612"}}, {"type": "Feature", "geometry": {"type": "Point", "coordinates": [121.3765957112947, 31.28545831636424]}, "properties": {"name": "\u65b0\u65e5\u7535\u52a8\u8f66", "biz": "061208 \u8d2d\u7269\u670d\u52a1;\u4e13\u5356\u5e97;\u81ea\u884c\u8f66\u4e13\u5356\u5e97", "pty": "0612"}}, {"type": "Feature", "geometry": {"type": "Point", "coordinates": [121.36307702426173, 31.286624691543516]}, "properties": {"name": "\u7eff\u6e90\u7535\u52a8\u8f66\u7279\u7ea6\u7ecf\u9500\u5e97", "biz": "061208 \u8d2d\u7269\u670d\u52a1;\u4e13\u5356\u5e97;\u81ea\u884c\u8f66\u4e13\u5356\u5e97", "pty": "0612"}}, {"type": "Feature", "geometry": {"type": "Point", "coordinates": [121.404821502807, 31.238005626961133]}, "properties": {"name": "\u6770\u5b9d\u5927\u738b\u7535\u52a8\u8f66(\u674e\u6751\u8def\u5e97)", "biz": "061208 \u8d2d\u7269\u670d\u52a1;\u4e13\u5356\u5e97;\u81ea\u884c\u8f66\u4e13\u5356\u5e97", "pty": "0612"}}, {"type": "Feature", "geometry": {"type": "Point", "coordinates": [121.40226509599275, 31.244666944026413]}, "properties": {"name": "\u963f\u5f6d\u8f66\u884c(\u6885\u5cad\u5317\u8def)", "biz": "061208 \u8d2d\u7269\u670d\u52a1;\u4e13\u5356\u5e97;\u81ea\u884c\u8f66\u4e13\u5356\u5e97", "pty": "0612"}}, {"type": "Feature", "geometry": {"type": "Point", "coordinates": [121.39453868275916, 31.233274907721892]}, "properties": {"name": "\u987a\u98ce\u8f66\u884c(\u6012\u6c5f\u8def)", "biz": "061208|071200 \u8d2d\u7269\u670d\u52a1;\u4e13\u5356\u5e97;\u81ea\u884c\u8f66\u4e13\u5356\u5e97|\u751f\u6d3b\u670d\u52a1;\u7ef4\u4fee\u7ad9\u70b9;\u7ef4\u4fee\u7ad9\u70b9", "pty": "0612"}}, {"type": "Feature", "geometry": {"type": "Point", "coordinates": [121.38715312772517, 31.233578958928263]}, "properties": {"name": "\u8bda\u4fe1\u8f66\u884c(\u91d1\u6c99\u6c5f\u8def)", "biz": "061208 \u8d2d\u7269\u670d\u52a1;\u4e13\u5356\u5e97;\u81ea\u884c\u8f66\u4e13\u5356\u5e97", "pty": "0612"}}, {"type": "Feature", "geometry": {"type": "Point", "coordinates": [121.38121813242735, 31.255561441908732]}, "properties": {"name": "\u5c0f\u5434\u8f66\u884c(\u771f\u5149\u8def)", "biz": "061208 \u8d2d\u7269\u670d\u52a1;\u4e13\u5356\u5e97;\u81ea\u884c\u8f66\u4e13\u5356\u5e97", "pty": "0612"}}, {"type": "Feature", "geometry": {"type": "Point", "coordinates": [121.34076748235908, 31.290819421476158]}, "properties": {"name": "\u65b0\u5927\u6d32\u7535\u52a8\u8f66(\u767d\u4e3d\u8def\u5e97)", "biz": "061208 \u8d2d\u7269\u670d\u52a1;\u4e13\u5356\u5e97;\u81ea\u884c\u8f66\u4e13\u5356\u5e97", "pty": "0612"}}, {"type": "Feature", "geometry": {"type": "Point", "coordinates": [121.34598837964752, 31.28176492470278]}, "properties": {"name": "\u5c0f\u56db\u5ddd\u8f66\u884c(\u7ea2\u68c9\u8def\u5e97)", "biz": "061208|070000 \u8d2d\u7269\u670d\u52a1;\u4e13\u5356\u5e97;\u81ea\u884c\u8f66\u4e13\u5356\u5e97|\u751f\u6d3b\u670d\u52a1;\u751f\u6d3b\u670d\u52a1\u573a\u6240;\u751f\u6d3b\u670d\u52a1\u573a\u6240", "pty": "0612"}}, {"type": "Feature", "geometry": {"type": "Point", "coordinates": [121.42664649732993, 31.263143995134794]}, "properties": {"name": "\u4e0a\u6d77\u4f9d\u83b1\u8fbe\u7535\u52a8\u8f66(\u5fd7\u4e39\u8def)", "biz": "061208 \u8d2d\u7269\u670d\u52a1;\u4e13\u5356\u5e97;\u81ea\u884c\u8f66\u4e13\u5356\u5e97", "pty": "0612"}}, {"type": "Feature", "geometry": {"type": "Point", "coordinates": [121.3400318349844, 31.2933697217652]}, "properties": {"name": "\u8363\u987a\u8f66\u884c", "biz": "061208 \u8d2d\u7269\u670d\u52a1;\u4e13\u5356\u5e97;\u81ea\u884c\u8f66\u4e13\u5356\u5e97", "pty": "0612"}}, {"type": "Feature", "geometry": {"type": "Point", "coordinates": [121.40032940976637, 31.259457076567735]}, "properties": {"name": "\u4e0a\u6d77\u5c1a\u54c1\u7535\u52a8\u8f66(\u66f9\u6768\u8def\u76f4\u8425\u5e97)", "biz": "061208 \u8d2d\u7269\u670d\u52a1;\u4e13\u5356\u5e97;\u81ea\u884c\u8f66\u4e13\u5356\u5e97", "pty": "0612"}}, {"type": "Feature", "geometry": {"type": "Point", "coordinates": [121.38565522051492, 31.253497682167247]}, "properties": {"name": "\u9526\u6866\u8f66\u884c\u4e13\u5356\u5e97", "biz": "061208 \u8d2d\u7269\u670d\u52a1;\u4e13\u5356\u5e97;\u81ea\u884c\u8f66\u4e13\u5356\u5e97", "pty": "0612"}}, {"type": "Feature", "geometry": {"type": "Point", "coordinates": [121.40788956622572, 31.23096504568754]}, "properties": {"name": "DAHON", "biz": "061208 \u8d2d\u7269\u670d\u52a1;\u4e13\u5356\u5e97;\u81ea\u884c\u8f66\u4e13\u5356\u5e97", "pty": "0612"}}, {"type": "Feature", "geometry": {"type": "Point", "coordinates": [121.43393053577834, 31.26921687559993]}, "properties": {"name": "\u5c0f\u5f20\u8bda\u4fe1\u8f66\u884c", "biz": "061208 \u8d2d\u7269\u670d\u52a1;\u4e13\u5356\u5e97;\u81ea\u884c\u8f66\u4e13\u5356\u5e97", "pty": "0612"}}, {"type": "Feature", "geometry": {"type": "Point", "coordinates": [121.3652766209757, 31.264686093367697]}, "properties": {"name": "\u6770\u5b9d\u5927\u738b(\u6843\u6d66\u8def)", "biz": "061208 \u8d2d\u7269\u670d\u52a1;\u4e13\u5356\u5e97;\u81ea\u884c\u8f66\u4e13\u5356\u5e97", "pty": "0612"}}, {"type": "Feature", "geometry": {"type": "Point", "coordinates": [121.38619218853755, 31.261760790582166]}, "properties": {"name": "\u5efa\u4e1a\u5e73\u4ef7\u8f66\u884c", "biz": "061208 \u8d2d\u7269\u670d\u52a1;\u4e13\u5356\u5e97;\u81ea\u884c\u8f66\u4e13\u5356\u5e97", "pty": "0612"}}, {"type": "Feature", "geometry": {"type": "Point", "coordinates": [121.42790978387447, 31.259723140756176]}, "properties": {"name": "\u5c0f\u7075\u7ae5\u7535\u52a8\u8f66(\u4ea4\u901a\u7ecf\u9500\u90e8)", "biz": "061208 \u8d2d\u7269\u670d\u52a1;\u4e13\u5356\u5e97;\u81ea\u884c\u8f66\u4e13\u5356\u5e97", "pty": "0612"}}, {"type": "Feature", "geometry": {"type": "Point", "coordinates": [121.41738610670663, 31.25539533575088]}, "properties": {"name": "\u5982\u610f\u8f66\u884c(\u5c9a\u768b\u8def)", "biz": "061208|071200 \u8d2d\u7269\u670d\u52a1;\u4e13\u5356\u5e97;\u81ea\u884c\u8f66\u4e13\u5356\u5e97|\u751f\u6d3b\u670d\u52a1;\u7ef4\u4fee\u7ad9\u70b9;\u7ef4\u4fee\u7ad9\u70b9", "pty": "0612"}}, {"type": "Feature", "geometry": {"type": "Point", "coordinates": [121.34829832594967, 31.286533034985315]}, "properties": {"name": "\u4e0a\u6d77\u65af\u7c73\u7279\u7535\u52a8\u8f66(\u7eff\u6768\u8def)", "biz": "061208 \u8d2d\u7269\u670d\u52a1;\u4e13\u5356\u5e97;\u81ea\u884c\u8f66\u4e13\u5356\u5e97", "pty": "0612"}}, {"type": "Feature", "geometry": {"type": "Point", "coordinates": [121.3932022566409, 31.28674483472579]}, "properties": {"name": "\u5c0f\u7075\u7ae5\u7535\u52a8\u8f66(\u828a\u7fbd\u4e13\u5356\u5e97)", "biz": "061208 \u8d2d\u7269\u670d\u52a1;\u4e13\u5356\u5e97;\u81ea\u884c\u8f66\u4e13\u5356\u5e97", "pty": "0612"}}, {"type": "Feature", "geometry": {"type": "Point", "coordinates": [121.3608172685449, 31.2446058233988]}, "properties": {"name": "\u6770\u5b9d\u5927\u738b\u7535\u52a8\u8f66(\u6e05\u5cea\u8def\u4e13\u5356\u5e97)", "biz": "061208 \u8d2d\u7269\u670d\u52a1;\u4e13\u5356\u5e97;\u81ea\u884c\u8f66\u4e13\u5356\u5e97", "pty": "0612"}}, {"type": "Feature", "geometry": {"type": "Point", "coordinates": [121.34867521047427, 31.29078867144615]}, "properties": {"name": "\u5148\u798f\u8f66\u884c(\u6843\u6d66\u4e03\u6751\u4e1c\u5317)", "biz": "061208 \u8d2d\u7269\u670d\u52a1;\u4e13\u5356\u5e97;\u81ea\u884c\u8f66\u4e13\u5356\u5e97", "pty": "0612"}}, {"type": "Feature", "geometry": {"type": "Point", "coordinates": [121.43654198830552, 31.265593722158386]}, "properties": {"name": "\u8c6a\u7235", "biz": "061208 \u8d2d\u7269\u670d\u52a1;\u4e13\u5356\u5e97;\u81ea\u884c\u8f66\u4e13\u5356\u5e97", "pty": "0612"}}, {"type": "Feature", "geometry": {"type": "Point", "coordinates": [121.39623791256342, 31.240073618656382]}, "properties": {"name": "\u65b0\u65e5", "biz": "061208 \u8d2d\u7269\u670d\u52a1;\u4e13\u5356\u5e97;\u81ea\u884c\u8f66\u4e13\u5356\u5e97", "pty": "0612"}}, {"type": "Feature", "geometry": {"type": "Point", "coordinates": [121.42151523439568, 31.26343184030375]}, "properties": {"name": "\u65b0\u65e5", "biz": "061208 \u8d2d\u7269\u670d\u52a1;\u4e13\u5356\u5e97;\u81ea\u884c\u8f66\u4e13\u5356\u5e97", "pty": "0612"}}, {"type": "Feature", "geometry": {"type": "Point", "coordinates": [121.38570319997406, 31.25340869697339]}, "properties": {"name": "\u4e0a\u6d77\u4f9d\u83b1\u8fbe\u7535\u52a8\u8f66(\u9526\u6866\u8f66\u884c\u4e13\u5356\u5e97)", "biz": "061208 \u8d2d\u7269\u670d\u52a1;\u4e13\u5356\u5e97;\u81ea\u884c\u8f66\u4e13\u5356\u5e97", "pty": "0612"}}, {"type": "Feature", "geometry": {"type": "Point", "coordinates": [121.34610791062785, 31.28436664483514]}, "properties": {"name": "\u4e0a\u6d77\u4f9d\u83b1\u8fbe\u7535\u52a8\u8f66(\u7ea2\u68c9\u8def)", "biz": "061208 \u8d2d\u7269\u670d\u52a1;\u4e13\u5356\u5e97;\u81ea\u884c\u8f66\u4e13\u5356\u5e97", "pty": "0612"}}, {"type": "Feature", "geometry": {"type": "Point", "coordinates": [121.494493717571, 31.269793020816227]}, "properties": {"name": "\u96ea\u6885\u8f66\u884c", "biz": "061208 \u8d2d\u7269\u670d\u52a1;\u4e13\u5356\u5e97;\u81ea\u884c\u8f66\u4e13\u5356\u5e97", "pty": "0612"}}, {"type": "Feature", "geometry": {"type": "Point", "coordinates": [121.48076516991136, 31.277944866059872]}, "properties": {"name": "\u5b9d\u7ea2\u8f66\u884c(\u5927\u8fde\u897f\u8def)", "biz": "061208 \u8d2d\u7269\u670d\u52a1;\u4e13\u5356\u5e97;\u81ea\u884c\u8f66\u4e13\u5356\u5e97", "pty": "0612"}}, {"type": "Feature", "geometry": {"type": "Point", "coordinates": [121.49796284663374, 31.262401597221245]}, "properties": {"name": "\u4e07\u91cc\u8f66\u884c(\u5929\u8679\u8def)", "biz": "061208 \u8d2d\u7269\u670d\u52a1;\u4e13\u5356\u5e97;\u81ea\u884c\u8f66\u4e13\u5356\u5e97", "pty": "0612"}}, {"type": "Feature", "geometry": {"type": "Point", "coordinates": [121.49245667653996, 31.26635938767417]}, "properties": {"name": "trek(\u661f\u661f\u5802\u5e97)", "biz": "061208 \u8d2d\u7269\u670d\u52a1;\u4e13\u5356\u5e97;\u81ea\u884c\u8f66\u4e13\u5356\u5e97", "pty": "0612"}}, {"type": "Feature", "geometry": {"type": "Point", "coordinates": [121.4696030882241, 31.270130632710863]}, "properties": {"name": "\u5927\u674e\u8f66\u884c(\u4e2d\u5c71\u5317\u4e00\u8def)", "biz": "061208 \u8d2d\u7269\u670d\u52a1;\u4e13\u5356\u5e97;\u81ea\u884c\u8f66\u4e13\u5356\u5e97", "pty": "0612"}}, {"type": "Feature", "geometry": {"type": "Point", "coordinates": [121.46113921864317, 31.307884031720143]}, "properties": {"name": "\u8d5b\u5cf0\u7535\u52a8\u8f66\u4e13\u5356\u5e97(\u573a\u4e2d\u8def\u5e97)", "biz": "061208 \u8d2d\u7269\u670d\u52a1;\u4e13\u5356\u5e97;\u81ea\u884c\u8f66\u4e13\u5356\u5e97", "pty": "0612"}}, {"type": "Feature", "geometry": {"type": "Point", "coordinates": [121.48622405085895, 31.29368944561717]}, "properties": {"name": "\u96c5\u8fea\u7535\u52a8\u8f66(\u66f2\u9633\u8def\u5e97)", "biz": "061208 \u8d2d\u7269\u670d\u52a1;\u4e13\u5356\u5e97;\u81ea\u884c\u8f66\u4e13\u5356\u5e97", "pty": "0612"}}, {"type": "Feature", "geometry": {"type": "Point", "coordinates": [121.46428513405975, 31.281631617004155]}, "properties": {"name": "\u65b0\u65fa\u8f66\u884c(\u5e7f\u4e2d\u8def)", "biz": "061208 \u8d2d\u7269\u670d\u52a1;\u4e13\u5356\u5e97;\u81ea\u884c\u8f66\u4e13\u5356\u5e97", "pty": "0612"}}, {"type": "Feature", "geometry": {"type": "Point", "coordinates": [121.47737060123706, 31.299351358027728]}, "properties": {"name": "\u96c5\u8fea\u7535\u52a8\u8f66(\u8679\u53e3\u5e97)", "biz": "061208 \u8d2d\u7269\u670d\u52a1;\u4e13\u5356\u5e97;\u81ea\u884c\u8f66\u4e13\u5356\u5e97", "pty": "0612"}}, {"type": "Feature", "geometry": {"type": "Point", "coordinates": [121.46719206475788, 31.307801811246723]}, "properties": {"name": "\u5c0f\u7533\u8f66\u884c", "biz": "061208 \u8d2d\u7269\u670d\u52a1;\u4e13\u5356\u5e97;\u81ea\u884c\u8f66\u4e13\u5356\u5e97", "pty": "0612"}}, {"type": "Feature", "geometry": {"type": "Point", "coordinates": [121.46709061457734, 31.274353062648665]}, "properties": {"name": "\u51e4\u51f0\u7535\u52a8\u8f66(\u6c34\u7535\u8def)", "biz": "061208 \u8d2d\u7269\u670d\u52a1;\u4e13\u5356\u5e97;\u81ea\u884c\u8f66\u4e13\u5356\u5e97", "pty": "0612"}}, {"type": "Feature", "geometry": {"type": "Point", "coordinates": [121.49572004608252, 31.25906732688201]}, "properties": {"name": "\u96c5\u8fea\u7535\u52a8\u8f66(\u5468\u5bb6\u5634\u8def)", "biz": "061208 \u8d2d\u7269\u670d\u52a1;\u4e13\u5356\u5e97;\u81ea\u884c\u8f66\u4e13\u5356\u5e97", "pty": "0612"}}, {"type": "Feature", "geometry": {"type": "Point", "coordinates": [121.46690603189528, 31.274275602595683]}, "properties": {"name": "\u6770\u5b9d\u5927\u738b\u7535\u52a8\u8f66(\u6c34\u7535\u8def)", "biz": "061208 \u8d2d\u7269\u670d\u52a1;\u4e13\u5356\u5e97;\u81ea\u884c\u8f66\u4e13\u5356\u5e97", "pty": "0612"}}, {"type": "Feature", "geometry": {"type": "Point", "coordinates": [121.46427547385622, 31.288957585260707]}, "properties": {"name": "\u7eff\u4eae\u7535\u52a8\u8f66(\u5e7f\u7075\u56db\u8def)", "biz": "061208 \u8d2d\u7269\u670d\u52a1;\u4e13\u5356\u5e97;\u81ea\u884c\u8f66\u4e13\u5356\u5e97", "pty": "0612"}}, {"type": "Feature", "geometry": {"type": "Point", "coordinates": [121.46827395176312, 31.30302857403207]}, "properties": {"name": "\u95ef\u8fdb\u8f66\u884c", "biz": "061208 \u8d2d\u7269\u670d\u52a1;\u4e13\u5356\u5e97;\u81ea\u884c\u8f66\u4e13\u5356\u5e97", "pty": "0612"}}, {"type": "Feature", "geometry": {"type": "Point", "coordinates": [121.46150156529912, 31.281761406961724]}, "properties": {"name": "\u7231\u739b\u7535\u52a8\u8f66", "biz": "061208 \u8d2d\u7269\u670d\u52a1;\u4e13\u5356\u5e97;\u81ea\u884c\u8f66\u4e13\u5356\u5e97", "pty": "0612"}}, {"type": "Feature", "geometry": {"type": "Point", "coordinates": [121.46681875805525, 31.27422339191765]}, "properties": {"name": "\u73d1\u73a5\u9502\u7535\u8f66(\u6c34\u7535\u8def)", "biz": "061208 \u8d2d\u7269\u670d\u52a1;\u4e13\u5356\u5e97;\u81ea\u884c\u8f66\u4e13\u5356\u5e97", "pty": "0612"}}, {"type": "Feature", "geometry": {"type": "Point", "coordinates": [121.45944080063693, 31.27695624073762]}, "properties": {"name": "\u65b0\u5927\u6d32\u7535\u52a8\u8f66(\u5e7f\u4e2d\u8def\u5e97)", "biz": "061208 \u8d2d\u7269\u670d\u52a1;\u4e13\u5356\u5e97;\u81ea\u884c\u8f66\u4e13\u5356\u5e97", "pty": "0612"}}, {"type": "Feature", "geometry": {"type": "Point", "coordinates": [121.4748295937377, 31.291815145178298]}, "properties": {"name": "\u5409\u7965\u8f66\u884c(\u6c76\u6c34\u4e1c\u8def)", "biz": "061208 \u8d2d\u7269\u670d\u52a1;\u4e13\u5356\u5e97;\u81ea\u884c\u8f66\u4e13\u5356\u5e97", "pty": "0612"}}, {"type": "Feature", "geometry": {"type": "Point", "coordinates": [121.47737324359053, 31.30363568034256]}, "properties": {"name": "\u6770\u5b9d\u5927\u738b(\u4e07\u5b89\u5e97)", "biz": "061208 \u8d2d\u7269\u670d\u52a1;\u4e13\u5356\u5e97;\u81ea\u884c\u8f66\u4e13\u5356\u5e97", "pty": "0612"}}, {"type": "Feature", "geometry": {"type": "Point", "coordinates": [121.47446193051981, 31.261704728343453]}, "properties": {"name": "\u7231\u739b\u7535\u52a8\u8f66(\u4e1c\u5b9d\u5174\u8def\u5e97)", "biz": "061208|070000 \u8d2d\u7269\u670d\u52a1;\u4e13\u5356\u5e97;\u81ea\u884c\u8f66\u4e13\u5356\u5e97|\u751f\u6d3b\u670d\u52a1;\u751f\u6d3b\u670d\u52a1\u573a\u6240;\u751f\u6d3b\u670d\u52a1\u573a\u6240", "pty": "0612"}}, {"type": "Feature", "geometry": {"type": "Point", "coordinates": [121.4892668373107, 31.25922894433822]}, "properties": {"name": "\u4e0a\u6d77\u4f9d\u83b1\u8fbe\u7535\u52a8\u8f66(\u6d77\u4f26\u8def)", "biz": "061208 \u8d2d\u7269\u670d\u52a1;\u4e13\u5356\u5e97;\u81ea\u884c\u8f66\u4e13\u5356\u5e97", "pty": "0612"}}, {"type": "Feature", "geometry": {"type": "Point", "coordinates": [121.4868201635983, 31.25855096313519]}, "properties": {"name": "\u65b0\u5927\u6d32\u4e13\u5356\u5e97(\u5609\u5174\u8def)", "biz": "061208 \u8d2d\u7269\u670d\u52a1;\u4e13\u5356\u5e97;\u81ea\u884c\u8f66\u4e13\u5356\u5e97", "pty": "0612"}}, {"type": "Feature", "geometry": {"type": "Point", "coordinates": [121.46065175359224, 31.307841820066574]}, "properties": {"name": "\u624d\u6797\u8f66\u884c", "biz": "061208 \u8d2d\u7269\u670d\u52a1;\u4e13\u5356\u5e97;\u81ea\u884c\u8f66\u4e13\u5356\u5e97", "pty": "0612"}}, {"type": "Feature", "geometry": {"type": "Point", "coordinates": [121.49861675093662, 31.255926384338373]}, "properties": {"name": "\u65b0\u5927\u6d32\u7535\u52a8\u8f66(\u5510\u5c71\u8def\u5e97)", "biz": "061208 \u8d2d\u7269\u670d\u52a1;\u4e13\u5356\u5e97;\u81ea\u884c\u8f66\u4e13\u5356\u5e97", "pty": "0612"}}, {"type": "Feature", "geometry": {"type": "Point", "coordinates": [121.50180904566179, 31.258168940730766]}, "properties": {"name": "\u5510\u5c71\u8f66\u884c", "biz": "061208 \u8d2d\u7269\u670d\u52a1;\u4e13\u5356\u5e97;\u81ea\u884c\u8f66\u4e13\u5356\u5e97", "pty": "0612"}}, {"type": "Feature", "geometry": {"type": "Point", "coordinates": [121.48857634687475, 31.259480776884782]}, "properties": {"name": "\u5927\u8fd0\u7535\u52a8\u8f66", "biz": "061208 \u8d2d\u7269\u670d\u52a1;\u4e13\u5356\u5e97;\u81ea\u884c\u8f66\u4e13\u5356\u5e97", "pty": "0612"}}, {"type": "Feature", "geometry": {"type": "Point", "coordinates": [121.48446351717394, 31.25020667744826]}, "properties": {"name": "\u7231\u739b\u7535\u52a8\u8f66(\u5858\u6cbd\u8def)", "biz": "061208 \u8d2d\u7269\u670d\u52a1;\u4e13\u5356\u5e97;\u81ea\u884c\u8f66\u4e13\u5356\u5e97", "pty": "0612"}}, {"type": "Feature", "geometry": {"type": "Point", "coordinates": [121.50258049936028, 31.261898613250054]}, "properties": {"name": "\u6b27\u901a\u96c6\u56e2(\u7535\u52a8\u8f66\u4e13\u5356\u5e97)", "biz": "061208 \u8d2d\u7269\u670d\u52a1;\u4e13\u5356\u5e97;\u81ea\u884c\u8f66\u4e13\u5356\u5e97", "pty": "0612"}}, {"type": "Feature", "geometry": {"type": "Point", "coordinates": [121.4672009583713, 31.274457313609695]}, "properties": {"name": "\u65b0\u65fa\u8f66\u884c(\u6c34\u7535\u8def\u5e97)", "biz": "061208 \u8d2d\u7269\u670d\u52a1;\u4e13\u5356\u5e97;\u81ea\u884c\u8f66\u4e13\u5356\u5e97", "pty": "0612"}}, {"type": "Feature", "geometry": {"type": "Point", "coordinates": [121.48370057021577, 31.264929977593543]}, "properties": {"name": "\u6c38\u91d1\u8f66\u884c", "biz": "061208 \u8d2d\u7269\u670d\u52a1;\u4e13\u5356\u5e97;\u81ea\u884c\u8f66\u4e13\u5356\u5e97", "pty": "0612"}}, {"type": "Feature", "geometry": {"type": "Point", "coordinates": [121.4828357429678, 31.26239453484359]}, "properties": {"name": "\u4e3a\u6c11\u8f66\u884c(\u90a2\u5bb6\u6865\u5317\u8def)", "biz": "061208 \u8d2d\u7269\u670d\u52a1;\u4e13\u5356\u5e97;\u81ea\u884c\u8f66\u4e13\u5356\u5e97", "pty": "0612"}}, {"type": "Feature", "geometry": {"type": "Point", "coordinates": [121.4886832995581, 31.252772045779217]}, "properties": {"name": "\u8d5b\u5cf0\u7535\u52a8\u8f66\u4e13\u5356(\u4e1c\u6c49\u9633\u8def\u5e97)", "biz": "061208 \u8d2d\u7269\u670d\u52a1;\u4e13\u5356\u5e97;\u81ea\u884c\u8f66\u4e13\u5356\u5e97", "pty": "0612"}}, {"type": "Feature", "geometry": {"type": "Point", "coordinates": [121.47483483079164, 31.277576012716413]}, "properties": {"name": "\u767e\u59d3\u8f66\u884c(\u5e7f\u4e2d\u8def)", "biz": "061208 \u8d2d\u7269\u670d\u52a1;\u4e13\u5356\u5e97;\u81ea\u884c\u8f66\u4e13\u5356\u5e97", "pty": "0612"}}, {"type": "Feature", "geometry": {"type": "Point", "coordinates": [121.46121544924883, 31.30788122540791]}, "properties": {"name": "\u6377\u5b89\u7279(\u573a\u4e2d\u8def\u5e97)", "biz": "061208 \u8d2d\u7269\u670d\u52a1;\u4e13\u5356\u5e97;\u81ea\u884c\u8f66\u4e13\u5356\u5e97", "pty": "0612"}}, {"type": "Feature", "geometry": {"type": "Point", "coordinates": [121.47256004522353, 31.30267746126065]}, "properties": {"name": "\u963f\u8f89\u8f66\u884c(\u4e07\u5b89\u8def)", "biz": "061208 \u8d2d\u7269\u670d\u52a1;\u4e13\u5356\u5e97;\u81ea\u884c\u8f66\u4e13\u5356\u5e97", "pty": "0612"}}, {"type": "Feature", "geometry": {"type": "Point", "coordinates": [121.5016401538796, 31.26154096614992]}, "properties": {"name": "\u5f00\u987a\u7535\u52a8\u8f66\u4e13\u5356(\u5b89\u56fd\u8def\u5e97)", "biz": "061208 \u8d2d\u7269\u670d\u52a1;\u4e13\u5356\u5e97;\u81ea\u884c\u8f66\u4e13\u5356\u5e97", "pty": "0612"}}, {"type": "Feature", "geometry": {"type": "Point", "coordinates": [121.48960390351643, 31.26087923017135]}, "properties": {"name": "\u4e0a\u6d77\u8f6e\u6905\u8f66\u5382", "biz": "061208 \u8d2d\u7269\u670d\u52a1;\u4e13\u5356\u5e97;\u81ea\u884c\u8f66\u4e13\u5356\u5e97", "pty": "0612"}}, {"type": "Feature", "geometry": {"type": "Point", "coordinates": [121.47072780835076, 31.269695896201938]}, "properties": {"name": "\u5c0f\u6768\u8f66\u884c(\u540c\u5fc3\u8def)", "biz": "061208 \u8d2d\u7269\u670d\u52a1;\u4e13\u5356\u5e97;\u81ea\u884c\u8f66\u4e13\u5356\u5e97", "pty": "0612"}}, {"type": "Feature", "geometry": {"type": "Point", "coordinates": [121.46676258151591, 31.274194254515386]}, "properties": {"name": "\u5218\u8bb0\u8f66\u884c(\u63ac\u6c34\u516c\u5bd3\u5317)", "biz": "061208 \u8d2d\u7269\u670d\u52a1;\u4e13\u5356\u5e97;\u81ea\u884c\u8f66\u4e13\u5356\u5e97", "pty": "0612"}}, {"type": "Feature", "geometry": {"type": "Point", "coordinates": [121.46794941167488, 31.308775466622823]}, "properties": {"name": "\u5c0f\u5218\u8f66\u884c(\u573a\u4e2d\u8def)", "biz": "061208 \u8d2d\u7269\u670d\u52a1;\u4e13\u5356\u5e97;\u81ea\u884c\u8f66\u4e13\u5356\u5e97", "pty": "0612"}}, {"type": "Feature", "geometry": {"type": "Point", "coordinates": [121.46431860717004, 31.288970692337667]}, "properties": {"name": "\u90fd\u5e02\u98ce\u4e13\u5356", "biz": "061208 \u8d2d\u7269\u670d\u52a1;\u4e13\u5356\u5e97;\u81ea\u884c\u8f66\u4e13\u5356\u5e97", "pty": "0612"}}, {"type": "Feature", "geometry": {"type": "Point", "coordinates": [121.47165989780271, 31.304512246105578]}, "properties": {"name": "\u7389\u7965\u8f66\u884c", "biz": "061208 \u8d2d\u7269\u670d\u52a1;\u4e13\u5356\u5e97;\u81ea\u884c\u8f66\u4e13\u5356\u5e97", "pty": "0612"}}, {"type": "Feature", "geometry": {"type": "Point", "coordinates": [121.48673475698779, 31.25975818245558]}, "properties": {"name": "\u5c1a\u54c1\u7535\u52a8\u8f66(\u6d77\u4f26\u8def)", "biz": "061208 \u8d2d\u7269\u670d\u52a1;\u4e13\u5356\u5e97;\u81ea\u884c\u8f66\u4e13\u5356\u5e97", "pty": "0612"}}, {"type": "Feature", "geometry": {"type": "Point", "coordinates": [121.48053640328835, 31.312696306220417]}, "properties": {"name": "\u9526\u5347\u8f66\u884c", "biz": "061208 \u8d2d\u7269\u670d\u52a1;\u4e13\u5356\u5e97;\u81ea\u884c\u8f66\u4e13\u5356\u5e97", "pty": "0612"}}, {"type": "Feature", "geometry": {"type": "Point", "coordinates": [121.46244769876118, 31.30207262278224]}, "properties": {"name": "\u5c0f\u5468\u8f66\u884c(\u594e\u7167\u8def)", "biz": "061208 \u8d2d\u7269\u670d\u52a1;\u4e13\u5356\u5e97;\u81ea\u884c\u8f66\u4e13\u5356\u5e97", "pty": "0612"}}, {"type": "Feature", "geometry": {"type": "Point", "coordinates": [121.50316875996454, 31.260108142868006]}, "properties": {"name": "\u6770\u5b9d\u5927\u738b", "biz": "061208 \u8d2d\u7269\u670d\u52a1;\u4e13\u5356\u5e97;\u81ea\u884c\u8f66\u4e13\u5356\u5e97", "pty": "0612"}}, {"type": "Feature", "geometry": {"type": "Point", "coordinates": [121.49794980174707, 31.262376568999446]}, "properties": {"name": "\u5c0f\u5200\u7535\u52a8\u8f66", "biz": "061208 \u8d2d\u7269\u670d\u52a1;\u4e13\u5356\u5e97;\u81ea\u884c\u8f66\u4e13\u5356\u5e97", "pty": "0612"}}, {"type": "Feature", "geometry": {"type": "Point", "coordinates": [121.46714479028755, 31.274323219990805]}, "properties": {"name": "\u4f18\u72d0\u7535\u52a8\u8f66", "biz": "061208 \u8d2d\u7269\u670d\u52a1;\u4e13\u5356\u5e97;\u81ea\u884c\u8f66\u4e13\u5356\u5e97", "pty": "0612"}}, {"type": "Feature", "geometry": {"type": "Point", "coordinates": [121.46727820041221, 31.274516495268138]}, "properties": {"name": "\u7231\u739b\u7535\u52a8\u8f66", "biz": "061208 \u8d2d\u7269\u670d\u52a1;\u4e13\u5356\u5e97;\u81ea\u884c\u8f66\u4e13\u5356\u5e97", "pty": "0612"}}, {"type": "Feature", "geometry": {"type": "Point", "coordinates": [121.47096896348064, 31.288802599297235]}, "properties": {"name": "\u59da\u571f\u5efa\u8f66\u884c", "biz": "061208 \u8d2d\u7269\u670d\u52a1;\u4e13\u5356\u5e97;\u81ea\u884c\u8f66\u4e13\u5356\u5e97", "pty": "0612"}}, {"type": "Feature", "geometry": {"type": "Point", "coordinates": [121.49808930005966, 31.262427964565283]}, "properties": {"name": "\u79d1\u8fc5\u9502\u7535\u8f66", "biz": "061208 \u8d2d\u7269\u670d\u52a1;\u4e13\u5356\u5e97;\u81ea\u884c\u8f66\u4e13\u5356\u5e97", "pty": "0612"}}, {"type": "Feature", "geometry": {"type": "Point", "coordinates": [121.46733311270592, 31.289226553289286]}, "properties": {"name": "\u7231\u739b\u7535\u52a8\u8f66", "biz": "061208 \u8d2d\u7269\u670d\u52a1;\u4e13\u5356\u5e97;\u81ea\u884c\u8f66\u4e13\u5356\u5e97", "pty": "0612"}}, {"type": "Feature", "geometry": {"type": "Point", "coordinates": [121.4610870633052, 31.307858909742023]}, "properties": {"name": "\u7eff\u6e90\u7535\u52a8\u8f66", "biz": "061208 \u8d2d\u7269\u670d\u52a1;\u4e13\u5356\u5e97;\u81ea\u884c\u8f66\u4e13\u5356\u5e97", "pty": "0612"}}, {"type": "Feature", "geometry": {"type": "Point", "coordinates": [121.46687493967639, 31.27419455385758]}, "properties": {"name": "\u96c5\u8fea\u7535\u52a8\u8f66", "biz": "061208 \u8d2d\u7269\u670d\u52a1;\u4e13\u5356\u5e97;\u81ea\u884c\u8f66\u4e13\u5356\u5e97", "pty": "0612"}}, {"type": "Feature", "geometry": {"type": "Point", "coordinates": [121.48063285386881, 31.31135609841988]}, "properties": {"name": "\u65b0\u5927\u6d32\u672c\u7530", "biz": "061208 \u8d2d\u7269\u670d\u52a1;\u4e13\u5356\u5e97;\u81ea\u884c\u8f66\u4e13\u5356\u5e97", "pty": "0612"}}, {"type": "Feature", "geometry": {"type": "Point", "coordinates": [121.47033016862959, 31.308551018312635]}, "properties": {"name": "\u5c0f\u5200\u7535\u52a8\u8f66", "biz": "061208 \u8d2d\u7269\u670d\u52a1;\u4e13\u5356\u5e97;\u81ea\u884c\u8f66\u4e13\u5356\u5e97", "pty": "0612"}}, {"type": "Feature", "geometry": {"type": "Point", "coordinates": [121.4767399521748, 31.293392931883037]}, "properties": {"name": "\u65b0\u5927\u6d32\u7535\u52a8\u8f66", "biz": "061208 \u8d2d\u7269\u670d\u52a1;\u4e13\u5356\u5e97;\u81ea\u884c\u8f66\u4e13\u5356\u5e97", "pty": "0612"}}, {"type": "Feature", "geometry": {"type": "Point", "coordinates": [121.47197716018626, 31.30205708565244]},