{"type": "FeatureCollection", "features": [{"type": "Feature", "geometry": {"type": "Point", "coordinates": [121.4346156487976, 31.190833308119856]}, "properties": {"name": "\u4e0a\u5c9b\u5496\u5561(\u5357\u4e39\u4e1c\u8def\u5e97)", "biz": "050502 \u9910\u996e\u670d\u52a1;\u5496\u5561\u5385;\u4e0a\u5c9b\u5496\u5561", "pty": "0505"}}, {"type": "Feature", "geometry": {"type": "Point", "coordinates": [121.43147283743967, 31.155802318679296]}, "properties": {"name": "\u4e0a\u5c9b\u5496\u5561(\u77f3\u9f99\u8def\u5e97)", "biz": "050502 \u9910\u996e\u670d\u52a1;\u5496\u5561\u5385;\u4e0a\u5c9b\u5496\u5561", "pty": "0505"}}, {"type": "Feature", "geometry": {"type": "Point", "coordinates": [121.41176181514128, 31.17693142981173]}, "properties": {"name": "\u4e0a\u5c9b\u5496\u5561(\u6842\u6797\u8def\u5e97)", "biz": "050502 \u9910\u996e\u670d\u52a1;\u5496\u5561\u5385;\u4e0a\u5c9b\u5496\u5561", "pty": "0505"}}, {"type": "Feature", "geometry": {"type": "Point", "coordinates": [121.41225655455463, 31.218804155804527]}, "properties": {"name": "\u4e0a\u5c9b\u5496\u5561(\u4e2d\u5c71\u516c\u56ed\u5e97)", "biz": "050502 \u9910\u996e\u670d\u52a1;\u5496\u5561\u5385;\u4e0a\u5c9b\u5496\u5561", "pty": "0505"}}, {"type": "Feature", "geometry": {"type": "Point", "coordinates": [121.39499483798434, 31.20784686743134]}, "properties": {"name": "\u4e0a\u5c9b\u5496\u5561(\u4ed9\u971e\u5e97)", "biz": "050502 \u9910\u996e\u670d\u52a1;\u5496\u5561\u5385;\u4e0a\u5c9b\u5496\u5561", "pty": "0505"}}, {"type": "Feature", "geometry": {"type": "Point", "coordinates": [121.4472449161972, 31.247099196950906]}, "properties": {"name": "\u4e0a\u5c9b\u5496\u5561(\u957f\u5b89\u8def\u5e97)", "biz": "050502 \u9910\u996e\u670d\u52a1;\u5496\u5561\u5385;\u4e0a\u5c9b\u5496\u5561", "pty": "0505"}}, {"type": "Feature", "geometry": {"type": "Point", "coordinates": [121.45555119353872, 31.3155874075064]}, "properties": {"name": "\u4e0a\u5c9b\u5496\u5561(\u9633\u66f2\u5e97)", "biz": "050502 \u9910\u996e\u670d\u52a1;\u5496\u5561\u5385;\u4e0a\u5c9b\u5496\u5561", "pty": "0505"}}, {"type": "Feature", "geometry": {"type": "Point", "coordinates": [121.43666659420434, 31.23846796632496]}, "properties": {"name": "\u4e0a\u5c9b\u5496\u5561(\u4f59\u59da\u8def\u5e97)", "biz": "050502 \u9910\u996e\u670d\u52a1;\u5496\u5561\u5385;\u4e0a\u5c9b\u5496\u5561", "pty": "0505"}}, {"type": "Feature", "geometry": {"type": "Point", "coordinates": [121.43537144471215, 31.279417909678898]}, "properties": {"name": "\u4e0a\u5c9b\u5496\u5561(\u5e7f\u4e2d\u897f\u8def\u5e97)", "biz": "050502 \u9910\u996e\u670d\u52a1;\u5496\u5561\u5385;\u4e0a\u5c9b\u5496\u5561", "pty": "0505"}}, {"type": "Feature", "geometry": {"type": "Point", "coordinates": [121.4291694011137, 31.253352661370812]}, "properties": {"name": "\u4e0a\u5c9b\u5496\u5561(\u98de\u6d32\u65f6\u4ee3\u5927\u53a6\u5e97)", "biz": "050502 \u9910\u996e\u670d\u52a1;\u5496\u5561\u5385;\u4e0a\u5c9b\u5496\u5561", "pty": "0505"}}, {"type": "Feature", "geometry": {"type": "Point", "coordinates": [121.4104834349727, 31.23955242723076]}, "properties": {"name": "\u4e0a\u5c9b\u5496\u5561(\u957f\u57ce\u5f18\u57fa\u5e97)", "biz": "050502 \u9910\u996e\u670d\u52a1;\u5496\u5561\u5385;\u4e0a\u5c9b\u5496\u5561", "pty": "0505"}}, {"type": "Feature", "geometry": {"type": "Point", "coordinates": [121.41507865987289, 31.257016711342484]}, "properties": {"name": "\u4e0a\u5c9b\u5496\u5561(\u54c1\u5c0a\u5e97)", "biz": "050502 \u9910\u996e\u670d\u52a1;\u5496\u5561\u5385;\u4e0a\u5c9b\u5496\u5561", "pty": "0505"}}, {"type": "Feature", "geometry": {"type": "Point", "coordinates": [121.43273587562824, 31.239494121041783]}, "properties": {"name": "\u4e0a\u5c9b\u5496\u5561(\u65b0\u4f1a\u8def\u5e97)", "biz": "050502 \u9910\u996e\u670d\u52a1;\u5496\u5561\u5385;\u4e0a\u5c9b\u5496\u5561", "pty": "0505"}}, {"type": "Feature", "geometry": {"type": "Point", "coordinates": [121.48084467555252, 31.251835352910707]}, "properties": {"name": "\u4e0a\u5c9b\u5496\u5561(\u6d77\u5b81\u5e97)", "biz": "050502 \u9910\u996e\u670d\u52a1;\u5496\u5561\u5385;\u4e0a\u5c9b\u5496\u5561", "pty": "0505"}}, {"type": "Feature", "geometry": {"type": "Point", "coordinates": [121.48643175416332, 31.28236567672649]}, "properties": {"name": "McCafe(\u66f2\u9633\u8def\u5e97)", "biz": "050502 \u9910\u996e\u670d\u52a1;\u5496\u5561\u5385;\u4e0a\u5c9b\u5496\u5561", "pty": "0505"}}, {"type": "Feature", "geometry": {"type": "Point", "coordinates": [121.48682766318447, 31.26474329556337]}, "properties": {"name": "\u4e0a\u5c9b\u5496\u5561(\u56db\u5e73\u8def\u5e97)", "biz": "050502 \u9910\u996e\u670d\u52a1;\u5496\u5561\u5385;\u4e0a\u5c9b\u5496\u5561", "pty": "0505"}}, {"type": "Feature", "geometry": {"type": "Point", "coordinates": [121.51110855012568, 31.276589441228992]}, "properties": {"name": "\u4e0a\u5c9b\u5496\u5561(\u63a7\u6c5f\u5e97)", "biz": "050502 \u9910\u996e\u670d\u52a1;\u5496\u5561\u5385;\u4e0a\u5c9b\u5496\u5561", "pty": "0505"}}, {"type": "Feature", "geometry": {"type": "Point", "coordinates": [121.52261951044268, 31.30339590119307]}, "properties": {"name": "\u4e0a\u5c9b\u5496\u5561(\u5b89\u6ce2\u8def\u5e97)", "biz": "050502 \u9910\u996e\u670d\u52a1;\u5496\u5561\u5385;\u4e0a\u5c9b\u5496\u5561", "pty": "0505"}}, {"type": "Feature", "geometry": {"type": "Point", "coordinates": [121.51574770950904, 31.31150172888692]}, "properties": {"name": "\u4e0a\u5c9b\u5496\u5561(\u4e94\u89d2\u573a\u5e97)", "biz": "050502 \u9910\u996e\u670d\u52a1;\u5496\u5561\u5385;\u4e0a\u5c9b\u5496\u5561", "pty": "0505"}}, {"type": "Feature", "geometry": {"type": "Point", "coordinates": [121.52773239678773, 31.262789184821575]}, "properties": {"name": "\u4e0a\u5c9b\u5496\u5561(\u5e73\u51c9\u5e97)", "biz": "050502 \u9910\u996e\u670d\u52a1;\u5496\u5561\u5385;\u4e0a\u5c9b\u5496\u5561", "pty": "0505"}}, {"type": "Feature", "geometry": {"type": "Point", "coordinates": [121.49910210607334, 31.29598001585084]}, "properties": {"name": "\u4e0a\u5c9b\u5496\u5561(\u56fd\u6743\u5e97)", "biz": "050502 \u9910\u996e\u670d\u52a1;\u5496\u5561\u5385;\u4e0a\u5c9b\u5496\u5561", "pty": "0505"}}, {"type": "Feature", "geometry": {"type": "Point", "coordinates": [121.54180440302787, 31.277826357657446]}, "properties": {"name": "\u4e0a\u5c9b\u5496\u5561(\u9686\u660c\u8def\u5e97)", "biz": "050502 \u9910\u996e\u670d\u52a1;\u5496\u5561\u5385;\u4e0a\u5c9b\u5496\u5561", "pty": "0505"}}, {"type": "Feature", "geometry": {"type": "Point", "coordinates": [121.53351089503244, 31.31346702249721]}, "properties": {"name": "\u4e0a\u5c9b\u5496\u5561(\u6c11\u661f\u8def\u5e97)", "biz": "050502 \u9910\u996e\u670d\u52a1;\u5496\u5561\u5385;\u4e0a\u5c9b\u5496\u5561", "pty": "0505"}}, {"type": "Feature", "geometry": {"type": "Point", "coordinates": [121.36827436774917, 31.184551032481647]}, "properties": {"name": "\u4e0a\u5c9b\u5496\u5561(\u91d1\u6c47\u5e97)", "biz": "050502 \u9910\u996e\u670d\u52a1;\u5496\u5561\u5385;\u4e0a\u5c9b\u5496\u5561", "pty": "0505"}}, {"type": "Feature", "geometry": {"type": "Point", "coordinates": [121.4188489082304, 31.126574496008924]}, "properties": {"name": "\u4e0a\u5c9b\u5496\u5561(\u8679\u6885\u5357\u8def\u5e97)", "biz": "050502 \u9910\u996e\u670d\u52a1;\u5496\u5561\u5385;\u4e0a\u5c9b\u5496\u5561", "pty": "0505"}}, {"type": "Feature", "geometry": {"type": "Point", "coordinates": [121.39433928894084, 31.088747710401552]}, "properties": {"name": "\u4e0a\u5c9b\u5496\u5561(\u90fd\u5e02\u8def\u5e97)", "biz": "050502 \u9910\u996e\u670d\u52a1;\u5496\u5561\u5385;\u4e0a\u5c9b\u5496\u5561", "pty": "0505"}}, {"type": "Feature", "geometry": {"type": "Point", "coordinates": [121.50520435497693, 31.090072258521754]}, "properties": {"name": "\u4e0a\u5c9b\u5496\u5561(\u6c5f\u6708\u8def\u5730\u94c1\u7ad9\u5e97)", "biz": "050502 \u9910\u996e\u670d\u52a1;\u5496\u5561\u5385;\u4e0a\u5c9b\u5496\u5561", "pty": "0505"}}, {"type": "Feature", "geometry": {"type": "Point", "coordinates": [121.464346968261, 31.02881815417921]}, "properties": {"name": "\u4e50\u8bda\u5c1a\u5bb4(\u7d2b\u7af9\u534a\u5c9b\u5e97)", "biz": "050502 \u9910\u996e\u670d\u52a1;\u5496\u5561\u5385;\u4e0a\u5c9b\u5496\u5561", "pty": "0505"}}, {"type": "Feature", "geometry": {"type": "Point", "coordinates": [121.51860899246988, 31.07831755061111]}, "properties": {"name": "\u4e0a\u5c9b\u5496\u5561(\u4e09\u9c81\u8def\u5e97)", "biz": "050502 \u9910\u996e\u670d\u52a1;\u5496\u5561\u5385;\u4e0a\u5c9b\u5496\u5561", "pty": "0505"}}, {"type": "Feature", "geometry": {"type": "Point", "coordinates": [121.39193248730032, 31.057968714291196]}, "properties": {"name": "\u4e0a\u5c9b\u5496\u5561(\u946b\u90fd\u8def\u5e97)", "biz": "050502 \u9910\u996e\u670d\u52a1;\u5496\u5561\u5385;\u4e0a\u5c9b\u5496\u5561", "pty": "0505"}}, {"type": "Feature", "geometry": {"type": "Point", "coordinates": [121.40627843719672, 31.280308663715136]}, "properties": {"name": "\u4e0a\u5c9b\u5496\u5561(\u5927\u534e\u5e97)", "biz": "050502 \u9910\u996e\u670d\u52a1;\u5496\u5561\u5385;\u4e0a\u5c9b\u5496\u5561", "pty": "0505"}}, {"type": "Feature", "geometry": {"type": "Point", "coordinates": [121.40702895050217, 31.290080950428518]}, "properties": {"name": "\u4e0a\u5c9b\u5496\u5561(\u771f\u534e\u8def\u5e97)", "biz": "050502 \u9910\u996e\u670d\u52a1;\u5496\u5561\u5385;\u4e0a\u5c9b\u5496\u5561", "pty": "0505"}}, {"type": "Feature", "geometry": {"type": "Point", "coordinates": [121.48501943398954, 31.403028665189872]}, "properties": {"name": "\u4e0a\u5c9b\u5496\u5561(\u53cb\u8c0a\u652f\u8def\u5e97)", "biz": "050502 \u9910\u996e\u670d\u52a1;\u5496\u5561\u5385;\u4e0a\u5c9b\u5496\u5561", "pty": "0505"}}, {"type": "Feature", "geometry": {"type": "Point", "coordinates": [121.44934425326637, 31.397369228928092]}, "properties": {"name": "\u4e0a\u5c9b\u5496\u5561(\u94c1\u5cf0\u8def\u5e97)", "biz": "050502 \u9910\u996e\u670d\u52a1;\u5496\u5561\u5385;\u4e0a\u5c9b\u5496\u5561", "pty": "0505"}}, {"type": "Feature", "geometry": {"type": "Point", "coordinates": [121.48969056378345, 31.374162007917057]}, "properties": {"name": "\u99a8\u8fea\u5496\u5561(\u6dde\u6ee8\u5e97)", "biz": "050502 \u9910\u996e\u670d\u52a1;\u5496\u5561\u5385;\u4e0a\u5c9b\u5496\u5561", "pty": "0505"}}, {"type": "Feature", "geometry": {"type": "Point", "coordinates": [121.15918639912077, 31.29146253705784]}, "properties": {"name": "\u4e0a\u5c9b\u5496\u5561(\u5b89\u4ead\u5e97)", "biz": "050502 \u9910\u996e\u670d\u52a1;\u5496\u5561\u5385;\u4e0a\u5c9b\u5496\u5561", "pty": "0505"}}, {"type": "Feature", "geometry": {"type": "Point", "coordinates": [121.50126620647818, 31.173964392886592]}, "properties": {"name": "\u4e0a\u5c9b\u5496\u5561(\u6210\u5c71\u8def\u5e97)", "biz": "050502 \u9910\u996e\u670d\u52a1;\u5496\u5561\u5385;\u4e0a\u5c9b\u5496\u5561", "pty": "0505"}}, {"type": "Feature", "geometry": {"type": "Point", "coordinates": [121.5121004143104, 31.21248519229284]}, "properties": {"name": "\u4e0a\u5c9b\u5496\u5561(\u5858\u6865\u5e97)", "biz": "050502 \u9910\u996e\u670d\u52a1;\u5496\u5561\u5385;\u4e0a\u5c9b\u5496\u5561", "pty": "0505"}}, {"type": "Feature", "geometry": {"type": "Point", "coordinates": [121.5685975971954, 31.257375623460693]}, "properties": {"name": "\u4e0a\u5c9b\u5496\u5561(\u535a\u5c71\u4e1c\u8def\u5e97)", "biz": "050502 \u9910\u996e\u670d\u52a1;\u5496\u5561\u5385;\u4e0a\u5c9b\u5496\u5561", "pty": "0505"}}, {"type": "Feature", "geometry": {"type": "Point", "coordinates": [121.64854428507795, 31.2684931582718]}, "properties": {"name": "\u4e0a\u5c9b\u5496\u5561(\u5b9d\u9f99\u5e7f\u573a\u5e97)", "biz": "050502 \u9910\u996e\u670d\u52a1;\u5496\u5561\u5385;\u4e0a\u5c9b\u5496\u5561", "pty": "0505"}}, {"type": "Feature", "geometry": {"type": "Point", "coordinates": [121.58353615910687, 31.32811171798953]}, "properties": {"name": "\u4e0a\u5c9b\u5496\u5561(\u5f20\u6768\u5317\u8def\u5e97)", "biz": "050502 \u9910\u996e\u670d\u52a1;\u5496\u5561\u5385;\u4e0a\u5c9b\u5496\u5561", "pty": "0505"}}, {"type": "Feature", "geometry": {"type": "Point", "coordinates": [121.60139636774059, 31.26182005357502]}, "properties": {"name": "\u4e0a\u5c9b\u5496\u5561(\u91d1\u6d77\u5546\u4e1a\u5e7f\u573a\u5e97)", "biz": "050502 \u9910\u996e\u670d\u52a1;\u5496\u5561\u5385;\u4e0a\u5c9b\u5496\u5561", "pty": "0505"}}, {"type": "Feature", "geometry": {"type": "Point", "coordinates": [121.59198308693382, 31.040947417514282]}, "properties": {"name": "\u4e0a\u5c9b\u5496\u5561(\u6caa\u5357\u516c\u8def\u5e97)", "biz": "050502 \u9910\u996e\u670d\u52a1;\u5496\u5561\u5385;\u4e0a\u5c9b\u5496\u5561", "pty": "0505"}}, {"type": "Feature", "geometry": {"type": "Point", "coordinates": [121.16196447820226, 30.898402068414786]}, "properties": {"name": "\u4e0a\u5c9b\u5496\u5561(\u6731\u6cfe\u5e97)", "biz": "050502 \u9910\u996e\u670d\u52a1;\u5496\u5561\u5385;\u4e0a\u5c9b\u5496\u5561", "pty": "0505"}}, {"type": "Feature", "geometry": {"type": "Point", "coordinates": [121.23213355558572, 31.060161993788068]}, "properties": {"name": "\u4e0a\u5c9b\u5496\u5561(\u5e7f\u5bcc\u6797\u8def\u5e97)", "biz": "050502 \u9910\u996e\u670d\u52a1;\u5496\u5561\u5385;\u4e0a\u5c9b\u5496\u5561", "pty": "0505"}}, {"type": "Feature", "geometry": {"type": "Point", "coordinates": [121.3035060439249, 31.064146966412217]}, "properties": {"name": "\u4e0a\u5c9b\u5496\u5561(\u65b0\u6865\u5e97)", "biz": "050502 \u9910\u996e\u670d\u52a1;\u5496\u5561\u5385;\u4e0a\u5c9b\u5496\u5561", "pty": "0505"}}, {"type": "Feature", "geometry": {"type": "Point", "coordinates": [121.20409969987102, 31.01225884385655]}, "properties": {"name": "\u4e0a\u5c9b\u5496\u5561(\u7389\u6811\u5e97)", "biz": "050502 \u9910\u996e\u670d\u52a1;\u5496\u5561\u5385;\u4e0a\u5c9b\u5496\u5561", "pty": "0505"}}, {"type": "Feature", "geometry": {"type": "Point", "coordinates": [121.30488810963709, 31.14613611783757]}, "properties": {"name": "\u4e0a\u5c9b\u5496\u5561(\u4e5d\u675c\u8def\u5e97)", "biz": "050502 \u9910\u996e\u670d\u52a1;\u5496\u5561\u5385;\u4e0a\u5c9b\u5496\u5561", "pty": "0505"}}, {"type": "Feature", "geometry": {"type": "Point", "coordinates": [121.32594494504433, 31.13423390625014]}, "properties": {"name": "\u4e0a\u5c9b\u5496\u5561(\u4e5d\u4ead\u5e97)", "biz": "050502 \u9910\u996e\u670d\u52a1;\u5496\u5561\u5385;\u4e0a\u5c9b\u5496\u5561", "pty": "0505"}}, {"type": "Feature", "geometry": {"type": "Point", "coordinates": [121.34856992757338, 31.10029712372521]}, "properties": {"name": "\u4e0a\u5c9b\u5496\u5561(\u8398\u677e\u8def\u5e97)", "biz": "050502 \u9910\u996e\u670d\u52a1;\u5496\u5561\u5385;\u4e0a\u5c9b\u5496\u5561", "pty": "0505"}}, {"type": "Feature", "geometry": {"type": "Point", "coordinates": [121.18491572040668, 31.202028225505185]}, "properties": {"name": "\u4e0a\u5c9b\u5496\u5561(\u91cd\u56fa\u5e97)", "biz": "050502 \u9910\u996e\u670d\u52a1;\u5496\u5561\u5385;\u4e0a\u5c9b\u5496\u5561", "pty": "0505"}}, {"type": "Feature", "geometry": {"type": "Point", "coordinates": [121.48354850670376, 30.917039922135075]}, "properties": {"name": "\u4e0a\u5c9b\u5496\u5561", "biz": "050502 \u9910\u996e\u670d\u52a1;\u5496\u5561\u5385;\u4e0a\u5c9b\u5496\u5561", "pty": "0505"}}, {"type": "Feature", "geometry": {"type": "Point", "coordinates": [121.4826715809764, 30.927163364958957]}, "properties": {"name": "\u4e0a\u5c9b\u5496\u5561(\u5fb7\u4e30\u8def\u5e97)", "biz": "050502 \u9910\u996e\u670d\u52a1;\u5496\u5561\u5385;\u4e0a\u5c9b\u5496\u5561", "pty": "0505"}}, {"type": "Feature", "geometry": {"type": "Point", "coordinates": [121.44493753201763, 30.90641226148527]}, "properties": {"name": "\u4e0a\u5c9b\u5496\u5561(\u80b2\u79c0\u8def\u5e97)", "biz": "050502 \u9910\u996e\u670d\u52a1;\u5496\u5561\u5385;\u4e0a\u5c9b\u5496\u5561", "pty": "0505"}}, {"type": "Feature", "geometry": {"type": "Point", "coordinates": [121.44606225835109, 30.91810565513685]}, "properties": {"name": "\u4e0a\u5c9b\u5496\u5561(\u5357\u6865\u65b0\u5efa\u897f\u8def\u5e97)", "biz": "050502 \u9910\u996e\u670d\u52a1;\u5496\u5561\u5385;\u4e0a\u5c9b\u5496\u5561", "pty": "0505"}}, {"type": "Feature", "geometry": {"type": "Point", "coordinates": [121.64171880340434, 30.910627816857925]}, "properties": {"name": "\u4e0a\u5c9b\u5496\u5561(\u5949\u57ce\u5e97)", "biz": "050502 \u9910\u996e\u670d\u52a1;\u5496\u5561\u5385;\u4e0a\u5c9b\u5496\u5561", "pty": "0505"}}, {"type": "Feature", "geometry": {"type": "Point", "coordinates": [121.61604573235778, 31.53890793762868]}, "properties": {"name": "\u4e0a\u5c9b\u5496\u5561(\u5821\u9547\u5e97)", "biz": "050502 \u9910\u996e\u670d\u52a1;\u5496\u5561\u5385;\u4e0a\u5c9b\u5496\u5561", "pty": "0505"}}]}