{"type": "FeatureCollection", "features": [{"type": "Feature", "geometry": {"type": "Point", "coordinates": [121.39657561425959, 31.19741882214945]}, "properties": {"name": "\u7480\u74a8\u7f8e\u776b(\u65d7\u8230\u5e97)", "biz": "061202|071100 \u8d2d\u7269\u670d\u52a1;\u4e13\u5356\u5e97;\u73e0\u5b9d\u9996\u9970\u5de5\u827a\u54c1|\u751f\u6d3b\u670d\u52a1;\u7f8e\u5bb9\u7f8e\u53d1\u5e97;\u7f8e\u5bb9\u7f8e\u53d1\u5e97", "pty": "0612"}}, {"type": "Feature", "geometry": {"type": "Point", "coordinates": [121.3981232151249, 31.213425021986627]}, "properties": {"name": "\u5f18\u6bc5\u56fd\u5b66(\u957f\u5b81\u5206\u9662)", "biz": "141400|071100 \u79d1\u6559\u6587\u5316\u670d\u52a1;\u57f9\u8bad\u673a\u6784;\u57f9\u8bad\u673a\u6784|\u751f\u6d3b\u670d\u52a1;\u7f8e\u5bb9\u7f8e\u53d1\u5e97;\u7f8e\u5bb9\u7f8e\u53d1\u5e97", "pty": "1414"}}, {"type": "Feature", "geometry": {"type": "Point", "coordinates": [121.47205276034136, 31.251313558586137]}, "properties": {"name": "\u65f6\u5c1a\u7a7a\u95f4(\u5929\u76ee\u4e1c\u8def)", "biz": "061202|071100 \u8d2d\u7269\u670d\u52a1;\u4e13\u5356\u5e97;\u73e0\u5b9d\u9996\u9970\u5de5\u827a\u54c1|\u751f\u6d3b\u670d\u52a1;\u7f8e\u5bb9\u7f8e\u53d1\u5e97;\u7f8e\u5bb9\u7f8e\u53d1\u5e97", "pty": "0612"}}, {"type": "Feature", "geometry": {"type": "Point", "coordinates": [121.45310194064864, 31.27426123809727]}, "properties": {"name": "\u65f6\u5c1a\u7a7a\u95f4(\u5ef6\u957f\u8def\u5e97)", "biz": "061202|071100 \u8d2d\u7269\u670d\u52a1;\u4e13\u5356\u5e97;\u73e0\u5b9d\u9996\u9970\u5de5\u827a\u54c1|\u751f\u6d3b\u670d\u52a1;\u7f8e\u5bb9\u7f8e\u53d1\u5e97;\u7f8e\u5bb9\u7f8e\u53d1\u5e97", "pty": "0612"}}, {"type": "Feature", "geometry": {"type": "Point", "coordinates": [121.45393566377577, 31.269321255171796]}, "properties": {"name": "\u7f8e\u7532\u9970\u754c(\u5171\u548c\u65b0\u8def\u5e97)", "biz": "061209|071100 \u8d2d\u7269\u670d\u52a1;\u4e13\u5356\u5e97;\u793c\u54c1\u9970\u54c1\u5e97|\u751f\u6d3b\u670d\u52a1;\u7f8e\u5bb9\u7f8e\u53d1\u5e97;\u7f8e\u5bb9\u7f8e\u53d1\u5e97", "pty": "0612"}}, {"type": "Feature", "geometry": {"type": "Point", "coordinates": [121.44856373428718, 31.229992799168976]}, "properties": {"name": "PURE YOGA(\u6052\u9686\u5e7f\u573a)", "biz": "080111|071100 \u4f53\u80b2\u4f11\u95f2\u670d\u52a1;\u8fd0\u52a8\u573a\u9986;\u5065\u8eab\u4e2d\u5fc3|\u751f\u6d3b\u670d\u52a1;\u7f8e\u5bb9\u7f8e\u53d1\u5e97;\u7f8e\u5bb9\u7f8e\u53d1\u5e97", "pty": "0801"}}, {"type": "Feature", "geometry": {"type": "Point", "coordinates": [121.4593292875906, 31.2326105124636]}, "properties": {"name": "\u7f8e\u4e3d\u7530\u56ed(\u5357\u4eac\u897f\u8def\u5e97)", "biz": "141400|071100 \u79d1\u6559\u6587\u5316\u670d\u52a1;\u57f9\u8bad\u673a\u6784;\u57f9\u8bad\u673a\u6784|\u751f\u6d3b\u670d\u52a1;\u7f8e\u5bb9\u7f8e\u53d1\u5e97;\u7f8e\u5bb9\u7f8e\u53d1\u5e97", "pty": "1414"}}, {"type": "Feature", "geometry": {"type": "Point", "coordinates": [121.41684269475017, 31.242119795613096]}, "properties": {"name": "\u6f02\u4eae\u5973\u4eba(\u6b66\u5b81\u8def\u5e97)", "biz": "061101|071100 \u8d2d\u7269\u670d\u52a1;\u670d\u88c5\u978b\u5e3d\u76ae\u5177\u5e97;\u54c1\u724c\u670d\u88c5\u5e97|\u751f\u6d3b\u670d\u52a1;\u7f8e\u5bb9\u7f8e\u53d1\u5e97;\u7f8e\u5bb9\u7f8e\u53d1\u5e97", "pty": "0611"}}, {"type": "Feature", "geometry": {"type": "Point", "coordinates": [121.4358394466654, 31.244010057155077]}, "properties": {"name": "\u8212\u9002\u5821(189\u5f04\u8d2d\u7269\u4e2d\u5fc3)", "biz": "080111|071100 \u4f53\u80b2\u4f11\u95f2\u670d\u52a1;\u8fd0\u52a8\u573a\u9986;\u5065\u8eab\u4e2d\u5fc3|\u751f\u6d3b\u670d\u52a1;\u7f8e\u5bb9\u7f8e\u53d1\u5e97;\u7f8e\u5bb9\u7f8e\u53d1\u5e97", "pty": "0801"}}, {"type": "Feature", "geometry": {"type": "Point", "coordinates": [121.34326194688462, 31.28238942038434]}, "properties": {"name": "\u821e\u8e48\u57f9\u8bad\u4e2d\u5fc3(\u65b0\u90bb\u5929\u5730)", "biz": "141400|071100 \u79d1\u6559\u6587\u5316\u670d\u52a1;\u57f9\u8bad\u673a\u6784;\u57f9\u8bad\u673a\u6784|\u751f\u6d3b\u670d\u52a1;\u7f8e\u5bb9\u7f8e\u53d1\u5e97;\u7f8e\u5bb9\u7f8e\u53d1\u5e97", "pty": "1414"}}, {"type": "Feature", "geometry": {"type": "Point", "coordinates": [121.47055291850839, 31.29668428232429]}, "properties": {"name": "\u53f6\u9752\u89c6\u89c9\u827a\u672f(\u51c9\u57ce\u8def\u5e97)", "biz": "071100|141400 \u751f\u6d3b\u670d\u52a1;\u7f8e\u5bb9\u7f8e\u53d1\u5e97;\u7f8e\u5bb9\u7f8e\u53d1\u5e97|\u79d1\u6559\u6587\u5316\u670d\u52a1;\u57f9\u8bad\u673a\u6784;\u57f9\u8bad\u673a\u6784", "pty": "0711"}}, {"type": "Feature", "geometry": {"type": "Point", "coordinates": [121.47814001242773, 31.266988915893915]}, "properties": {"name": "\u5947\u4e50\u661f\u5c11\u513f\u827a\u672f\u4e2d\u5fc3(\u8679\u53e3\u5e97)", "biz": "071100|141400 \u751f\u6d3b\u670d\u52a1;\u7f8e\u5bb9\u7f8e\u53d1\u5e97;\u7f8e\u5bb9\u7f8e\u53d1\u5e97|\u79d1\u6559\u6587\u5316\u670d\u52a1;\u57f9\u8bad\u673a\u6784;\u57f9\u8bad\u673a\u6784", "pty": "0711"}}, {"type": "Feature", "geometry": {"type": "Point", "coordinates": [121.5147328101888, 31.29258028121219]}, "properties": {"name": "\u4e1c\u5ddd\u9053\u9986\u00b7\u5c11\u513f\u8dc6\u62f3\u9053(\u4e94\u89d2\u573a\u5e97)", "biz": "080119|071100 \u4f53\u80b2\u4f11\u95f2\u670d\u52a1;\u8fd0\u52a8\u573a\u9986;\u8dc6\u62f3\u9053\u573a\u9986|\u751f\u6d3b\u670d\u52a1;\u7f8e\u5bb9\u7f8e\u53d1\u5e97;\u7f8e\u5bb9\u7f8e\u53d1\u5e97", "pty": "0801"}}, {"type": "Feature", "geometry": {"type": "Point", "coordinates": [121.40491060168407, 31.018523057320614]}, "properties": {"name": "\u62c9\u6590\u5c14\u517b\u751f\u7f8e\u5bb9\u4f1a\u6240", "biz": "080306|071100 \u4f53\u80b2\u4f11\u95f2\u670d\u52a1;\u5a31\u4e50\u573a\u6240;\u68cb\u724c\u5ba4|\u751f\u6d3b\u670d\u52a1;\u7f8e\u5bb9\u7f8e\u53d1\u5e97;\u7f8e\u5bb9\u7f8e\u53d1\u5e97", "pty": "0803"}}, {"type": "Feature", "geometry": {"type": "Point", "coordinates": [121.30411316457189, 31.211567346755828]}, "properties": {"name": "\u90ed\u9e70\u827a\u6821(\u8679\u6865\u826f\u534e\u8d2d\u7269\u5e7f\u573a)", "biz": "071100|141200 \u751f\u6d3b\u670d\u52a1;\u7f8e\u5bb9\u7f8e\u53d1\u5e97;\u7f8e\u5bb9\u7f8e\u53d1\u5e97|\u79d1\u6559\u6587\u5316\u670d\u52a1;\u5b66\u6821;\u5b66\u6821", "pty": "0711"}}, {"type": "Feature", "geometry": {"type": "Point", "coordinates": [121.30427881661375, 31.211512079502413]}, "properties": {"name": "\u660e\u5c1a\u6559\u80b2(\u8679\u6865\u826f\u534e\u8d2d\u7269\u5e7f\u573a)", "biz": "071100|141400 \u751f\u6d3b\u670d\u52a1;\u7f8e\u5bb9\u7f8e\u53d1\u5e97;\u7f8e\u5bb9\u7f8e\u53d1\u5e97|\u79d1\u6559\u6587\u5316\u670d\u52a1;\u57f9\u8bad\u673a\u6784;\u57f9\u8bad\u673a\u6784", "pty": "0711"}}, {"type": "Feature", "geometry": {"type": "Point", "coordinates": [121.33505261696412, 31.16712128055707]}, "properties": {"name": "\u5929\u4e4b\u715c\u821e\u8e48\u827a\u672f\u9986", "biz": "141400|071100 \u79d1\u6559\u6587\u5316\u670d\u52a1;\u57f9\u8bad\u673a\u6784;\u57f9\u8bad\u673a\u6784|\u751f\u6d3b\u670d\u52a1;\u7f8e\u5bb9\u7f8e\u53d1\u5e97;\u7f8e\u5bb9\u7f8e\u53d1\u5e97", "pty": "1414"}}, {"type": "Feature", "geometry": {"type": "Point", "coordinates": [121.44289965635306, 31.325224472812614]}, "properties": {"name": "\u539f\u521b\u5f62\u8c61\u8bbe\u8ba1(\u4e07\u8fbe\u5e7f\u573a)", "biz": "061101|071100 \u8d2d\u7269\u670d\u52a1;\u670d\u88c5\u978b\u5e3d\u76ae\u5177\u5e97;\u54c1\u724c\u670d\u88c5\u5e97|\u751f\u6d3b\u670d\u52a1;\u7f8e\u5bb9\u7f8e\u53d1\u5e97;\u7f8e\u5bb9\u7f8e\u53d1\u5e97", "pty": "0611"}}, {"type": "Feature", "geometry": {"type": "Point", "coordinates": [121.42334330532728, 31.404959492232642]}, "properties": {"name": "\u4fcf\u4f73\u4eba(\u91d1\u60a6\u00b7\u751f\u6d3b\u5e7f\u573a)", "biz": "061101|071100 \u8d2d\u7269\u670d\u52a1;\u670d\u88c5\u978b\u5e3d\u76ae\u5177\u5e97;\u54c1\u724c\u670d\u88c5\u5e97|\u751f\u6d3b\u670d\u52a1;\u7f8e\u5bb9\u7f8e\u53d1\u5e97;\u7f8e\u5bb9\u7f8e\u53d1\u5e97", "pty": "0611"}}, {"type": "Feature", "geometry": {"type": "Point", "coordinates": [121.40934566927574, 31.274083650276406]}, "properties": {"name": "\u7eff\u5149\u5c11\u513f\u6559\u80b2(\u6fb3\u6d32\u5e7f\u573a)", "biz": "141400|071100 \u79d1\u6559\u6587\u5316\u670d\u52a1;\u57f9\u8bad\u673a\u6784;\u57f9\u8bad\u673a\u6784|\u751f\u6d3b\u670d\u52a1;\u7f8e\u5bb9\u7f8e\u53d1\u5e97;\u7f8e\u5bb9\u7f8e\u53d1\u5e97", "pty": "1414"}}, {"type": "Feature", "geometry": {"type": "Point", "coordinates": [121.36248736060868, 31.350566522161976]}, "properties": {"name": "\u4e50\u76ca\u56fd\u9645\u82f1\u8bed(\u660a\u5143\u751f\u6d3b\u5e7f\u573a)", "biz": "071100|141400 \u751f\u6d3b\u670d\u52a1;\u7f8e\u5bb9\u7f8e\u53d1\u5e97;\u7f8e\u5bb9\u7f8e\u53d1\u5e97|\u79d1\u6559\u6587\u5316\u670d\u52a1;\u57f9\u8bad\u673a\u6784;\u57f9\u8bad\u673a\u6784", "pty": "0711"}}, {"type": "Feature", "geometry": {"type": "Point", "coordinates": [121.40934665436903, 31.274261575732783]}, "properties": {"name": "\u590f\u52a0\u513f\u7f8e\u672f\u6559\u80b2(\u6fb3\u6d32\u5e7f\u573a)", "biz": "071100|141400 \u751f\u6d3b\u670d\u52a1;\u7f8e\u5bb9\u7f8e\u53d1\u5e97;\u7f8e\u5bb9\u7f8e\u53d1\u5e97|\u79d1\u6559\u6587\u5316\u670d\u52a1;\u57f9\u8bad\u673a\u6784;\u57f9\u8bad\u673a\u6784", "pty": "0711"}}, {"type": "Feature", "geometry": {"type": "Point", "coordinates": [121.31830814343121, 31.241373102501527]}, "properties": {"name": "\u7ea4\u7f8e\u4e13\u4e1a\u8c03\u6574\u578b\u5185\u8863(\u4e07\u8fbe\u5e7f\u573a)", "biz": "061101|071100 \u8d2d\u7269\u670d\u52a1;\u670d\u88c5\u978b\u5e3d\u76ae\u5177\u5e97;\u54c1\u724c\u670d\u88c5\u5e97|\u751f\u6d3b\u670d\u52a1;\u7f8e\u5bb9\u7f8e\u53d1\u5e97;\u7f8e\u5bb9\u7f8e\u53d1\u5e97", "pty": "0611"}}, {"type": "Feature", "geometry": {"type": "Point", "coordinates": [121.2043238231755, 31.404014695900948]}, "properties": {"name": "\u5343\u767e\u5ea6(\u6c47\u65fa\u4e1c\u8def)", "biz": "061102|071100 \u8d2d\u7269\u670d\u52a1;\u670d\u88c5\u978b\u5e3d\u76ae\u5177\u5e97;\u54c1\u724c\u978b\u5e97|\u751f\u6d3b\u670d\u52a1;\u7f8e\u5bb9\u7f8e\u53d1\u5e97;\u7f8e\u5bb9\u7f8e\u53d1\u5e97", "pty": "0611"}}, {"type": "Feature", "geometry": {"type": "Point", "coordinates": [121.46300564252218, 31.241256840184484]}, "properties": {"name": "\u89c2\u81ea\u5728", "biz": "061201|071100 \u8d2d\u7269\u670d\u52a1;\u4e13\u5356\u5e97;\u53e4\u73a9\u5b57\u753b\u5e97|\u751f\u6d3b\u670d\u52a1;\u7f8e\u5bb9\u7f8e\u53d1\u5e97;\u7f8e\u5bb9\u7f8e\u53d1\u5e97", "pty": "0612"}}, {"type": "Feature", "geometry": {"type": "Point", "coordinates": [121.45889091428506, 31.221905425340577]}, "properties": {"name": "SUNNY", "biz": "061201|071100 \u8d2d\u7269\u670d\u52a1;\u4e13\u5356\u5e97;\u53e4\u73a9\u5b57\u753b\u5e97|\u751f\u6d3b\u670d\u52a1;\u7f8e\u5bb9\u7f8e\u53d1\u5e97;\u7f8e\u5bb9\u7f8e\u53d1\u5e97", "pty": "0612"}}, {"type": "Feature", "geometry": {"type": "Point", "coordinates": [121.47362154164712, 31.233222126595276]}, "properties": {"name": "\u7f8e\u4e3d\u571f\u532a\u5a46", "biz": "080306|071100 \u4f53\u80b2\u4f11\u95f2\u670d\u52a1;\u5a31\u4e50\u573a\u6240;\u68cb\u724c\u5ba4|\u751f\u6d3b\u670d\u52a1;\u7f8e\u5bb9\u7f8e\u53d1\u5e97;\u7f8e\u5bb9\u7f8e\u53d1\u5e97", "pty": "0803"}}, {"type": "Feature", "geometry": {"type": "Point", "coordinates": [121.46919916648002, 31.195508939567624]}, "properties": {"name": "\u5c0f\u8367\u661f(\u6d77\u5916\u6ee9)", "biz": "141400|071100 \u79d1\u6559\u6587\u5316\u670d\u52a1;\u57f9\u8bad\u673a\u6784;\u57f9\u8bad\u673a\u6784|\u751f\u6d3b\u670d\u52a1;\u7f8e\u5bb9\u7f8e\u53d1\u5e97;\u7f8e\u5bb9\u7f8e\u53d1\u5e97", "pty": "1414"}}, {"type": "Feature", "geometry": {"type": "Point", "coordinates": [121.43512727038092, 31.19516699301691]}, "properties": {"name": "\u8212\u9002\u5821\u5065\u8eab\u7f8e\u5bb9\u4e2d\u5fc3", "biz": "080111|071100 \u4f53\u80b2\u4f11\u95f2\u670d\u52a1;\u8fd0\u52a8\u573a\u9986;\u5065\u8eab\u4e2d\u5fc3|\u751f\u6d3b\u670d\u52a1;\u7f8e\u5bb9\u7f8e\u53d1\u5e97;\u7f8e\u5bb9\u7f8e\u53d1\u5e97", "pty": "0801"}}, {"type": "Feature", "geometry": {"type": "Point", "coordinates": [121.43551406464319, 31.19479381474682]}, "properties": {"name": "\u8212\u9002\u5821(\u7f8e\u7f57\u57ce)", "biz": "080111|071100 \u4f53\u80b2\u4f11\u95f2\u670d\u52a1;\u8fd0\u52a8\u573a\u9986;\u5065\u8eab\u4e2d\u5fc3|\u751f\u6d3b\u670d\u52a1;\u7f8e\u5bb9\u7f8e\u53d1\u5e97;\u7f8e\u5bb9\u7f8e\u53d1\u5e97", "pty": "0801"}}, {"type": "Feature", "geometry": {"type": "Point", "coordinates": [121.44555291819317, 31.12910946057422]}, "properties": {"name": "\u8fea\u65af\u9017\u9017(\u534e\u53d1\u8def\u6559\u5b66\u70b9)", "biz": "141400|071100 \u79d1\u6559\u6587\u5316\u670d\u52a1;\u57f9\u8bad\u673a\u6784;\u57f9\u8bad\u673a\u6784|\u751f\u6d3b\u670d\u52a1;\u7f8e\u5bb9\u7f8e\u53d1\u5e97;\u7f8e\u5bb9\u7f8e\u53d1\u5e97", "pty": "1414"}}, {"type": "Feature", "geometry": {"type": "Point", "coordinates": [121.25170068248137, 31.385058186364777]}, "properties": {"name": "\u5929\u7399\u4f1a\u9986(\u5609\u5b9a\u65b0\u57ce\u5e97)", "biz": "141400|071100 \u79d1\u6559\u6587\u5316\u670d\u52a1;\u57f9\u8bad\u673a\u6784;\u57f9\u8bad\u673a\u6784|\u751f\u6d3b\u670d\u52a1;\u7f8e\u5bb9\u7f8e\u53d1\u5e97;\u7f8e\u5bb9\u7f8e\u53d1\u5e97", "pty": "1414"}}, {"type": "Feature", "geometry": {"type": "Point", "coordinates": [121.62586187369573, 31.320496263756855]}, "properties": {"name": "\u534e\u5f69\u827a\u672f\u4e2d\u5fc3(\u6708\u4eae\u6e7e\u5546\u4e1a\u4e2d\u5fc3)", "biz": "141400|071100|140400 \u79d1\u6559\u6587\u5316\u670d\u52a1;\u57f9\u8bad\u673a\u6784;\u57f9\u8bad\u673a\u6784|\u751f\u6d3b\u670d\u52a1;\u7f8e\u5bb9\u7f8e\u53d1\u5e97;\u7f8e\u5bb9\u7f8e\u53d1\u5e97|\u79d1\u6559\u6587\u5316\u670d\u52a1;\u7f8e\u672f\u9986;\u7f8e\u672f\u9986", "pty": "1414"}}, {"type": "Feature", "geometry": {"type": "Point", "coordinates": [121.5531813773078, 31.205082709074848]}, "properties": {"name": "\u57f9\u826f\u6559\u80b2(\u6d66\u4e1c\u6821\u533a)", "biz": "141400|071100 \u79d1\u6559\u6587\u5316\u670d\u52a1;\u57f9\u8bad\u673a\u6784;\u57f9\u8bad\u673a\u6784|\u751f\u6d3b\u670d\u52a1;\u7f8e\u5bb9\u7f8e\u53d1\u5e97;\u7f8e\u5bb9\u7f8e\u53d1\u5e97", "pty": "1414"}}, {"type": "Feature", "geometry": {"type": "Point", "coordinates": [121.55685353143429, 31.213085011761006]}, "properties": {"name": "\u8d1d\u83b1\u5821\u521b\u4e50\u56ed(\u535a\u89c8\u6c47\u5e7f\u573a)", "biz": "071100|141400 \u751f\u6d3b\u670d\u52a1;\u7f8e\u5bb9\u7f8e\u53d1\u5e97;\u7f8e\u5bb9\u7f8e\u53d1\u5e97|\u79d1\u6559\u6587\u5316\u670d\u52a1;\u57f9\u8bad\u673a\u6784;\u57f9\u8bad\u673a\u6784", "pty": "0711"}}, {"type": "Feature", "geometry": {"type": "Point", "coordinates": [121.15910582481537, 30.897296389047117]}, "properties": {"name": "\u6f02\u4eae\u5b9d\u8d1d(\u6731\u6cfe\u00b7\u57ce\u4e2d\u8def\u5e97)", "biz": "061207|071100 \u8d2d\u7269\u670d\u52a1;\u4e13\u5356\u5e97;\u513f\u7ae5\u7528\u54c1\u5e97|\u751f\u6d3b\u670d\u52a1;\u7f8e\u5bb9\u7f8e\u53d1\u5e97;\u7f8e\u5bb9\u7f8e\u53d1\u5e97", "pty": "0612"}}, {"type": "Feature", "geometry": {"type": "Point", "coordinates": [121.23803447495241, 31.06035613170448]}, "properties": {"name": "SU+\u745c\u4f3d(\u4e07\u8fbe\u5e7f\u573a)", "biz": "080111|071100 \u4f53\u80b2\u4f11\u95f2\u670d\u52a1;\u8fd0\u52a8\u573a\u9986;\u5065\u8eab\u4e2d\u5fc3|\u751f\u6d3b\u670d\u52a1;\u7f8e\u5bb9\u7f8e\u53d1\u5e97;\u7f8e\u5bb9\u7f8e\u53d1\u5e97", "pty": "0801"}}, {"type": "Feature", "geometry": {"type": "Point", "coordinates": [121.21379265050851, 31.034835778267688]}, "properties": {"name": "\u66a8\u4e1c\u8dc6\u62f3\u9053\u9986(\u677e\u6c5f\u65b0\u57ce\u5e97)", "biz": "080119|071100 \u4f53\u80b2\u4f11\u95f2\u670d\u52a1;\u8fd0\u52a8\u573a\u9986;\u8dc6\u62f3\u9053\u573a\u9986|\u751f\u6d3b\u670d\u52a1;\u7f8e\u5bb9\u7f8e\u53d1\u5e97;\u7f8e\u5bb9\u7f8e\u53d1\u5e97", "pty": "0801"}}, {"type": "Feature", "geometry": {"type": "Point", "coordinates": [121.29856496512953, 31.149840120854293]}, "properties": {"name": "\u6a31\u59ff\u8513\u5065\u5eb7\u7f8e\u989c\u79d1\u6280\u9986", "biz": "071100|140600 \u751f\u6d3b\u670d\u52a1;\u7f8e\u5bb9\u7f8e\u53d1\u5e97;\u7f8e\u5bb9\u7f8e\u53d1\u5e97|\u79d1\u6559\u6587\u5316\u670d\u52a1;\u79d1\u6280\u9986;\u79d1\u6280\u9986", "pty": "0711"}}, {"type": "Feature", "geometry": {"type": "Point", "coordinates": [121.2136754902114, 31.035115484724002]}, "properties": {"name": "\u65e0\u5fe7\u56f4\u68cb(\u5609\u548c\u4f11\u95f2\u5e7f\u573a\u897f\u533a)", "biz": "071100|141400 \u751f\u6d3b\u670d\u52a1;\u7f8e\u5bb9\u7f8e\u53d1\u5e97;\u7f8e\u5bb9\u7f8e\u53d1\u5e97|\u79d1\u6559\u6587\u5316\u670d\u52a1;\u57f9\u8bad\u673a\u6784;\u57f9\u8bad\u673a\u6784", "pty": "0711"}}, {"type": "Feature", "geometry": {"type": "Point", "coordinates": [121.2140468836336, 31.035572631034974]}, "properties": {"name": "\u8da3\u4e50\u8c46\u00b7\u5965\u6570(\u5609\u548c\u4f11\u95f2\u5e7f\u573a\u5317\u533a)", "biz": "071100|141400 \u751f\u6d3b\u670d\u52a1;\u7f8e\u5bb9\u7f8e\u53d1\u5e97;\u7f8e\u5bb9\u7f8e\u53d1\u5e97|\u79d1\u6559\u6587\u5316\u670d\u52a1;\u57f9\u8bad\u673a\u6784;\u57f9\u8bad\u673a\u6784", "pty": "0711"}}, {"type": "Feature", "geometry": {"type": "Point", "coordinates": [121.21404385397877, 31.035883446690235]}, "properties": {"name": "\u51f9\u51f8\u4e2a\u6027\u6559\u80b2(\u5609\u548c\u4f11\u95f2\u5e7f\u573a\u5317\u533a)", "biz": "071100|141400 \u751f\u6d3b\u670d\u52a1;\u7f8e\u5bb9\u7f8e\u53d1\u5e97;\u7f8e\u5bb9\u7f8e\u53d1\u5e97|\u79d1\u6559\u6587\u5316\u670d\u52a1;\u57f9\u8bad\u673a\u6784;\u57f9\u8bad\u673a\u6784", "pty": "0711"}}, {"type": "Feature", "geometry": {"type": "Point", "coordinates": [121.51028352359137, 30.908007750396845]}, "properties": {"name": "\u90fd\u5e02\u4e3d\u4eba(\u5149\u660e\u8def)", "biz": "061101|071100 \u8d2d\u7269\u670d\u52a1;\u670d\u88c5\u978b\u5e3d\u76ae\u5177\u5e97;\u54c1\u724c\u670d\u88c5\u5e97|\u751f\u6d3b\u670d\u52a1;\u7f8e\u5bb9\u7f8e\u53d1\u5e97;\u7f8e\u5bb9\u7f8e\u53d1\u5e97", "pty": "0611"}}, {"type": "Feature", "geometry": {"type": "Point", "coordinates": [121.47645560324699, 31.22763772676378]}, "properties": {"name": "\u6162\u70b9\u517b\u751f", "biz": "071400|050300|071100 \u751f\u6d3b\u670d\u52a1;\u6d17\u6d74\u63a8\u62ff\u573a\u6240;\u6d17\u6d74\u63a8\u62ff\u573a\u6240|\u9910\u996e\u670d\u52a1;\u5feb\u9910\u5385;\u5feb\u9910\u5385|\u751f\u6d3b\u670d\u52a1;\u7f8e\u5bb9\u7f8e\u53d1\u5e97;\u7f8e\u5bb9\u7f8e\u53d1\u5e97", "pty": "0714"}}, {"type": "Feature", "geometry": {"type": "Point", "coordinates": [121.41150077295337, 31.209638060705917]}, "properties": {"name": "\u9ea6\u9ea6\u7f8e\u7532\u5c4b(\u5ef6\u5b89\u897f\u8def\u5e97)", "biz": "071100|050800 \u751f\u6d3b\u670d\u52a1;\u7f8e\u5bb9\u7f8e\u53d1\u5e97;\u7f8e\u5bb9\u7f8e\u53d1\u5e97|\u9910\u996e\u670d\u52a1;\u7cd5\u997c\u5e97;\u7cd5\u997c\u5e97", "pty": "0711"}}, {"type": "Feature", "geometry": {"type": "Point", "coordinates": [121.4849084947975, 31.257200897630568]}, "properties": {"name": "\u975e\u5496\u5561\u79c1\u4eba\u6c99\u9f99\u5de5\u4f5c\u5ba4", "biz": "071100|050500 \u751f\u6d3b\u670d\u52a1;\u7f8e\u5bb9\u7f8e\u53d1\u5e97;\u7f8e\u5bb9\u7f8e\u53d1\u5e97|\u9910\u996e\u670d\u52a1;\u5496\u5561\u5385;\u5496\u5561\u5385", "pty": "0711"}}, {"type": "Feature", "geometry": {"type": "Point", "coordinates": [121.44840348644917, 31.3321631794612]}, "properties": {"name": "\u7d2b\u51cc\u97f3\u4e50\u6c99\u9f99", "biz": "071100|050600 \u751f\u6d3b\u670d\u52a1;\u7f8e\u5bb9\u7f8e\u53d1\u5e97;\u7f8e\u5bb9\u7f8e\u53d1\u5e97|\u9910\u996e\u670d\u52a1;\u8336\u827a\u9986;\u8336\u827a\u9986", "pty": "0711"}}, {"type": "Feature", "geometry": {"type": "Point", "coordinates": [121.53262800321185, 31.232687006136473]}, "properties": {"name": "\u749e\u73ba\u5f62\u8c61(\u6e90\u6df1\u5e97)", "biz": "071100|050500 \u751f\u6d3b\u670d\u52a1;\u7f8e\u5bb9\u7f8e\u53d1\u5e97;\u7f8e\u5bb9\u7f8e\u53d1\u5e97|\u9910\u996e\u670d\u52a1;\u5496\u5561\u5385;\u5496\u5561\u5385", "pty": "0711"}}, {"type": "Feature", "geometry": {"type": "Point", "coordinates": [121.23995080545775, 31.060091734281333]}, "properties": {"name": "\u6f2b\u9020\u578b(\u4e07\u8fbe\u5e7f\u573a)", "biz": "071100|050500 \u751f\u6d3b\u670d\u52a1;\u7f8e\u5bb9\u7f8e\u53d1\u5e97;\u7f8e\u5bb9\u7f8e\u53d1\u5e97|\u9910\u996e\u670d\u52a1;\u5496\u5561\u5385;\u5496\u5561\u5385", "pty": "0711"}}, {"type": "Feature", "geometry": {"type": "Point", "coordinates": [121.21450438886998, 31.03581199405596]}, "properties": {"name": "\u59dd\u60a6\u70d8\u7119DIY\u4f53\u9a8c\u9986(\u5609\u548c\u4f11\u95f2\u5e7f\u573a\u5317\u533a)", "biz": "050800|071100 \u9910\u996e\u670d\u52a1;\u7cd5\u997c\u5e97;\u7cd5\u997c\u5e97|\u751f\u6d3b\u670d\u52a1;\u7f8e\u5bb9\u7f8e\u53d1\u5e97;\u7f8e\u5bb9\u7f8e\u53d1\u5e97", "pty": "0508"}}]}