{"type": "FeatureCollection", "features": [{"type": "Feature", "geometry": {"type": "Point", "coordinates": [121.42946377862621, 31.17402198645969]}, "properties": {"name": "\u4e0a\u6d77\u5e02\u9f99\u534e\u6ba1\u4eea\u9986", "biz": "071903 \u751f\u6d3b\u670d\u52a1;\u4e27\u846c\u8bbe\u65bd;\u6ba1\u4eea\u9986", "pty": "0719"}}, {"type": "Feature", "geometry": {"type": "Point", "coordinates": [121.46531332592453, 31.270318060325085]}, "properties": {"name": "\u4e0a\u6d77\u5e02\u5b9d\u5174\u6ba1\u4eea\u9986", "biz": "071903 \u751f\u6d3b\u670d\u52a1;\u4e27\u846c\u8bbe\u65bd;\u6ba1\u4eea\u9986", "pty": "0719"}}, {"type": "Feature", "geometry": {"type": "Point", "coordinates": [121.42853661559123, 31.111924717786337]}, "properties": {"name": "\u4e0a\u6d77\u5e02\u76ca\u5584\u6ba1\u4eea\u9986", "biz": "071903 \u751f\u6d3b\u670d\u52a1;\u4e27\u846c\u8bbe\u65bd;\u6ba1\u4eea\u9986", "pty": "0719"}}, {"type": "Feature", "geometry": {"type": "Point", "coordinates": [121.53060013270621, 31.07310135599688]}, "properties": {"name": "\u4e0a\u6d77\u5e02\u95f5\u884c\u533a\u6ba1\u4eea\u9986", "biz": "071903 \u751f\u6d3b\u670d\u52a1;\u4e27\u846c\u8bbe\u65bd;\u6ba1\u4eea\u9986", "pty": "0719"}}, {"type": "Feature", "geometry": {"type": "Point", "coordinates": [121.56940527681164, 31.081752136922443]}, "properties": {"name": "\u666e\u9759\u7eff\u56ed", "biz": "071903 \u751f\u6d3b\u670d\u52a1;\u4e27\u846c\u8bbe\u65bd;\u6ba1\u4eea\u9986", "pty": "0719"}}, {"type": "Feature", "geometry": {"type": "Point", "coordinates": [121.42131240462548, 31.373125585236856]}, "properties": {"name": "\u4e0a\u6d77\u5e02\u5b9d\u5c71\u533a\u6ba1\u4eea\u9986", "biz": "071903 \u751f\u6d3b\u670d\u52a1;\u4e27\u846c\u8bbe\u65bd;\u6ba1\u4eea\u9986", "pty": "0719"}}, {"type": "Feature", "geometry": {"type": "Point", "coordinates": [121.42133744944046, 31.372976658142008]}, "properties": {"name": "\u4e0a\u6d77\u6768\u884c\u6ba1\u4eea\u9986", "biz": "071903 \u751f\u6d3b\u670d\u52a1;\u4e27\u846c\u8bbe\u65bd;\u6ba1\u4eea\u9986", "pty": "0719"}}, {"type": "Feature", "geometry": {"type": "Point", "coordinates": [121.2155637597662, 31.37624653871859]}, "properties": {"name": "\u5609\u5b9a\u533a\u6ba1\u4eea\u9986", "biz": "071903 \u751f\u6d3b\u670d\u52a1;\u4e27\u846c\u8bbe\u65bd;\u6ba1\u4eea\u9986", "pty": "0719"}}, {"type": "Feature", "geometry": {"type": "Point", "coordinates": [121.71428378877495, 31.277316865069356]}, "properties": {"name": "\u4e0a\u6d77\u6d66\u4e1c\u6ba1\u4eea\u9986", "biz": "071903 \u751f\u6d3b\u670d\u52a1;\u4e27\u846c\u8bbe\u65bd;\u6ba1\u4eea\u9986", "pty": "0719"}}, {"type": "Feature", "geometry": {"type": "Point", "coordinates": [121.72627342866626, 31.042461414180185]}, "properties": {"name": "\u4e0a\u6d77\u5e02\u6d66\u4e1c\u65b0\u533a\u5357\u6c47\u6ba1\u4eea\u9986", "biz": "071903 \u751f\u6d3b\u670d\u52a1;\u4e27\u846c\u8bbe\u65bd;\u6ba1\u4eea\u9986", "pty": "0719"}}, {"type": "Feature", "geometry": {"type": "Point", "coordinates": [121.17578740725261, 30.87569325882186]}, "properties": {"name": "\u91d1\u5c71\u533a\u6ba1\u4eea\u9986", "biz": "071903 \u751f\u6d3b\u670d\u52a1;\u4e27\u846c\u8bbe\u65bd;\u6ba1\u4eea\u9986", "pty": "0719"}}, {"type": "Feature", "geometry": {"type": "Point", "coordinates": [121.24635129077183, 31.00529017334601]}, "properties": {"name": "\u677e\u6c5f\u533a\u6ba1\u4eea\u9986", "biz": "071903 \u751f\u6d3b\u670d\u52a1;\u4e27\u846c\u8bbe\u65bd;\u6ba1\u4eea\u9986", "pty": "0719"}}, {"type": "Feature", "geometry": {"type": "Point", "coordinates": [121.08197019026115, 31.157554588149015]}, "properties": {"name": "\u9752\u6d66\u6ba1\u4eea\u9986", "biz": "071903 \u751f\u6d3b\u670d\u52a1;\u4e27\u846c\u8bbe\u65bd;\u6ba1\u4eea\u9986", "pty": "0719"}}, {"type": "Feature", "geometry": {"type": "Point", "coordinates": [121.300841991548, 31.17695619187431]}, "properties": {"name": "\u9f99\u534e\u6ba1\u4eea\u9986\u5b89\u606f\u5802", "biz": "071903 \u751f\u6d3b\u670d\u52a1;\u4e27\u846c\u8bbe\u65bd;\u6ba1\u4eea\u9986", "pty": "0719"}}, {"type": "Feature", "geometry": {"type": "Point", "coordinates": [121.5040955961463, 30.932452102446955]}, "properties": {"name": "\u5949\u8d24\u533a\u6ba1\u4eea\u9986", "biz": "071903 \u751f\u6d3b\u670d\u52a1;\u4e27\u846c\u8bbe\u65bd;\u6ba1\u4eea\u9986", "pty": "0719"}}, {"type": "Feature", "geometry": {"type": "Point", "coordinates": [121.51864151033288, 31.631242872870768]}, "properties": {"name": "\u5d07\u660e\u533a\u6ba1\u4eea\u9986", "biz": "071903 \u751f\u6d3b\u670d\u52a1;\u4e27\u846c\u8bbe\u65bd;\u6ba1\u4eea\u9986", "pty": "0719"}}, {"type": "Feature", "geometry": {"type": "Point", "coordinates": [121.53175819867424, 31.579971815450026]}, "properties": {"name": "\u4e0a\u6d77\u5d07\u660e\u65b0\u6cb3\u6ba1\u4eea\u670d\u52a1\u7ad9", "biz": "071903 \u751f\u6d3b\u670d\u52a1;\u4e27\u846c\u8bbe\u65bd;\u6ba1\u4eea\u9986", "pty": "0719"}}, {"type": "Feature", "geometry": {"type": "Point", "coordinates": [121.39516139325939, 31.633914832641516]}, "properties": {"name": "\u5d07\u660e\u53bf\u6ba1\u4eea\u9986", "biz": "071903 \u751f\u6d3b\u670d\u52a1;\u4e27\u846c\u8bbe\u65bd;\u6ba1\u4eea\u9986", "pty": "0719"}}, {"type": "Feature", "geometry": {"type": "Point", "coordinates": [121.62427311611754, 31.55537259431799]}, "properties": {"name": "\u5821\u9547\u793e\u533a\u6ba1\u4eea\u670d\u52a1\u7ad9", "biz": "071903 \u751f\u6d3b\u670d\u52a1;\u4e27\u846c\u8bbe\u65bd;\u6ba1\u4eea\u9986", "pty": "0719"}}, {"type": "Feature", "geometry": {"type": "Point", "coordinates": [121.82647761064709, 31.374988578183206]}, "properties": {"name": "\u5d07\u660e\u6a2a\u6c99\u6ba1\u4eea\u9986", "biz": "071903 \u751f\u6d3b\u670d\u52a1;\u4e27\u846c\u8bbe\u65bd;\u6ba1\u4eea\u9986", "pty": "0719"}}, {"type": "Feature", "geometry": {"type": "Point", "coordinates": [121.79625956497945, 31.525009718563094]}, "properties": {"name": "\u9648\u5bb6\u9547\u793e\u533a\u6ba1\u4eea\u670d\u52a1\u4e2d\u5fc3", "biz": "071903 \u751f\u6d3b\u670d\u52a1;\u4e27\u846c\u8bbe\u65bd;\u6ba1\u4eea\u9986", "pty": "0719"}}]}