{"type": "FeatureCollection", "features": [{"type": "Feature", "geometry": {"type": "Point", "coordinates": [121.44178805045617, 31.325826117620938]}, "properties": {"name": "Shenhui(\u4e07\u8fbe\u5e7f\u573a)", "biz": "060305|060900 \u8d2d\u7269\u670d\u52a1;\u5bb6\u7535\u7535\u5b50\u5356\u573a;\u624b\u673a\u9500\u552e|\u8d2d\u7269\u670d\u52a1;\u4f53\u80b2\u7528\u54c1\u5e97;\u4f53\u80b2\u7528\u54c1\u5e97", "pty": "0603"}}, {"type": "Feature", "geometry": {"type": "Point", "coordinates": [121.40388897200393, 31.04457455314175]}, "properties": {"name": "361\u5ea6(\u65b0\u5efa\u8857)", "biz": "061207|060900 \u8d2d\u7269\u670d\u52a1;\u4e13\u5356\u5e97;\u513f\u7ae5\u7528\u54c1\u5e97|\u8d2d\u7269\u670d\u52a1;\u4f53\u80b2\u7528\u54c1\u5e97;\u4f53\u80b2\u7528\u54c1\u5e97", "pty": "0612"}}, {"type": "Feature", "geometry": {"type": "Point", "coordinates": [121.40752274187004, 31.272518440847577]}, "properties": {"name": "new balance(\u5df4\u9ece\u6625\u5929)", "biz": "061207|060900 \u8d2d\u7269\u670d\u52a1;\u4e13\u5356\u5e97;\u513f\u7ae5\u7528\u54c1\u5e97|\u8d2d\u7269\u670d\u52a1;\u4f53\u80b2\u7528\u54c1\u5e97;\u4f53\u80b2\u7528\u54c1\u5e97", "pty": "0612"}}, {"type": "Feature", "geometry": {"type": "Point", "coordinates": [121.69360926298656, 31.196326222943036]}, "properties": {"name": "\u5b89\u8e0f\u513f\u7ae5(\u5ddd\u6c99\u8def)", "biz": "061207|060900 \u8d2d\u7269\u670d\u52a1;\u4e13\u5356\u5e97;\u513f\u7ae5\u7528\u54c1\u5e97|\u8d2d\u7269\u670d\u52a1;\u4f53\u80b2\u7528\u54c1\u5e97;\u4f53\u80b2\u7528\u54c1\u5e97", "pty": "0612"}}, {"type": "Feature", "geometry": {"type": "Point", "coordinates": [121.1076790544835, 31.148119669469057]}, "properties": {"name": "\u5b89\u8e0f\u513f\u7ae5(\u57ce\u4e2d\u4e1c\u8def)", "biz": "061207|060900 \u8d2d\u7269\u670d\u52a1;\u4e13\u5356\u5e97;\u513f\u7ae5\u7528\u54c1\u5e97|\u8d2d\u7269\u670d\u52a1;\u4f53\u80b2\u7528\u54c1\u5e97;\u4f53\u80b2\u7528\u54c1\u5e97", "pty": "0612"}}, {"type": "Feature", "geometry": {"type": "Point", "coordinates": [121.36576357294233, 31.21115094565712]}, "properties": {"name": "Levi's(\u767e\u8054\u897f\u90ca\u8d2d\u7269\u4e2d\u5fc3)", "biz": "061101|060900 \u8d2d\u7269\u670d\u52a1;\u670d\u88c5\u978b\u5e3d\u76ae\u5177\u5e97;\u54c1\u724c\u670d\u88c5\u5e97|\u8d2d\u7269\u670d\u52a1;\u4f53\u80b2\u7528\u54c1\u5e97;\u4f53\u80b2\u7528\u54c1\u5e97", "pty": "0611"}}, {"type": "Feature", "geometry": {"type": "Point", "coordinates": [121.39568367862977, 31.197355915731507]}, "properties": {"name": "asics", "biz": "061101|060900 \u8d2d\u7269\u670d\u52a1;\u670d\u88c5\u978b\u5e3d\u76ae\u5177\u5e97;\u54c1\u724c\u670d\u88c5\u5e97|\u8d2d\u7269\u670d\u52a1;\u4f53\u80b2\u7528\u54c1\u5e97;\u4f53\u80b2\u7528\u54c1\u5e97", "pty": "0611"}}, {"type": "Feature", "geometry": {"type": "Point", "coordinates": [121.41130664981073, 31.220883574580647]}, "properties": {"name": "SKECHERS(\u9f99\u4e4b\u68a6\u8d2d\u7269\u4e2d\u5fc3)", "biz": "061101|060900 \u8d2d\u7269\u670d\u52a1;\u670d\u88c5\u978b\u5e3d\u76ae\u5177\u5e97;\u54c1\u724c\u670d\u88c5\u5e97|\u8d2d\u7269\u670d\u52a1;\u4f53\u80b2\u7528\u54c1\u5e97;\u4f53\u80b2\u7528\u54c1\u5e97", "pty": "0611"}}, {"type": "Feature", "geometry": {"type": "Point", "coordinates": [121.39843430050894, 31.212608420851566]}, "properties": {"name": "hosa(\u767e\u76db\u4f18\u5ba2\u57ce\u5e02\u5e7f\u573a\u897f\u697c)", "biz": "061101|060900 \u8d2d\u7269\u670d\u52a1;\u670d\u88c5\u978b\u5e3d\u76ae\u5177\u5e97;\u54c1\u724c\u670d\u88c5\u5e97|\u8d2d\u7269\u670d\u52a1;\u4f53\u80b2\u7528\u54c1\u5e97;\u4f53\u80b2\u7528\u54c1\u5e97", "pty": "0611"}}, {"type": "Feature", "geometry": {"type": "Point", "coordinates": [121.44416526709041, 31.225498808703247]}, "properties": {"name": "lululemon(\u9759\u5b89\u5609\u91cc\u4e2d\u5fc3\u5e97)", "biz": "061101|060900 \u8d2d\u7269\u670d\u52a1;\u670d\u88c5\u978b\u5e3d\u76ae\u5177\u5e97;\u54c1\u724c\u670d\u88c5\u5e97|\u8d2d\u7269\u670d\u52a1;\u4f53\u80b2\u7528\u54c1\u5e97;\u4f53\u80b2\u7528\u54c1\u5e97", "pty": "0611"}}, {"type": "Feature", "geometry": {"type": "Point", "coordinates": [121.46756959749109, 31.24581178253515]}, "properties": {"name": "CONVERSE(\u4e0a\u6d77\u5927\u60a6\u57ce\u5317\u5ea7)", "biz": "061101|060900 \u8d2d\u7269\u670d\u52a1;\u670d\u88c5\u978b\u5e3d\u76ae\u5177\u5e97;\u54c1\u724c\u670d\u88c5\u5e97|\u8d2d\u7269\u670d\u52a1;\u4f53\u80b2\u7528\u54c1\u5e97;\u4f53\u80b2\u7528\u54c1\u5e97", "pty": "0611"}}, {"type": "Feature", "geometry": {"type": "Point", "coordinates": [121.45412944224212, 31.231738427474497]}, "properties": {"name": "NewBalance(\u4e5d\u767e\u5357\u4eac\u897f\u8def958\u53f7\u5e97)", "biz": "061102|060900 \u8d2d\u7269\u670d\u52a1;\u670d\u88c5\u978b\u5e3d\u76ae\u5177\u5e97;\u54c1\u724c\u978b\u5e97|\u8d2d\u7269\u670d\u52a1;\u4f53\u80b2\u7528\u54c1\u5e97;\u4f53\u80b2\u7528\u54c1\u5e97", "pty": "0611"}}, {"type": "Feature", "geometry": {"type": "Point", "coordinates": [121.45247360137931, 31.246753779736647]}, "properties": {"name": "SKECHERS(\u592a\u5e73\u6d0b\u767e\u8d27)", "biz": "061102|060900 \u8d2d\u7269\u670d\u52a1;\u670d\u88c5\u978b\u5e3d\u76ae\u5177\u5e97;\u54c1\u724c\u978b\u5e97|\u8d2d\u7269\u670d\u52a1;\u4f53\u80b2\u7528\u54c1\u5e97;\u4f53\u80b2\u7528\u54c1\u5e97", "pty": "0611"}}, {"type": "Feature", "geometry": {"type": "Point", "coordinates": [121.46047299572662, 31.275589388423104]}, "properties": {"name": "\u65b0\u767e\u4f26(\u8679\u53e3\u767e\u8054\u5e97)", "biz": "061102|060900 \u8d2d\u7269\u670d\u52a1;\u670d\u88c5\u978b\u5e3d\u76ae\u5177\u5e97;\u54c1\u724c\u978b\u5e97|\u8d2d\u7269\u670d\u52a1;\u4f53\u80b2\u7528\u54c1\u5e97;\u4f53\u80b2\u7528\u54c1\u5e97", "pty": "0611"}}, {"type": "Feature", "geometry": {"type": "Point", "coordinates": [121.40747412993218, 31.23338174406624]}, "properties": {"name": "OTR(\u4e0a\u6d77\u73af\u7403\u6e2f)", "biz": "061101|060900 \u8d2d\u7269\u670d\u52a1;\u670d\u88c5\u978b\u5e3d\u76ae\u5177\u5e97;\u54c1\u724c\u670d\u88c5\u5e97|\u8d2d\u7269\u670d\u52a1;\u4f53\u80b2\u7528\u54c1\u5e97;\u4f53\u80b2\u7528\u54c1\u5e97", "pty": "0611"}}, {"type": "Feature", "geometry": {"type": "Point", "coordinates": [121.37896375673729, 31.247519667362752]}, "properties": {"name": "\u65af\u51ef\u5947(\u767e\u8054\u4e2d\u73af\u8d2d\u7269\u5e7f\u573a)", "biz": "061101|060900 \u8d2d\u7269\u670d\u52a1;\u670d\u88c5\u978b\u5e3d\u76ae\u5177\u5e97;\u54c1\u724c\u670d\u88c5\u5e97|\u8d2d\u7269\u670d\u52a1;\u4f53\u80b2\u7528\u54c1\u5e97;\u4f53\u80b2\u7528\u54c1\u5e97", "pty": "0611"}}, {"type": "Feature", "geometry": {"type": "Point", "coordinates": [121.51155284369585, 31.30342384352152]}, "properties": {"name": "RAPIDO(\u767e\u8054\u53c8\u4e00\u57ce\u8d2d\u7269\u4e2d\u5fc3)", "biz": "061101|060900 \u8d2d\u7269\u670d\u52a1;\u670d\u88c5\u978b\u5e3d\u76ae\u5177\u5e97;\u54c1\u724c\u670d\u88c5\u5e97|\u8d2d\u7269\u670d\u52a1;\u4f53\u80b2\u7528\u54c1\u5e97;\u4f53\u80b2\u7528\u54c1\u5e97", "pty": "0611"}}, {"type": "Feature", "geometry": {"type": "Point", "coordinates": [121.51282129530593, 31.30314061349443]}, "properties": {"name": "COnVERSE(\u5927\u897f\u6d0b\u767e\u8d27)", "biz": "061102|060900 \u8d2d\u7269\u670d\u52a1;\u670d\u88c5\u978b\u5e3d\u76ae\u5177\u5e97;\u54c1\u724c\u978b\u5e97|\u8d2d\u7269\u670d\u52a1;\u4f53\u80b2\u7528\u54c1\u5e97;\u4f53\u80b2\u7528\u54c1\u5e97", "pty": "0611"}}, {"type": "Feature", "geometry": {"type": "Point", "coordinates": [121.38343619009788, 31.10946928441312]}, "properties": {"name": "new balance(\u4ef2\u76db\u4e16\u754c\u5546\u57ce)", "biz": "061102|060900 \u8d2d\u7269\u670d\u52a1;\u670d\u88c5\u978b\u5e3d\u76ae\u5177\u5e97;\u54c1\u724c\u978b\u5e97|\u8d2d\u7269\u670d\u52a1;\u4f53\u80b2\u7528\u54c1\u5e97;\u4f53\u80b2\u7528\u54c1\u5e97", "pty": "0611"}}, {"type": "Feature", "geometry": {"type": "Point", "coordinates": [121.44295878886034, 31.32528056703605]}, "properties": {"name": "VANS(\u4e07\u8fbe\u5e7f\u573a)", "biz": "061101|060900 \u8d2d\u7269\u670d\u52a1;\u670d\u88c5\u978b\u5e3d\u76ae\u5177\u5e97;\u54c1\u724c\u670d\u88c5\u5e97|\u8d2d\u7269\u670d\u52a1;\u4f53\u80b2\u7528\u54c1\u5e97;\u4f53\u80b2\u7528\u54c1\u5e97", "pty": "0611"}}, {"type": "Feature", "geometry": {"type": "Point", "coordinates": [121.37854107593036, 31.316970299536305]}, "properties": {"name": "361\u5ea6(\u805a\u4e30\u56ed\u8def\u5e97)", "biz": "061101|060900 \u8d2d\u7269\u670d\u52a1;\u670d\u88c5\u978b\u5e3d\u76ae\u5177\u5e97;\u54c1\u724c\u670d\u88c5\u5e97|\u8d2d\u7269\u670d\u52a1;\u4f53\u80b2\u7528\u54c1\u5e97;\u4f53\u80b2\u7528\u54c1\u5e97", "pty": "0611"}}, {"type": "Feature", "geometry": {"type": "Point", "coordinates": [121.3033487884321, 31.29316455455333]}, "properties": {"name": "\u82f1\u56fd\u7ebd\u767e\u4f26(\u5357\u7fd4\u89e3\u653e\u8857)", "biz": "061102|060900 \u8d2d\u7269\u670d\u52a1;\u670d\u88c5\u978b\u5e3d\u76ae\u5177\u5e97;\u54c1\u724c\u978b\u5e97|\u8d2d\u7269\u670d\u52a1;\u4f53\u80b2\u7528\u54c1\u5e97;\u4f53\u80b2\u7528\u54c1\u5e97", "pty": "0611"}}, {"type": "Feature", "geometry": {"type": "Point", "coordinates": [121.47286693888213, 31.23414559139022]}, "properties": {"name": "EVISU(\u6765\u798f\u58eb\u5e7f\u573a)", "biz": "061101|060900 \u8d2d\u7269\u670d\u52a1;\u670d\u88c5\u978b\u5e3d\u76ae\u5177\u5e97;\u54c1\u724c\u670d\u88c5\u5e97|\u8d2d\u7269\u670d\u52a1;\u4f53\u80b2\u7528\u54c1\u5e97;\u4f53\u80b2\u7528\u54c1\u5e97", "pty": "0611"}}, {"type": "Feature", "geometry": {"type": "Point", "coordinates": [121.48026575579574, 31.2389964481724]}, "properties": {"name": "VANS((\u65b0\u4e16\u754c\u5b8f\u4f0a\u5e97)", "biz": "061102|060900 \u8d2d\u7269\u670d\u52a1;\u670d\u88c5\u978b\u5e3d\u76ae\u5177\u5e97;\u54c1\u724c\u978b\u5e97|\u8d2d\u7269\u670d\u52a1;\u4f53\u80b2\u7528\u54c1\u5e97;\u4f53\u80b2\u7528\u54c1\u5e97", "pty": "0611"}}, {"type": "Feature", "geometry": {"type": "Point", "coordinates": [121.45481850402636, 31.218503237870305]}, "properties": {"name": "new balance(\u5df4\u9ece\u6625\u5929\u767e\u8d27)", "biz": "061102|060900 \u8d2d\u7269\u670d\u52a1;\u670d\u88c5\u978b\u5e3d\u76ae\u5177\u5e97;\u54c1\u724c\u978b\u5e97|\u8d2d\u7269\u670d\u52a1;\u4f53\u80b2\u7528\u54c1\u5e97;\u4f53\u80b2\u7528\u54c1\u5e97", "pty": "0611"}}, {"type": "Feature", "geometry": {"type": "Point", "coordinates": [121.43560601654143, 31.197453654990735]}, "properties": {"name": "RAPIDO(\u6c47\u91d1\u767e\u8d27\u897f\u533a)", "biz": "061101|060900 \u8d2d\u7269\u670d\u52a1;\u670d\u88c5\u978b\u5e3d\u76ae\u5177\u5e97;\u54c1\u724c\u670d\u88c5\u5e97|\u8d2d\u7269\u670d\u52a1;\u4f53\u80b2\u7528\u54c1\u5e97;\u4f53\u80b2\u7528\u54c1\u5e97", "pty": "0611"}}, {"type": "Feature", "geometry": {"type": "Point", "coordinates": [121.43572428121477, 31.197110020679048]}, "properties": {"name": "NAUTICA(\u6c47\u91d1\u767e\u8d27\u897f\u533a)", "biz": "061101|060900 \u8d2d\u7269\u670d\u52a1;\u670d\u88c5\u978b\u5e3d\u76ae\u5177\u5e97;\u54c1\u724c\u670d\u88c5\u5e97|\u8d2d\u7269\u670d\u52a1;\u4f53\u80b2\u7528\u54c1\u5e97;\u4f53\u80b2\u7528\u54c1\u5e97", "pty": "0611"}}, {"type": "Feature", "geometry": {"type": "Point", "coordinates": [121.42296843843256, 31.15648382111205]}, "properties": {"name": "La Chapelle SPORT(\u6c47\u91d1\u5965\u7279\u83b1\u65af\u5317\u5e7f\u573a)", "biz": "061101|060900 \u8d2d\u7269\u670d\u52a1;\u670d\u88c5\u978b\u5e3d\u76ae\u5177\u5e97;\u54c1\u724c\u670d\u88c5\u5e97|\u8d2d\u7269\u670d\u52a1;\u4f53\u80b2\u7528\u54c1\u5e97;\u4f53\u80b2\u7528\u54c1\u5e97", "pty": "0611"}}, {"type": "Feature", "geometry": {"type": "Point", "coordinates": [121.49514169405724, 31.23863572119418]}, "properties": {"name": "NAUTICA(\u6b63\u5927\u5e7f\u573a)", "biz": "061101|060900 \u8d2d\u7269\u670d\u52a1;\u670d\u88c5\u978b\u5e3d\u76ae\u5177\u5e97;\u54c1\u724c\u670d\u88c5\u5e97|\u8d2d\u7269\u670d\u52a1;\u4f53\u80b2\u7528\u54c1\u5e97;\u4f53\u80b2\u7528\u54c1\u5e97", "pty": "0611"}}, {"type": "Feature", "geometry": {"type": "Point", "coordinates": [121.56542829426432, 31.11665505816607]}, "properties": {"name": "sport100\u4f53\u80b2\u7528\u54c1\u5e97", "biz": "061101|060900 \u8d2d\u7269\u670d\u52a1;\u670d\u88c5\u978b\u5e3d\u76ae\u5177\u5e97;\u54c1\u724c\u670d\u88c5\u5e97|\u8d2d\u7269\u670d\u52a1;\u4f53\u80b2\u7528\u54c1\u5e97;\u4f53\u80b2\u7528\u54c1\u5e97", "pty": "0611"}}, {"type": "Feature", "geometry": {"type": "Point", "coordinates": [121.4947512518332, 31.239058357896607]}, "properties": {"name": "MLB(\u6b63\u5927\u5e7f\u573a)", "biz": "061101|060900 \u8d2d\u7269\u670d\u52a1;\u670d\u88c5\u978b\u5e3d\u76ae\u5177\u5e97;\u54c1\u724c\u670d\u88c5\u5e97|\u8d2d\u7269\u670d\u52a1;\u4f53\u80b2\u7528\u54c1\u5e97;\u4f53\u80b2\u7528\u54c1\u5e97", "pty": "0611"}}, {"type": "Feature", "geometry": {"type": "Point", "coordinates": [121.55937226460152, 31.155922654541993]}, "properties": {"name": "SKECHERS(\u767e\u8054\u4e1c\u90ca\u8d2d\u7269\u4e2d\u5fc3)", "biz": "061101|060900 \u8d2d\u7269\u670d\u52a1;\u670d\u88c5\u978b\u5e3d\u76ae\u5177\u5e97;\u54c1\u724c\u670d\u88c5\u5e97|\u8d2d\u7269\u670d\u52a1;\u4f53\u80b2\u7528\u54c1\u5e97;\u4f53\u80b2\u7528\u54c1\u5e97", "pty": "0611"}}, {"type": "Feature", "geometry": {"type": "Point", "coordinates": [121.58282818388746, 31.27326903344429]}, "properties": {"name": "COnVERSE(\u6587\u5cf0\u5e7f\u573a)", "biz": "061102|060900 \u8d2d\u7269\u670d\u52a1;\u670d\u88c5\u978b\u5e3d\u76ae\u5177\u5e97;\u54c1\u724c\u978b\u5e97|\u8d2d\u7269\u670d\u52a1;\u4f53\u80b2\u7528\u54c1\u5e97;\u4f53\u80b2\u7528\u54c1\u5e97", "pty": "0611"}}, {"type": "Feature", "geometry": {"type": "Point", "coordinates": [121.56461991642546, 31.11714976502636]}, "properties": {"name": "FOOTMARK(\u4e07\u8fbe\u5e7f\u573a)", "biz": "061102|060900 \u8d2d\u7269\u670d\u52a1;\u670d\u88c5\u978b\u5e3d\u76ae\u5177\u5e97;\u54c1\u724c\u978b\u5e97|\u8d2d\u7269\u670d\u52a1;\u4f53\u80b2\u7528\u54c1\u5e97;\u4f53\u80b2\u7528\u54c1\u5e97", "pty": "0611"}}, {"type": "Feature", "geometry": {"type": "Point", "coordinates": [121.4872256582214, 31.151984798684047]}, "properties": {"name": "\u7ebd\u5df4\u4f26(\u68ee\u5b8f\u8d2d\u7269\u5e7f\u573a)", "biz": "061102|060900 \u8d2d\u7269\u670d\u52a1;\u670d\u88c5\u978b\u5e3d\u76ae\u5177\u5e97;\u54c1\u724c\u978b\u5e97|\u8d2d\u7269\u670d\u52a1;\u4f53\u80b2\u7528\u54c1\u5e97;\u4f53\u80b2\u7528\u54c1\u5e97", "pty": "0611"}}, {"type": "Feature", "geometry": {"type": "Point", "coordinates": [121.51229059099353, 31.230166393437194]}, "properties": {"name": "VANS(\u4e0a\u6d77\u7b2c\u4e00\u516b\u4f70\u4f34\u65b0\u4e16\u7eaa\u5546\u53a6)", "biz": "061102|060900 \u8d2d\u7269\u670d\u52a1;\u670d\u88c5\u978b\u5e3d\u76ae\u5177\u5e97;\u54c1\u724c\u978b\u5e97|\u8d2d\u7269\u670d\u52a1;\u4f53\u80b2\u7528\u54c1\u5e97;\u4f53\u80b2\u7528\u54c1\u5e97", "pty": "0611"}}, {"type": "Feature", "geometry": {"type": "Point", "coordinates": [121.21494351128318, 31.040267878353607]}, "properties": {"name": "VANS(\u5f00\u5143\u5730\u4e2d\u6d77\u5546\u4e1a\u5e7f\u573a)", "biz": "061102|060900 \u8d2d\u7269\u670d\u52a1;\u670d\u88c5\u978b\u5e3d\u76ae\u5177\u5e97;\u54c1\u724c\u978b\u5e97|\u8d2d\u7269\u670d\u52a1;\u4f53\u80b2\u7528\u54c1\u5e97;\u4f53\u80b2\u7528\u54c1\u5e97", "pty": "0611"}}, {"type": "Feature", "geometry": {"type": "Point", "coordinates": [121.22430241010828, 31.159034606073792]}, "properties": {"name": "VANS(\u5965\u7279\u83b1\u65af\u5e97)", "biz": "061101|060900 \u8d2d\u7269\u670d\u52a1;\u670d\u88c5\u978b\u5e3d\u76ae\u5177\u5e97;\u54c1\u724c\u670d\u88c5\u5e97|\u8d2d\u7269\u670d\u52a1;\u4f53\u80b2\u7528\u54c1\u5e97;\u4f53\u80b2\u7528\u54c1\u5e97", "pty": "0611"}}, {"type": "Feature", "geometry": {"type": "Point", "coordinates": [121.10781390685578, 31.150646415432206]}, "properties": {"name": "Converse(\u4e1c\u65b9\u5546\u53a6)", "biz": "061101|060900 \u8d2d\u7269\u670d\u52a1;\u670d\u88c5\u978b\u5e3d\u76ae\u5177\u5e97;\u54c1\u724c\u670d\u88c5\u5e97|\u8d2d\u7269\u670d\u52a1;\u4f53\u80b2\u7528\u54c1\u5e97;\u4f53\u80b2\u7528\u54c1\u5e97", "pty": "0611"}}, {"type": "Feature", "geometry": {"type": "Point", "coordinates": [121.22312742675452, 31.15960238278387]}, "properties": {"name": "DC", "biz": "061101|060900 \u8d2d\u7269\u670d\u52a1;\u670d\u88c5\u978b\u5e3d\u76ae\u5177\u5e97;\u54c1\u724c\u670d\u88c5\u5e97|\u8d2d\u7269\u670d\u52a1;\u4f53\u80b2\u7528\u54c1\u5e97;\u4f53\u80b2\u7528\u54c1\u5e97", "pty": "0611"}}, {"type": "Feature", "geometry": {"type": "Point", "coordinates": [121.36576357294233, 31.21115094565712]}, "properties": {"name": "Levi's(\u767e\u8054\u897f\u90ca\u8d2d\u7269\u4e2d\u5fc3)", "biz": "061101|060900 \u8d2d\u7269\u670d\u52a1;\u670d\u88c5\u978b\u5e3d\u76ae\u5177\u5e97;\u54c1\u724c\u670d\u88c5\u5e97|\u8d2d\u7269\u670d\u52a1;\u4f53\u80b2\u7528\u54c1\u5e97;\u4f53\u80b2\u7528\u54c1\u5e97", "pty": "0611"}}, {"type": "Feature", "geometry": {"type": "Point", "coordinates": [121.39568367862977, 31.197355915731507]}, "properties": {"name": "asics", "biz": "061101|060900 \u8d2d\u7269\u670d\u52a1;\u670d\u88c5\u978b\u5e3d\u76ae\u5177\u5e97;\u54c1\u724c\u670d\u88c5\u5e97|\u8d2d\u7269\u670d\u52a1;\u4f53\u80b2\u7528\u54c1\u5e97;\u4f53\u80b2\u7528\u54c1\u5e97", "pty": "0611"}}, {"type": "Feature", "geometry": {"type": "Point", "coordinates": [121.41130664981073, 31.220883574580647]}, "properties": {"name": "SKECHERS(\u9f99\u4e4b\u68a6\u8d2d\u7269\u4e2d\u5fc3)", "biz": "061101|060900 \u8d2d\u7269\u670d\u52a1;\u670d\u88c5\u978b\u5e3d\u76ae\u5177\u5e97;\u54c1\u724c\u670d\u88c5\u5e97|\u8d2d\u7269\u670d\u52a1;\u4f53\u80b2\u7528\u54c1\u5e97;\u4f53\u80b2\u7528\u54c1\u5e97", "pty": "0611"}}, {"type": "Feature", "geometry": {"type": "Point", "coordinates": [121.39843430050894, 31.212608420851566]}, "properties": {"name": "hosa(\u767e\u76db\u4f18\u5ba2\u57ce\u5e02\u5e7f\u573a\u897f\u697c)", "biz": "061101|060900 \u8d2d\u7269\u670d\u52a1;\u670d\u88c5\u978b\u5e3d\u76ae\u5177\u5e97;\u54c1\u724c\u670d\u88c5\u5e97|\u8d2d\u7269\u670d\u52a1;\u4f53\u80b2\u7528\u54c1\u5e97;\u4f53\u80b2\u7528\u54c1\u5e97", "pty": "0611"}}, {"type": "Feature", "geometry": {"type": "Point", "coordinates": [121.44416526709041, 31.225498808703247]}, "properties": {"name": "lululemon(\u9759\u5b89\u5609\u91cc\u4e2d\u5fc3\u5e97)", "biz": "061101|060900 \u8d2d\u7269\u670d\u52a1;\u670d\u88c5\u978b\u5e3d\u76ae\u5177\u5e97;\u54c1\u724c\u670d\u88c5\u5e97|\u8d2d\u7269\u670d\u52a1;\u4f53\u80b2\u7528\u54c1\u5e97;\u4f53\u80b2\u7528\u54c1\u5e97", "pty": "0611"}}, {"type": "Feature", "geometry": {"type": "Point", "coordinates": [121.46756959749109, 31.24581178253515]}, "properties": {"name": "CONVERSE(\u4e0a\u6d77\u5927\u60a6\u57ce\u5317\u5ea7)", "biz": "061101|060900 \u8d2d\u7269\u670d\u52a1;\u670d\u88c5\u978b\u5e3d\u76ae\u5177\u5e97;\u54c1\u724c\u670d\u88c5\u5e97|\u8d2d\u7269\u670d\u52a1;\u4f53\u80b2\u7528\u54c1\u5e97;\u4f53\u80b2\u7528\u54c1\u5e97", "pty": "0611"}}, {"type": "Feature", "geometry": {"type": "Point", "coordinates": [121.45412944224212, 31.231738427474497]}, "properties": {"name": "NewBalance(\u4e5d\u767e\u5357\u4eac\u897f\u8def958\u53f7\u5e97)", "biz": "061102|060900 \u8d2d\u7269\u670d\u52a1;\u670d\u88c5\u978b\u5e3d\u76ae\u5177\u5e97;\u54c1\u724c\u978b\u5e97|\u8d2d\u7269\u670d\u52a1;\u4f53\u80b2\u7528\u54c1\u5e97;\u4f53\u80b2\u7528\u54c1\u5e97", "pty": "0611"}}, {"type": "Feature", "geometry": {"type": "Point", "coordinates": [121.45247360137931, 31.246753779736647]}, "properties": {"name": "SKECHERS(\u592a\u5e73\u6d0b\u767e\u8d27)", "biz": "061102|060900 \u8d2d\u7269\u670d\u52a1;\u670d\u88c5\u978b\u5e3d\u76ae\u5177\u5e97;\u54c1\u724c\u978b\u5e97|\u8d2d\u7269\u670d\u52a1;\u4f53\u80b2\u7528\u54c1\u5e97;\u4f53\u80b2\u7528\u54c1\u5e97", "pty": "0611"}}, {"type": "Feature", "geometry": {"type": "Point", "coordinates": [121.46047299572662, 31.275589388423104]}, "properties": {"name": "\u65b0\u767e\u4f26(\u8679\u53e3\u767e\u8054\u5e97)", "biz": "061102|060900 \u8d2d\u7269\u670d\u52a1;\u670d\u88c5\u978b\u5e3d\u76ae\u5177\u5e97;\u54c1\u724c\u978b\u5e97|\u8d2d\u7269\u670d\u52a1;\u4f53\u80b2\u7528\u54c1\u5e97;\u4f53\u80b2\u7528\u54c1\u5e97", "pty": "0611"}}, {"type": "Feature", "geometry": {"type": "Point", "coordinates": [121.40747412993218, 31.23338174406624]}, "properties": {"name": "OTR(\u4e0a\u6d77\u73af\u7403\u6e2f)", "biz": "061101|060900 \u8d2d\u7269\u670d\u52a1;\u670d\u88c5\u978b\u5e3d\u76ae\u5177\u5e97;\u54c1\u724c\u670d\u88c5\u5e97|\u8d2d\u7269\u670d\u52a1;\u4f53\u80b2\u7528\u54c1\u5e97;\u4f53\u80b2\u7528\u54c1\u5e97", "pty": "0611"}}, {"type": "Feature", "geometry": {"type": "Point", "coordinates": [121.37896375673729, 31.247519667362752]}, "properties": {"name": "\u65af\u51ef\u5947(\u767e\u8054\u4e2d\u73af\u8d2d\u7269\u5e7f\u573a)", "biz": "061101|060900 \u8d2d\u7269\u670d\u52a1;\u670d\u88c5\u978b\u5e3d\u76ae\u5177\u5e97;\u54c1\u724c\u670d\u88c5\u5e97|\u8d2d\u7269\u670d\u52a1;\u4f53\u80b2\u7528\u54c1\u5e97;\u4f53\u80b2\u7528\u54c1\u5e97", "pty": "0611"}}, {"type": "Feature", "geometry": {"type": "Point", "coordinates": [121.51155284369585, 31.30342384352152]}, "properties": {"name": "RAPIDO(\u767e\u8054\u53c8\u4e00\u57ce\u8d2d\u7269\u4e2d\u5fc3)", "biz": "061101|060900 \u8d2d\u7269\u670d\u52a1;\u670d\u88c5\u978b\u5e3d\u76ae\u5177\u5e97;\u54c1\u724c\u670d\u88c5\u5e97|\u8d2d\u7269\u670d\u52a1;\u4f53\u80b2\u7528\u54c1\u5e97;\u4f53\u80b2\u7528\u54c1\u5e97", "pty": "0611"}}, {"type": "Feature", "geometry": {"type": "Point", "coordinates": [121.51282129530593, 31.30314061349443]}, "properties": {"name": "COnVERSE(\u5927\u897f\u6d0b\u767e\u8d27)", "biz": "061102|060900 \u8d2d\u7269\u670d\u52a1;\u670d\u88c5\u978b\u5e3d\u76ae\u5177\u5e97;\u54c1\u724c\u978b\u5e97|\u8d2d\u7269\u670d\u52a1;\u4f53\u80b2\u7528\u54c1\u5e97;\u4f53\u80b2\u7528\u54c1\u5e97", "pty": "0611"}}, {"type": "Feature", "geometry": {"type": "Point", "coordinates": [121.38343619009788, 31.10946928441312]}, "properties": {"name": "new balance(\u4ef2\u76db\u4e16\u754c\u5546\u57ce)", "biz": "061102|060900 \u8d2d\u7269\u670d\u52a1;\u670d\u88c5\u978b\u5e3d\u76ae\u5177\u5e97;\u54c1\u724c\u978b\u5e97|\u8d2d\u7269\u670d\u52a1;\u4f53\u80b2\u7528\u54c1\u5e97;\u4f53\u80b2\u7528\u54c1\u5e97", "pty": "0611"}}, {"type": "Feature", "geometry": {"type": "Point", "coordinates": [121.40388897200393, 31.04457455314175]}, "properties": {"name": "361\u5ea6(\u65b0\u5efa\u8857)", "biz": "061207|060900 \u8d2d\u7269\u670d\u52a1;\u4e13\u5356\u5e97;\u513f\u7ae5\u7528\u54c1\u5e97|\u8d2d\u7269\u670d\u52a1;\u4f53\u80b2\u7528\u54c1\u5e97;\u4f53\u80b2\u7528\u54c1\u5e97", "pty": "0612"}}, {"type": "Feature", "geometry": {"type": "Point", "coordinates": [121.44178805045617, 31.325826117620938]}, "properties": {"name": "Shenhui(\u4e07\u8fbe\u5e7f\u573a)", "biz": "060305|060900 \u8d2d\u7269\u670d\u52a1;\u5bb6\u7535\u7535\u5b50\u5356\u573a;\u624b\u673a\u9500\u552e|\u8d2d\u7269\u670d\u52a1;\u4f53\u80b2\u7528\u54c1\u5e97;\u4f53\u80b2\u7528\u54c1\u5e97", "pty": "0603"}}, {"type": "Feature", "geometry": {"type": "Point", "coordinates": [121.44295878886034, 31.32528056703605]}, "properties": {"name": "VANS(\u4e07\u8fbe\u5e7f\u573a)", "biz": "061101|060900 \u8d2d\u7269\u670d\u52a1;\u670d\u88c5\u978b\u5e3d\u76ae\u5177\u5e97;\u54c1\u724c\u670d\u88c5\u5e97|\u8d2d\u7269\u670d\u52a1;\u4f53\u80b2\u7528\u54c1\u5e97;\u4f53\u80b2\u7528\u54c1\u5e97", "pty": "0611"}}, {"type": "Feature", "geometry": {"type": "Point", "coordinates": [121.37854107593036, 31.316970299536305]}, "properties": {"name": "361\u5ea6(\u805a\u4e30\u56ed\u8def\u5e97)", "biz": "061101|060900 \u8d2d\u7269\u670d\u52a1;\u670d\u88c5\u978b\u5e3d\u76ae\u5177\u5e97;\u54c1\u724c\u670d\u88c5\u5e97|\u8d2d\u7269\u670d\u52a1;\u4f53\u80b2\u7528\u54c1\u5e97;\u4f53\u80b2\u7528\u54c1\u5e97", "pty": "0611"}}, {"type": "Feature", "geometry": {"type": "Point", "coordinates": [121.40752274187004, 31.272518440847577]}, "properties": {"name": "new balance(\u5df4\u9ece\u6625\u5929)", "biz": "061207|060900 \u8d2d\u7269\u670d\u52a1;\u4e13\u5356\u5e97;\u513f\u7ae5\u7528\u54c1\u5e97|\u8d2d\u7269\u670d\u52a1;\u4f53\u80b2\u7528\u54c1\u5e97;\u4f53\u80b2\u7528\u54c1\u5e97", "pty": "0612"}}, {"type": "Feature", "geometry": {"type": "Point", "coordinates": [121.38625480483823, 31.322937118548186]}, "properties": {"name": "\u7f57\u6770\u7f51\u7403", "biz": "080103|060900 \u4f53\u80b2\u4f11\u95f2\u670d\u52a1;\u8fd0\u52a8\u573a\u9986;\u7f51\u7403\u573a|\u8d2d\u7269\u670d\u52a1;\u4f53\u80b2\u7528\u54c1\u5e97;\u4f53\u80b2\u7528\u54c1\u5e97", "pty": "0801"}}, {"type": "Feature", "geometry": {"type": "Point", "coordinates": [121.3033487884321, 31.29316455455333]}, "properties": {"name": "\u82f1\u56fd\u7ebd\u767e\u4f26(\u5357\u7fd4\u89e3\u653e\u8857)", "biz": "061102|060900 \u8d2d\u7269\u670d\u52a1;\u670d\u88c5\u978b\u5e3d\u76ae\u5177\u5e97;\u54c1\u724c\u978b\u5e97|\u8d2d\u7269\u670d\u52a1;\u4f53\u80b2\u7528\u54c1\u5e97;\u4f53\u80b2\u7528\u54c1\u5e97", "pty": "0611"}}, {"type": "Feature", "geometry": {"type": "Point", "coordinates": [121.47286693888213, 31.23414559139022]}, "properties": {"name": "EVISU(\u6765\u798f\u58eb\u5e7f\u573a)", "biz": "061101|060900 \u8d2d\u7269\u670d\u52a1;\u670d\u88c5\u978b\u5e3d\u76ae\u5177\u5e97;\u54c1\u724c\u670d\u88c5\u5e97|\u8d2d\u7269\u670d\u52a1;\u4f53\u80b2\u7528\u54c1\u5e97;\u4f53\u80b2\u7528\u54c1\u5e97", "pty": "0611"}}, {"type": "Feature", "geometry": {"type": "Point", "coordinates": [121.48026575579574, 31.2389964481724]}, "properties": {"name": "VANS((\u65b0\u4e16\u754c\u5b8f\u4f0a\u5e97)", "biz": "061102|060900 \u8d2d\u7269\u670d\u52a1;\u670d\u88c5\u978b\u5e3d\u76ae\u5177\u5e97;\u54c1\u724c\u978b\u5e97|\u8d2d\u7269\u670d\u52a1;\u4f53\u80b2\u7528\u54c1\u5e97;\u4f53\u80b2\u7528\u54c1\u5e97", "pty": "0611"}}, {"type": "Feature", "geometry": {"type": "Point", "coordinates": [121.45481850402636, 31.218503237870305]}, "properties": {"name": "new balance(\u5df4\u9ece\u6625\u5929\u767e\u8d27)", "biz": "061102|060900 \u8d2d\u7269\u670d\u52a1;\u670d\u88c5\u978b\u5e3d\u76ae\u5177\u5e97;\u54c1\u724c\u978b\u5e97|\u8d2d\u7269\u670d\u52a1;\u4f53\u80b2\u7528\u54c1\u5e97;\u4f53\u80b2\u7528\u54c1\u5e97", "pty": "0611"}}, {"type": "Feature", "geometry": {"type": "Point", "coordinates": [121.43560601654143, 31.197453654990735]}, "properties": {"name": "RAPIDO(\u6c47\u91d1\u767e\u8d27\u897f\u533a)", "biz": "061101|060900 \u8d2d\u7269\u670d\u52a1;\u670d\u88c5\u978b\u5e3d\u76ae\u5177\u5e97;\u54c1\u724c\u670d\u88c5\u5e97|\u8d2d\u7269\u670d\u52a1;\u4f53\u80b2\u7528\u54c1\u5e97;\u4f53\u80b2\u7528\u54c1\u5e97", "pty": "0611"}}, {"type": "Feature", "geometry": {"type": "Point", "coordinates": [121.43572428121477, 31.197110020679048]}, "properties": {"name": "NAUTICA(\u6c47\u91d1\u767e\u8d27\u897f\u533a)", "biz": "061101|060900 \u8d2d\u7269\u670d\u52a1;\u670d\u88c5\u978b\u5e3d\u76ae\u5177\u5e97;\u54c1\u724c\u670d\u88c5\u5e97|\u8d2d\u7269\u670d\u52a1;\u4f53\u80b2\u7528\u54c1\u5e97;\u4f53\u80b2\u7528\u54c1\u5e97", "pty": "0611"}}, {"type": "Feature", "geometry": {"type": "Point", "coordinates": [121.42296843843256, 31.15648382111205]}, "properties": {"name": "La Chapelle SPORT(\u6c47\u91d1\u5965\u7279\u83b1\u65af\u5317\u5e7f\u573a)", "biz": "061101|060900 \u8d2d\u7269\u670d\u52a1;\u670d\u88c5\u978b\u5e3d\u76ae\u5177\u5e97;\u54c1\u724c\u670d\u88c5\u5e97|\u8d2d\u7269\u670d\u52a1;\u4f53\u80b2\u7528\u54c1\u5e97;\u4f53\u80b2\u7528\u54c1\u5e97", "pty": "0611"}}, {"type": "Feature", "geometry": {"type": "Point", "coordinates": [121.49514169405724, 31.23863572119418]}, "properties": {"name": "NAUTICA(\u6b63\u5927\u5e7f\u573a)", "biz": "061101|060900 \u8d2d\u7269\u670d\u52a1;\u670d\u88c5\u978b\u5e3d\u76ae\u5177\u5e97;\u54c1\u724c\u670d\u88c5\u5e97|\u8d2d\u7269\u670d\u52a1;\u4f53\u80b2\u7528\u54c1\u5e97;\u4f53\u80b2\u7528\u54c1\u5e97", "pty": "0611"}}, {"type": "Feature", "geometry": {"type": "Point", "coordinates": [121.56542829426432, 31.11665505816607]}, "properties": {"name": "sport100\u4f53\u80b2\u7528\u54c1\u5e97", "biz": "061101|060900 \u8d2d\u7269\u670d\u52a1;\u670d\u88c5\u978b\u5e3d\u76ae\u5177\u5e97;\u54c1\u724c\u670d\u88c5\u5e97|\u8d2d\u7269\u670d\u52a1;\u4f53\u80b2\u7528\u54c1\u5e97;\u4f53\u80b2\u7528\u54c1\u5e97", "pty": "0611"}}, {"type": "Feature", "geometry": {"type": "Point", "coordinates": [121.4947512518332, 31.239058357896607]}, "properties": {"name": "MLB(\u6b63\u5927\u5e7f\u573a)", "biz": "061101|060900 \u8d2d\u7269\u670d\u52a1;\u670d\u88c5\u978b\u5e3d\u76ae\u5177\u5e97;\u54c1\u724c\u670d\u88c5\u5e97|\u8d2d\u7269\u670d\u52a1;\u4f53\u80b2\u7528\u54c1\u5e97;\u4f53\u80b2\u7528\u54c1\u5e97", "pty": "0611"}}, {"type": "Feature", "geometry": {"type": "Point", "coordinates": [121.55937226460152, 31.155922654541993]}, "properties": {"name": "SKECHERS(\u767e\u8054\u4e1c\u90ca\u8d2d\u7269\u4e2d\u5fc3)", "biz": "061101|060900 \u8d2d\u7269\u670d\u52a1;\u670d\u88c5\u978b\u5e3d\u76ae\u5177\u5e97;\u54c1\u724c\u670d\u88c5\u5e97|\u8d2d\u7269\u670d\u52a1;\u4f53\u80b2\u7528\u54c1\u5e97;\u4f53\u80b2\u7528\u54c1\u5e97", "pty": "0611"}}, {"type": "Feature", "geometry": {"type": "Point", "coordinates": [121.58282818388746, 31.27326903344429]}, "properties": {"name": "COnVERSE(\u6587\u5cf0\u5e7f\u573a)", "biz": "061102|060900 \u8d2d\u7269\u670d\u52a1;\u670d\u88c5\u978b\u5e3d\u76ae\u5177\u5e97;\u54c1\u724c\u978b\u5e97|\u8d2d\u7269\u670d\u52a1;\u4f53\u80b2\u7528\u54c1\u5e97;\u4f53\u80b2\u7528\u54c1\u5e97", "pty": "0611"}}, {"type": "Feature", "geometry": {"type": "Point", "coordinates": [121.56461991642546, 31.11714976502636]}, "properties": {"name": "FOOTMARK(\u4e07\u8fbe\u5e7f\u573a)", "biz": "061102|060900 \u8d2d\u7269\u670d\u52a1;\u670d\u88c5\u978b\u5e3d\u76ae\u5177\u5e97;\u54c1\u724c\u978b\u5e97|\u8d2d\u7269\u670d\u52a1;\u4f53\u80b2\u7528\u54c1\u5e97;\u4f53\u80b2\u7528\u54c1\u5e97", "pty": "0611"}}, {"type": "Feature", "geometry": {"type": "Point", "coordinates": [121.4872256582214, 31.151984798684047]}, "properties": {"name": "\u7ebd\u5df4\u4f26(\u68ee\u5b8f\u8d2d\u7269\u5e7f\u573a)", "biz": "061102|060900 \u8d2d\u7269\u670d\u52a1;\u670d\u88c5\u978b\u5e3d\u76ae\u5177\u5e97;\u54c1\u724c\u978b\u5e97|\u8d2d\u7269\u670d\u52a1;\u4f53\u80b2\u7528\u54c1\u5e97;\u4f53\u80b2\u7528\u54c1\u5e97", "pty": "0611"}}, {"type": "Feature", "geometry": {"type": "Point", "coordinates": [121.51229059099353, 31.230166393437194]}, "properties": {"name": "VANS(\u4e0a\u6d77\u7b2c\u4e00\u516b\u4f70\u4f34\u65b0\u4e16\u7eaa\u5546\u53a6)", "biz": "061102|060900 \u8d2d\u7269\u670d\u52a1;\u670d\u88c5\u978b\u5e3d\u76ae\u5177\u5e97;\u54c1\u724c\u978b\u5e97|\u8d2d\u7269\u670d\u52a1;\u4f53\u80b2\u7528\u54c1\u5e97;\u4f53\u80b2\u7528\u54c1\u5e97", "pty": "0611"}}, {"type": "Feature", "geometry": {"type": "Point", "coordinates": [121.69360926298656, 31.196326222943036]}, "properties": {"name": "\u5b89\u8e0f\u513f\u7ae5(\u5ddd\u6c99\u8def)", "biz": "061207|060900 \u8d2d\u7269\u670d\u52a1;\u4e13\u5356\u5e97;\u513f\u7ae5\u7528\u54c1\u5e97|\u8d2d\u7269\u670d\u52a1;\u4f53\u80b2\u7528\u54c1\u5e97;\u4f53\u80b2\u7528\u54c1\u5e97", "pty": "0612"}}, {"type": "Feature", "geometry": {"type": "Point", "coordinates": [121.50537347903955, 31.167163094253294]}, "properties": {"name": "\u535a\u5bbd\u7fbd\u6bdb\u7403\u9986(\u6768\u601d\u9986)", "biz": "080118|060900 \u4f53\u80b2\u4f11\u95f2\u670d\u52a1;\u8fd0\u52a8\u573a\u9986;\u7fbd\u6bdb\u7403\u573a|\u8d2d\u7269\u670d\u52a1;\u4f53\u80b2\u7528\u54c1\u5e97;\u4f53\u80b2\u7528\u54c1\u5e97", "pty": "0801"}}, {"type": "Feature", "geometry": {"type": "Point", "coordinates": [121.5779337200591, 31.263152516801306]}, "properties": {"name": "\u957f\u5c9b\u7fbd\u6bdb\u7403\u9986", "biz": "080118|060900 \u4f53\u80b2\u4f11\u95f2\u670d\u52a1;\u8fd0\u52a8\u573a\u9986;\u7fbd\u6bdb\u7403\u573a|\u8d2d\u7269\u670d\u52a1;\u4f53\u80b2\u7528\u54c1\u5e97;\u4f53\u80b2\u7528\u54c1\u5e97", "pty": "0801"}}, {"type": "Feature", "geometry": {"type": "Point", "coordinates": [121.21494351128318, 31.040267878353607]}, "properties": {"name": "VANS(\u5f00\u5143\u5730\u4e2d\u6d77\u5546\u4e1a\u5e7f\u573a)", "biz": "061102|060900 \u8d2d\u7269\u670d\u52a1;\u670d\u88c5\u978b\u5e3d\u76ae\u5177\u5e97;\u54c1\u724c\u978b\u5e97|\u8d2d\u7269\u670d\u52a1;\u4f53\u80b2\u7528\u54c1\u5e97;\u4f53\u80b2\u7528\u54c1\u5e97", "pty": "0611"}}, {"type": "Feature", "geometry": {"type": "Point", "coordinates": [121.22430241010828, 31.159034606073792]}, "properties": {"name": "VANS(\u5965\u7279\u83b1\u65af\u5e97)", "biz": "061101|060900 \u8d2d\u7269\u670d\u52a1;\u670d\u88c5\u978b\u5e3d\u76ae\u5177\u5e97;\u54c1\u724c\u670d\u88c5\u5e97|\u8d2d\u7269\u670d\u52a1;\u4f53\u80b2\u7528\u54c1\u5e97;\u4f53\u80b2\u7528\u54c1\u5e97", "pty": "0611"}}, {"type": "Feature", "geometry": {"type": "Point", "coordinates": [121.10781390685578, 31.150646415432206]}, "properties": {"name": "Converse(\u4e1c\u65b9\u5546\u53a6)", "biz": "061101|060900 \u8d2d\u7269\u670d\u52a1;\u670d\u88c5\u978b\u5e3d\u76ae\u5177\u5e97;\u54c1\u724c\u670d\u88c5\u5e97|\u8d2d\u7269\u670d\u52a1;\u4f53\u80b2\u7528\u54c1\u5e97;\u4f53\u80b2\u7528\u54c1\u5e97", "pty": "0611"}}, {"type": "Feature", "geometry": {"type": "Point", "coordinates": [121.22312742675452, 31.15960238278387]}, "properties": {"name": "DC", "biz": "061101|060900 \u8d2d\u7269\u670d\u52a1;\u670d\u88c5\u978b\u5e3d\u76ae\u5177\u5e97;\u54c1\u724c\u670d\u88c5\u5e97|\u8d2d\u7269\u670d\u52a1;\u4f53\u80b2\u7528\u54c1\u5e97;\u4f53\u80b2\u7528\u54c1\u5e97", "pty": "0611"}}, {"type": "Feature", "geometry": {"type": "Point", "coordinates": [121.1076790544835, 31.148119669469057]}, "properties": {"name": "\u5b89\u8e0f\u513f\u7ae5(\u57ce\u4e2d\u4e1c\u8def)", "biz": "061207|060900 \u8d2d\u7269\u670d\u52a1;\u4e13\u5356\u5e97;\u513f\u7ae5\u7528\u54c1\u5e97|\u8d2d\u7269\u670d\u52a1;\u4f53\u80b2\u7528\u54c1\u5e97;\u4f53\u80b2\u7528\u54c1\u5e97", "pty": "0612"}}, {"type": "Feature", "geometry": {"type": "Point", "coordinates": [121.38625480483823, 31.322937118548186]}, "properties": {"name": "\u7f57\u6770\u7f51\u7403", "biz": "080103|060900 \u4f53\u80b2\u4f11\u95f2\u670d\u52a1;\u8fd0\u52a8\u573a\u9986;\u7f51\u7403\u573a|\u8d2d\u7269\u670d\u52a1;\u4f53\u80b2\u7528\u54c1\u5e97;\u4f53\u80b2\u7528\u54c1\u5e97", "pty": "0801"}}, {"type": "Feature", "geometry": {"type": "Point", "coordinates": [121.50537347903955, 31.167163094253294]}, "properties": {"name": "\u535a\u5bbd\u7fbd\u6bdb\u7403\u9986(\u6768\u601d\u9986)", "biz": "080118|060900 \u4f53\u80b2\u4f11\u95f2\u670d\u52a1;\u8fd0\u52a8\u573a\u9986;\u7fbd\u6bdb\u7403\u573a|\u8d2d\u7269\u670d\u52a1;\u4f53\u80b2\u7528\u54c1\u5e97;\u4f53\u80b2\u7528\u54c1\u5e97", "pty": "0801"}}, {"type": "Feature", "geometry": {"type": "Point", "coordinates": [121.5779337200591, 31.263152516801306]}, "properties": {"name": "\u957f\u5c9b\u7fbd\u6bdb\u7403\u9986", "biz": "080118|060900 \u4f53\u80b2\u4f11\u95f2\u670d\u52a1;\u8fd0\u52a8\u573a\u9986;\u7fbd\u6bdb\u7403\u573a|\u8d2d\u7269\u670d\u52a1;\u4f53\u80b2\u7528\u54c1\u5e97;\u4f53\u80b2\u7528\u54c1\u5e97", "pty": "0801"}}]}