{"type": "FeatureCollection", "features": [{"type": "Feature", "geometry": {"type": "Point", "coordinates": [121.48629520264522, 31.236157442414587]}, "properties": {"name": "POP\u7f8e\u5f0f\u9910\u5385", "biz": "050208 \u9910\u996e\u670d\u52a1;\u5916\u56fd\u9910\u5385;\u7f8e\u5f0f\u98ce\u5473", "pty": "0502"}}, {"type": "Feature", "geometry": {"type": "Point", "coordinates": [121.47023520920501, 31.22280459755745]}, "properties": {"name": "Wolfgang Puck Bar&Grill(\u65b0\u5929\u5730\u5e97)", "biz": "050208 \u9910\u996e\u670d\u52a1;\u5916\u56fd\u9910\u5385;\u7f8e\u5f0f\u98ce\u5473", "pty": "0502"}}, {"type": "Feature", "geometry": {"type": "Point", "coordinates": [121.47443117726431, 31.222526387059578]}, "properties": {"name": "twinkle kids cafe", "biz": "050208 \u9910\u996e\u670d\u52a1;\u5916\u56fd\u9910\u5385;\u7f8e\u5f0f\u98ce\u5473", "pty": "0502"}}, {"type": "Feature", "geometry": {"type": "Point", "coordinates": [121.44157248915718, 31.21126453460204]}, "properties": {"name": "Hooters(\u6dee\u6d77\u4e2d\u8def\u5e97)", "biz": "050208 \u9910\u996e\u670d\u52a1;\u5916\u56fd\u9910\u5385;\u7f8e\u5f0f\u98ce\u5473", "pty": "0502"}}, {"type": "Feature", "geometry": {"type": "Point", "coordinates": [121.42747782408296, 31.170693980709725]}, "properties": {"name": "Magnet(\u6f15\u5b9d\u8def\u65e5\u6708\u5149\u5e97)", "biz": "050208 \u9910\u996e\u670d\u52a1;\u5916\u56fd\u9910\u5385;\u7f8e\u5f0f\u98ce\u5473", "pty": "0502"}}, {"type": "Feature", "geometry": {"type": "Point", "coordinates": [121.38391659652946, 31.215948903024533]}, "properties": {"name": "\u6469\u6839\u83f2\u7f8e\u5f0f\u9910\u5385(\u4ef2\u76db\u5e97)", "biz": "050208 \u9910\u996e\u670d\u52a1;\u5916\u56fd\u9910\u5385;\u7f8e\u5f0f\u98ce\u5473", "pty": "0502"}}, {"type": "Feature", "geometry": {"type": "Point", "coordinates": [121.44701696146913, 31.228404265017634]}, "properties": {"name": "\u5c1a\u725b\u793e\u4f1aBeef&Liberty(\u4e0a\u6d77\u5546\u57ce\u5e97)", "biz": "050208 \u9910\u996e\u670d\u52a1;\u5916\u56fd\u9910\u5385;\u7f8e\u5f0f\u98ce\u5473", "pty": "0502"}}, {"type": "Feature", "geometry": {"type": "Point", "coordinates": [121.46754652625323, 31.245779735070034]}, "properties": {"name": "MAGNET(\u4e0a\u6d77\u5927\u60a6\u57ce\u5317\u5ea7)", "biz": "050208 \u9910\u996e\u670d\u52a1;\u5916\u56fd\u9910\u5385;\u7f8e\u5f0f\u98ce\u5473", "pty": "0502"}}, {"type": "Feature", "geometry": {"type": "Point", "coordinates": [121.442761057644, 31.24766789760438]}, "properties": {"name": "\u4e00\u5bb6", "biz": "050208 \u9910\u996e\u670d\u52a1;\u5916\u56fd\u9910\u5385;\u7f8e\u5f0f\u98ce\u5473", "pty": "0502"}}, {"type": "Feature", "geometry": {"type": "Point", "coordinates": [121.49485530514048, 31.26643554169817]}, "properties": {"name": "TRUCKSTOPGRILL\u516c\u8def\u9910\u5385(\u745e\u8679\u5929\u5730\u6708\u4eae\u6e7e\u5e97)", "biz": "050208 \u9910\u996e\u670d\u52a1;\u5916\u56fd\u9910\u5385;\u7f8e\u5f0f\u98ce\u5473", "pty": "0502"}}, {"type": "Feature", "geometry": {"type": "Point", "coordinates": [121.37416361959586, 31.109426553971122]}, "properties": {"name": "\u6c49\u5821\u738b(\u51ef\u5fb7\u9f99\u4e4b\u68a6\u8d2d\u7269\u4e2d\u5fc3\u8398\u5e84\u5e97)", "biz": "050208 \u9910\u996e\u670d\u52a1;\u5916\u56fd\u9910\u5385;\u7f8e\u5f0f\u98ce\u5473", "pty": "0502"}}, {"type": "Feature", "geometry": {"type": "Point", "coordinates": [121.44382181185054, 31.325274259879176]}, "properties": {"name": "Sale Kitchen&Bar", "biz": "050208 \u9910\u996e\u670d\u52a1;\u5916\u56fd\u9910\u5385;\u7f8e\u5f0f\u98ce\u5473", "pty": "0502"}}, {"type": "Feature", "geometry": {"type": "Point", "coordinates": [121.49334027959164, 31.23779070804377]}, "properties": {"name": "\u661f\u671f\u4e94\u9910\u5385(\u9646\u5bb6\u5634\u6ee8\u6c5f\u5e97)", "biz": "050208|050201 \u9910\u996e\u670d\u52a1;\u5916\u56fd\u9910\u5385;\u7f8e\u5f0f\u98ce\u5473|\u9910\u996e\u670d\u52a1;\u5916\u56fd\u9910\u5385;\u897f\u9910\u5385(\u7efc\u5408\u98ce\u5473)", "pty": "0502"}}, {"type": "Feature", "geometry": {"type": "Point", "coordinates": [121.49334027959164, 31.23779070804377]}, "properties": {"name": "\u661f\u671f\u4e94\u9910\u5385(\u9646\u5bb6\u5634\u6ee8\u6c5f\u5e97)", "biz": "050208|050201 \u9910\u996e\u670d\u52a1;\u5916\u56fd\u9910\u5385;\u7f8e\u5f0f\u98ce\u5473|\u9910\u996e\u670d\u52a1;\u5916\u56fd\u9910\u5385;\u897f\u9910\u5385(\u7efc\u5408\u98ce\u5473)", "pty": "0502"}}, {"type": "Feature", "geometry": {"type": "Point", "coordinates": [121.55909583646965, 31.215061563605705]}, "properties": {"name": "Johnny Moo(\u5609\u91cc\u57ce\u5e97)", "biz": "050201|050208 \u9910\u996e\u670d\u52a1;\u5916\u56fd\u9910\u5385;\u897f\u9910\u5385(\u7efc\u5408\u98ce\u5473)|\u9910\u996e\u670d\u52a1;\u5916\u56fd\u9910\u5385;\u7f8e\u5f0f\u98ce\u5473", "pty": "0502"}}, {"type": "Feature", "geometry": {"type": "Point", "coordinates": [121.55909583646965, 31.215061563605705]}, "properties": {"name": "Johnny Moo(\u5609\u91cc\u57ce\u5e97)", "biz": "050201|050208 \u9910\u996e\u670d\u52a1;\u5916\u56fd\u9910\u5385;\u897f\u9910\u5385(\u7efc\u5408\u98ce\u5473)|\u9910\u996e\u670d\u52a1;\u5916\u56fd\u9910\u5385;\u7f8e\u5f0f\u98ce\u5473", "pty": "0502"}}, {"type": "Feature", "geometry": {"type": "Point", "coordinates": [121.49385811314038, 31.238146097262817]}, "properties": {"name": "\u732b\u5934\u9e70\u6b23\u9910\u5385(\u6b63\u5927\u5e7f\u573a)", "biz": "050201|050208 \u9910\u996e\u670d\u52a1;\u5916\u56fd\u9910\u5385;\u897f\u9910\u5385(\u7efc\u5408\u98ce\u5473)|\u9910\u996e\u670d\u52a1;\u5916\u56fd\u9910\u5385;\u7f8e\u5f0f\u98ce\u5473", "pty": "0502"}}, {"type": "Feature", "geometry": {"type": "Point", "coordinates": [121.49385811314038, 31.238146097262817]}, "properties": {"name": "\u732b\u5934\u9e70\u6b23\u9910\u5385(\u6b63\u5927\u5e7f\u573a)", "biz": "050201|050208 \u9910\u996e\u670d\u52a1;\u5916\u56fd\u9910\u5385;\u897f\u9910\u5385(\u7efc\u5408\u98ce\u5473)|\u9910\u996e\u670d\u52a1;\u5916\u56fd\u9910\u5385;\u7f8e\u5f0f\u98ce\u5473", "pty": "0502"}}, {"type": "Feature", "geometry": {"type": "Point", "coordinates": [121.57869925659901, 31.24161059539734]}, "properties": {"name": "\u5f7c\u5fb7\u897f\u9910(\u78a7\u4e91\u5e97)", "biz": "050208 \u9910\u996e\u670d\u52a1;\u5916\u56fd\u9910\u5385;\u7f8e\u5f0f\u98ce\u5473", "pty": "0502"}}, {"type": "Feature", "geometry": {"type": "Point", "coordinates": [121.65560657658258, 31.14434834868567]}, "properties": {"name": "\u63d0\u6469\u592a\u5c0f\u5403", "biz": "050208 \u9910\u996e\u670d\u52a1;\u5916\u56fd\u9910\u5385;\u7f8e\u5f0f\u98ce\u5473", "pty": "0502"}}, {"type": "Feature", "geometry": {"type": "Point", "coordinates": [121.48754563632663, 31.189251634018106]}, "properties": {"name": "\u805a\u87f9\u5ea7(\u4e16\u535a\u6e901\u533a)", "biz": "050208 \u9910\u996e\u670d\u52a1;\u5916\u56fd\u9910\u5385;\u7f8e\u5f0f\u98ce\u5473", "pty": "0502"}}, {"type": "Feature", "geometry": {"type": "Point", "coordinates": [121.53419581490749, 31.219057199322876]}, "properties": {"name": "\u521b\u610f\u7f8e\u5f0f\u6599\u7406.\u5496\u5561\u5546\u52a1\u5957\u9910", "biz": "050208 \u9910\u996e\u670d\u52a1;\u5916\u56fd\u9910\u5385;\u7f8e\u5f0f\u98ce\u5473", "pty": "0502"}}, {"type": "Feature", "geometry": {"type": "Point", "coordinates": [121.54705618248926, 31.227133741677743]}, "properties": {"name": "\u97f3\u5bb6\u7f8e\u5f0f\u9910\u5385", "biz": "050208 \u9910\u996e\u670d\u52a1;\u5916\u56fd\u9910\u5385;\u7f8e\u5f0f\u98ce\u5473", "pty": "0502"}}, {"type": "Feature", "geometry": {"type": "Point", "coordinates": [121.49981443605486, 30.990279056058682]}, "properties": {"name": "\u767e\u57fa\u62c9\u7f8e\u5f0f\u5feb\u9910(\u91d1\u6c47\u5e97)", "biz": "050208 \u9910\u996e\u670d\u52a1;\u5916\u56fd\u9910\u5385;\u7f8e\u5f0f\u98ce\u5473", "pty": "0502"}}]}