{"type": "FeatureCollection", "features": [{"type": "Feature", "geometry": {"type": "Point", "coordinates": [121.41914995798285, 31.222091147665843]}, "properties": {"name": "\u83b2\u00b7\u521b\u610f\u695a\u83dc", "biz": "050112 \u9910\u996e\u670d\u52a1;\u4e2d\u9910\u5385;\u6e56\u5317\u83dc(\u9102\u83dc)", "pty": "0501"}}, {"type": "Feature", "geometry": {"type": "Point", "coordinates": [121.50331251248298, 31.292778863556045]}, "properties": {"name": "\u8521\u8bb0\u6b66\u6c49\u70b8\u9171\u70ed\u5e72\u9762(\u56fd\u6743\u8def\u5e97)", "biz": "050112 \u9910\u996e\u670d\u52a1;\u4e2d\u9910\u5385;\u6e56\u5317\u83dc(\u9102\u83dc)", "pty": "0501"}}, {"type": "Feature", "geometry": {"type": "Point", "coordinates": [121.3105567065448, 31.19341751221635]}, "properties": {"name": "\u5357\u7b19\u9986", "biz": "050112 \u9910\u996e\u670d\u52a1;\u4e2d\u9910\u5385;\u6e56\u5317\u83dc(\u9102\u83dc)", "pty": "0501"}}, {"type": "Feature", "geometry": {"type": "Point", "coordinates": [121.45978575421603, 31.044609333412588]}, "properties": {"name": "\u66fe\u5473\u9053(\u5b9d\u79c0\u8def)", "biz": "050112 \u9910\u996e\u670d\u52a1;\u4e2d\u9910\u5385;\u6e56\u5317\u83dc(\u9102\u83dc)", "pty": "0501"}}, {"type": "Feature", "geometry": {"type": "Point", "coordinates": [121.30911092859525, 31.193065355192857]}, "properties": {"name": "\u7eaf\u84b8\u5e74\u4ee3", "biz": "050112 \u9910\u996e\u670d\u52a1;\u4e2d\u9910\u5385;\u6e56\u5317\u83dc(\u9102\u83dc)", "pty": "0501"}}, {"type": "Feature", "geometry": {"type": "Point", "coordinates": [121.49755183176713, 31.3864518109497]}, "properties": {"name": "\u4e5d\u5934\u9e1f\u571f\u83dc", "biz": "050112 \u9910\u996e\u670d\u52a1;\u4e2d\u9910\u5385;\u6e56\u5317\u83dc(\u9102\u83dc)", "pty": "0501"}}, {"type": "Feature", "geometry": {"type": "Point", "coordinates": [121.36904518206802, 31.358268862487197]}, "properties": {"name": "\u6b66\u6c49\u70ed\u5e72\u9762(\u83ca\u6cc9\u8857)", "biz": "050112 \u9910\u996e\u670d\u52a1;\u4e2d\u9910\u5385;\u6e56\u5317\u83dc(\u9102\u83dc)", "pty": "0501"}}, {"type": "Feature", "geometry": {"type": "Point", "coordinates": [121.33758575873712, 31.263036865983196]}, "properties": {"name": "\u6c5f\u6d77\u6d74\u5ba44\u697c", "biz": "050112 \u9910\u996e\u670d\u52a1;\u4e2d\u9910\u5385;\u6e56\u5317\u83dc(\u9102\u83dc)", "pty": "0501"}}, {"type": "Feature", "geometry": {"type": "Point", "coordinates": [121.70121993065685, 31.192492099512034]}, "properties": {"name": "\u6b66\u6c49\u82b1\u59d1\u5a18\u70ed\u5e72\u9762\u00b7\u94c1\u677f\u7092\u996d(\u5ddd\u9ec4\u8def\u5e97)", "biz": "050112 \u9910\u996e\u670d\u52a1;\u4e2d\u9910\u5385;\u6e56\u5317\u83dc(\u9102\u83dc)", "pty": "0501"}}, {"type": "Feature", "geometry": {"type": "Point", "coordinates": [121.55459583008616, 31.21269047279461]}, "properties": {"name": "\u6caa\u90e8\u5df7\u695a\u6587\u5316\u9910\u5385(\u6885\u82b1\u8def\u5e97)", "biz": "050112 \u9910\u996e\u670d\u52a1;\u4e2d\u9910\u5385;\u6e56\u5317\u83dc(\u9102\u83dc)", "pty": "0501"}}, {"type": "Feature", "geometry": {"type": "Point", "coordinates": [121.60796000727451, 31.143015785978417]}, "properties": {"name": "\u6b66\u6c49\u70ed\u5e72\u9762(\u5ddd\u5468\u516c\u8def)", "biz": "050112 \u9910\u996e\u670d\u52a1;\u4e2d\u9910\u5385;\u6e56\u5317\u83dc(\u9102\u83dc)", "pty": "0501"}}, {"type": "Feature", "geometry": {"type": "Point", "coordinates": [121.48990483420488, 31.18014423751212]}, "properties": {"name": "\u8521\u8bb0\u8001\u5b57\u53f7\u6b66\u6c49\u70ed\u5e72\u9762", "biz": "050112 \u9910\u996e\u670d\u52a1;\u4e2d\u9910\u5385;\u6e56\u5317\u83dc(\u9102\u83dc)", "pty": "0501"}}, {"type": "Feature", "geometry": {"type": "Point", "coordinates": [121.28979418005297, 31.027717516054757]}, "properties": {"name": "\u6b66\u6c49\u70ed\u5e72\u9762(\u8338\u6c5f\u8def)", "biz": "050112 \u9910\u996e\u670d\u52a1;\u4e2d\u9910\u5385;\u6e56\u5317\u83dc(\u9102\u83dc)", "pty": "0501"}}, {"type": "Feature", "geometry": {"type": "Point", "coordinates": [121.3039411533402, 31.01678870958704]}, "properties": {"name": "\u6b66\u6c49\u9762\u9986", "biz": "050112 \u9910\u996e\u670d\u52a1;\u4e2d\u9910\u5385;\u6e56\u5317\u83dc(\u9102\u83dc)", "pty": "0501"}}, {"type": "Feature", "geometry": {"type": "Point", "coordinates": [121.05295822285865, 31.07844371789011]}, "properties": {"name": "\u6b66\u6c49\u70ed\u5e72\u9762(\u66f2\u6c60\u8def)", "biz": "050112 \u9910\u996e\u670d\u52a1;\u4e2d\u9910\u5385;\u6e56\u5317\u83dc(\u9102\u83dc)", "pty": "0501"}}, {"type": "Feature", "geometry": {"type": "Point", "coordinates": [121.22705745315191, 31.205590127953545]}, "properties": {"name": "\u6b66\u6c49\u70ed\u5e72\u9762(\u51e4\u6eaa\u5e97)", "biz": "050112 \u9910\u996e\u670d\u52a1;\u4e2d\u9910\u5385;\u6e56\u5317\u83dc(\u9102\u83dc)", "pty": "0501"}}, {"type": "Feature", "geometry": {"type": "Point", "coordinates": [121.49414183762167, 30.99285753134328]}, "properties": {"name": "\u6e56\u5317\u7279\u8272\u5c0f\u5403(\u5de5\u4e1a\u8def\u5e97)", "biz": "050112 \u9910\u996e\u670d\u52a1;\u4e2d\u9910\u5385;\u6e56\u5317\u83dc(\u9102\u83dc)", "pty": "0501"}}]}