{"type": "FeatureCollection", "features": [{"type": "Feature", "geometry": {"type": "Point", "coordinates": [121.49515760213134, 31.22859439817563]}, "properties": {"name": "\u5916\u6ee9\u4fdd\u9f84\u7403\u9986", "biz": "080102 \u4f53\u80b2\u4f11\u95f2\u670d\u52a1;\u8fd0\u52a8\u573a\u9986;\u4fdd\u9f84\u7403\u9986", "pty": "0801"}}, {"type": "Feature", "geometry": {"type": "Point", "coordinates": [121.49915152797988, 31.210394986113094]}, "properties": {"name": "\u4e0a\u6d77\u603b\u5de5\u4f1a\u9ec4\u6d66\u533a\u5de5\u4eba\u4f53\u80b2\u9986\u4fdd\u9f84\u7403\u9986", "biz": "080102 \u4f53\u80b2\u4f11\u95f2\u670d\u52a1;\u8fd0\u52a8\u573a\u9986;\u4fdd\u9f84\u7403\u9986", "pty": "0801"}}, {"type": "Feature", "geometry": {"type": "Point", "coordinates": [121.4420108110109, 31.207482191436526]}, "properties": {"name": "\u6b27\u767b\u4fdd\u9f84\u7403\u9986", "biz": "080102 \u4f53\u80b2\u4f11\u95f2\u670d\u52a1;\u8fd0\u52a8\u573a\u9986;\u4fdd\u9f84\u7403\u9986", "pty": "0801"}}, {"type": "Feature", "geometry": {"type": "Point", "coordinates": [121.44468568604833, 31.200296925254193]}, "properties": {"name": "\u9752\u677e\u57ce\u4fdd\u9f84\u7403\u9986", "biz": "080102 \u4f53\u80b2\u4f11\u95f2\u670d\u52a1;\u8fd0\u52a8\u573a\u9986;\u4fdd\u9f84\u7403\u9986", "pty": "0801"}}, {"type": "Feature", "geometry": {"type": "Point", "coordinates": [121.39202737495582, 31.2543598730964]}, "properties": {"name": "\u4e0a\u6d77\u5e02\u4f53\u80b2\u9986\u4fdd\u9f84\u7403\u9986", "biz": "080102 \u4f53\u80b2\u4f11\u95f2\u670d\u52a1;\u8fd0\u52a8\u573a\u9986;\u4fdd\u9f84\u7403\u9986", "pty": "0801"}}, {"type": "Feature", "geometry": {"type": "Point", "coordinates": [121.47511506002593, 31.274289185081514]}, "properties": {"name": "\u9ad8\u70b9\u68cb\u724c\u4fdd\u9f84\u7403\u53f0\u7403(\u8679\u53e3\u8db3\u7403\u573a\u5e97)", "biz": "080102 \u4f53\u80b2\u4f11\u95f2\u670d\u52a1;\u8fd0\u52a8\u573a\u9986;\u4fdd\u9f84\u7403\u9986", "pty": "0801"}}, {"type": "Feature", "geometry": {"type": "Point", "coordinates": [121.47509700309806, 31.274240154703662]}, "properties": {"name": "\u4eae\u70b9\u4fdd\u9f84\u7403", "biz": "080102 \u4f53\u80b2\u4f11\u95f2\u670d\u52a1;\u8fd0\u52a8\u573a\u9986;\u4fdd\u9f84\u7403\u9986", "pty": "0801"}}, {"type": "Feature", "geometry": {"type": "Point", "coordinates": [121.47509396681212, 31.27454401800633]}, "properties": {"name": "\u649e\u7403\u68cb\u724c\u4fdd\u9f84\u7403", "biz": "080102 \u4f53\u80b2\u4f11\u95f2\u670d\u52a1;\u8fd0\u52a8\u573a\u9986;\u4fdd\u9f84\u7403\u9986", "pty": "0801"}}, {"type": "Feature", "geometry": {"type": "Point", "coordinates": [121.36646340771085, 31.1439551904756]}, "properties": {"name": "\u7405\u8fc8\u4fdd\u9f84\u7403\u9986(\u4e0a\u6d77\u5e02\u95f5\u884c\u533a\u4f53\u80b2\u4ea7\u4e1a\u53d1\u5c55\u4e2d\u5fc3\u897f)", "biz": "080102 \u4f53\u80b2\u4f11\u95f2\u670d\u52a1;\u8fd0\u52a8\u573a\u9986;\u4fdd\u9f84\u7403\u9986", "pty": "0801"}}, {"type": "Feature", "geometry": {"type": "Point", "coordinates": [121.3664294457827, 31.144073168955853]}, "properties": {"name": "C\u4fdd\u9f84\u7403\u9986", "biz": "080102 \u4f53\u80b2\u4f11\u95f2\u670d\u52a1;\u8fd0\u52a8\u573a\u9986;\u4fdd\u9f84\u7403\u9986", "pty": "0801"}}, {"type": "Feature", "geometry": {"type": "Point", "coordinates": [121.38026879432061, 31.19958720881633]}, "properties": {"name": "\u897f\u90ca\u4f53\u80b2\u4e2d\u5fc3-\u4fdd\u9f84\u7403", "biz": "080102 \u4f53\u80b2\u4f11\u95f2\u670d\u52a1;\u8fd0\u52a8\u573a\u9986;\u4fdd\u9f84\u7403\u9986", "pty": "0801"}}, {"type": "Feature", "geometry": {"type": "Point", "coordinates": [121.4506109577325, 31.265912184974397]}, "properties": {"name": "\u826f\u7f6e\u4fdd\u9f84\u7403(\u76db\u6e90\u751f\u6d3b\u5e7f\u573a)", "biz": "080102 \u4f53\u80b2\u4f11\u95f2\u670d\u52a1;\u8fd0\u52a8\u573a\u9986;\u4fdd\u9f84\u7403\u9986", "pty": "0801"}}, {"type": "Feature", "geometry": {"type": "Point", "coordinates": [121.15666650381986, 31.289829544262084]}, "properties": {"name": "\u98de\u52a8\u529b\u8fd0\u52a8\u4e50\u56ed\u6b27\u767b\u4fdd\u9f84\u7403\u9986(\u5609\u4ead\u835f\u57ce\u5e02\u751f\u6d3b\u5e7f\u573a\u897f\u533a)", "biz": "080102 \u4f53\u80b2\u4f11\u95f2\u670d\u52a1;\u8fd0\u52a8\u573a\u9986;\u4fdd\u9f84\u7403\u9986", "pty": "0801"}}, {"type": "Feature", "geometry": {"type": "Point", "coordinates": [121.53327077172837, 31.23457670573744]}, "properties": {"name": "\u9f0e\u6770\u4fdd\u9f84\u7403CLUB", "biz": "080102 \u4f53\u80b2\u4f11\u95f2\u670d\u52a1;\u8fd0\u52a8\u573a\u9986;\u4fdd\u9f84\u7403\u9986", "pty": "0801"}}, {"type": "Feature", "geometry": {"type": "Point", "coordinates": [121.575599610879, 31.258620752138878]}, "properties": {"name": "\u9ad8\u70b9\u4fdd\u9f84\u7403\u9986", "biz": "080102 \u4f53\u80b2\u4f11\u95f2\u670d\u52a1;\u8fd0\u52a8\u573a\u9986;\u4fdd\u9f84\u7403\u9986", "pty": "0801"}}, {"type": "Feature", "geometry": {"type": "Point", "coordinates": [121.58660650358578, 31.22683420447901]}, "properties": {"name": "\u4e1c\u90ca\u5bbe\u9986-\u4fdd\u9f84\u7403\u9986", "biz": "080102 \u4f53\u80b2\u4f11\u95f2\u670d\u52a1;\u8fd0\u52a8\u573a\u9986;\u4fdd\u9f84\u7403\u9986", "pty": "0801"}}, {"type": "Feature", "geometry": {"type": "Point", "coordinates": [121.3228001342458, 30.73518424345042]}, "properties": {"name": "\u6676\u4f17\u4fdd\u9f84\u7403\u9986", "biz": "080102 \u4f53\u80b2\u4f11\u95f2\u670d\u52a1;\u8fd0\u52a8\u573a\u9986;\u4fdd\u9f84\u7403\u9986", "pty": "0801"}}]}