{"type": "FeatureCollection", "features": [{"type": "Feature", "geometry": {"type": "Point", "coordinates": [121.398502312912, 31.212509470519464]}, "properties": {"name": "CROWN(\u767e\u76db\u4f18\u5ba2\u57ce\u5e02\u5e7f\u573a\u897f\u697c)", "biz": "080302|061104 \u4f53\u80b2\u4f11\u95f2\u670d\u52a1;\u5a31\u4e50\u573a\u6240;KTV|\u8d2d\u7269\u670d\u52a1;\u670d\u88c5\u978b\u5e3d\u76ae\u5177\u5e97;\u54c1\u724c\u7bb1\u5305\u5e97", "pty": "0803"}}, {"type": "Feature", "geometry": {"type": "Point", "coordinates": [121.47493156985153, 31.34277327406268]}, "properties": {"name": "\u5c0f\u90ed\u97f3\u4e50\u8336\u5ea7", "biz": "080302|050000 \u4f53\u80b2\u4f11\u95f2\u670d\u52a1;\u5a31\u4e50\u573a\u6240;KTV|\u9910\u996e\u670d\u52a1;\u9910\u996e\u76f8\u5173\u573a\u6240;\u9910\u996e\u76f8\u5173", "pty": "0803"}}, {"type": "Feature", "geometry": {"type": "Point", "coordinates": [121.49415862089151, 31.162245143034156]}, "properties": {"name": "\u9ea6\u70ab(\u4e0a\u6d77\u4e16\u535a\u56ed\u5e97)", "biz": "080302|050000 \u4f53\u80b2\u4f11\u95f2\u670d\u52a1;\u5a31\u4e50\u573a\u6240;KTV|\u9910\u996e\u670d\u52a1;\u9910\u996e\u76f8\u5173\u573a\u6240;\u9910\u996e\u76f8\u5173", "pty": "0803"}}, {"type": "Feature", "geometry": {"type": "Point", "coordinates": [121.398502312912, 31.212509470519464]}, "properties": {"name": "CROWN(\u767e\u76db\u4f18\u5ba2\u57ce\u5e02\u5e7f\u573a\u897f\u697c)", "biz": "080302|061104 \u4f53\u80b2\u4f11\u95f2\u670d\u52a1;\u5a31\u4e50\u573a\u6240;KTV|\u8d2d\u7269\u670d\u52a1;\u670d\u88c5\u978b\u5e3d\u76ae\u5177\u5e97;\u54c1\u724c\u7bb1\u5305\u5e97", "pty": "0803"}}, {"type": "Feature", "geometry": {"type": "Point", "coordinates": [121.4224027413467, 31.224899179362698]}, "properties": {"name": "DAM-K", "biz": "080302 \u4f53\u80b2\u4f11\u95f2\u670d\u52a1;\u5a31\u4e50\u573a\u6240;KTV", "pty": "0803"}}, {"type": "Feature", "geometry": {"type": "Point", "coordinates": [121.36498871711723, 31.211030969267505]}, "properties": {"name": "\u597d\u4e50\u8fea(\u767e\u8054\u897f\u90ca\u8d2d\u7269\u4e2d\u5fc3)", "biz": "080302 \u4f53\u80b2\u4f11\u95f2\u670d\u52a1;\u5a31\u4e50\u573a\u6240;KTV", "pty": "0803"}}, {"type": "Feature", "geometry": {"type": "Point", "coordinates": [121.3988953488868, 31.21240153903354]}, "properties": {"name": "\u597d\u4e50\u8fea(\u5929\u5c71\u5e97)", "biz": "080302 \u4f53\u80b2\u4f11\u95f2\u670d\u52a1;\u5a31\u4e50\u573a\u6240;KTV", "pty": "0803"}}, {"type": "Feature", "geometry": {"type": "Point", "coordinates": [121.36301632989809, 31.215300464040556]}, "properties": {"name": "\u706b\u9f99\u679cKTV", "biz": "080302 \u4f53\u80b2\u4f11\u95f2\u670d\u52a1;\u5a31\u4e50\u573a\u6240;KTV", "pty": "0803"}}, {"type": "Feature", "geometry": {"type": "Point", "coordinates": [121.36160301180351, 31.210018888928914]}, "properties": {"name": "\u97f3\u7ef4\u7231\u65f6\u5c1a\u91cf\u8d29KTV(\u957f\u5b81\u5e97)", "biz": "080302 \u4f53\u80b2\u4f11\u95f2\u670d\u52a1;\u5a31\u4e50\u573a\u6240;KTV", "pty": "0803"}}, {"type": "Feature", "geometry": {"type": "Point", "coordinates": [121.3971503775873, 31.21142498563772]}, "properties": {"name": "V-SHOW", "biz": "080302 \u4f53\u80b2\u4f11\u95f2\u670d\u52a1;\u5a31\u4e50\u573a\u6240;KTV", "pty": "0803"}}, {"type": "Feature", "geometry": {"type": "Point", "coordinates": [121.35462109100219, 31.208379823589922]}, "properties": {"name": "\u91d1\u9633\u4f1a\u6240", "biz": "080302 \u4f53\u80b2\u4f11\u95f2\u670d\u52a1;\u5a31\u4e50\u573a\u6240;KTV", "pty": "0803"}}, {"type": "Feature", "geometry": {"type": "Point", "coordinates": [121.385648228473, 31.207596965625928]}, "properties": {"name": "\u661f\u5ea7\u4e3b\u9898\u91cf\u8d29\u5f0fKTV", "biz": "080302 \u4f53\u80b2\u4f11\u95f2\u670d\u52a1;\u5a31\u4e50\u573a\u6240;KTV", "pty": "0803"}}, {"type": "Feature", "geometry": {"type": "Point", "coordinates": [121.41753041194984, 31.219195022421946]}, "properties": {"name": "\u551b\u6b4c\u65f6\u5c1aKTV(\u957f\u5b81\u5e97)", "biz": "080302 \u4f53\u80b2\u4f11\u95f2\u670d\u52a1;\u5a31\u4e50\u573a\u6240;KTV", "pty": "0803"}}, {"type": "Feature", "geometry": {"type": "Point", "coordinates": [121.4331766072351, 31.205900615101175]}, "properties": {"name": "\u9633\u5149\u707f\u70c2KTV", "biz": "080302 \u4f53\u80b2\u4f11\u95f2\u670d\u52a1;\u5a31\u4e50\u573a\u6240;KTV", "pty": "0803"}}, {"type": "Feature", "geometry": {"type": "Point", "coordinates": [121.37215764485656, 31.193357402840096]}, "properties": {"name": "\u9b45\u529b\u4e0a\u6d77\u56fd\u9645KTV\u591c\u603b\u4f1a\u5a31\u4e50\u603b\u6c47", "biz": "080302 \u4f53\u80b2\u4f11\u95f2\u670d\u52a1;\u5a31\u4e50\u573a\u6240;KTV", "pty": "0803"}}, {"type": "Feature", "geometry": {"type": "Point", "coordinates": [121.41823656085877, 31.214803748742206]}, "properties": {"name": "\u68a6\u5728\u4e0a\u6d77ktv", "biz": "080302 \u4f53\u80b2\u4f11\u95f2\u670d\u52a1;\u5a31\u4e50\u573a\u6240;KTV", "pty": "0803"}}, {"type": "Feature", "geometry": {"type": "Point", "coordinates": [121.41355253514452, 31.21977257697653]}, "properties": {"name": "\u597d\u4e50\u8fea(\u4e2d\u5c71\u516c\u56ed\u5e97)", "biz": "080302 \u4f53\u80b2\u4f11\u95f2\u670d\u52a1;\u5a31\u4e50\u573a\u6240;KTV", "pty": "0803"}}, {"type": "Feature", "geometry": {"type": "Point", "coordinates": [121.40288168431178, 31.205428461972794]}, "properties": {"name": "\u4e50\u6b4c(\u5ef6\u5b89\u897f\u8def\u5e97)", "biz": "080302 \u4f53\u80b2\u4f11\u95f2\u670d\u52a1;\u5a31\u4e50\u573a\u6240;KTV", "pty": "0803"}}, {"type": "Feature", "geometry": {"type": "Point", "coordinates": [121.41524889008122, 31.2102823744066]}, "properties": {"name": "\u9996\u5e9cKTV\u591c\u603b\u4f1a", "biz": "080302 \u4f53\u80b2\u4f11\u95f2\u670d\u52a1;\u5a31\u4e50\u573a\u6240;KTV", "pty": "0803"}}, {"type": "Feature", "geometry": {"type": "Point", "coordinates": [121.41358861674635, 31.196207995050006]}, "properties": {"name": "\u6d77\u4e0a\u8702\u5de2\u4e13\u4e1a\u7ec3\u6b4c\u5427", "biz": "080302 \u4f53\u80b2\u4f11\u95f2\u670d\u52a1;\u5a31\u4e50\u573a\u6240;KTV", "pty": "0803"}}, {"type": "Feature", "geometry": {"type": "Point", "coordinates": [121.36625888730515, 31.21083548975071]}, "properties": {"name": "\u54aa\u54d2(\u767e\u8054\u897f\u90ca\u8d2d\u7269\u4e2d\u5fc3)", "biz": "080302 \u4f53\u80b2\u4f11\u95f2\u670d\u52a1;\u5a31\u4e50\u573a\u6240;KTV", "pty": "0803"}}, {"type": "Feature", "geometry": {"type": "Point", "coordinates": [121.41178699988106, 31.220996817910095]}, "properties": {"name": "\u597d\u4e50\u8fea(\u9f99\u4e4b\u68a6\u8d2d\u7269\u4e2d\u5fc3)", "biz": "080302 \u4f53\u80b2\u4f11\u95f2\u670d\u52a1;\u5a31\u4e50\u573a\u6240;KTV", "pty": "0803"}}, {"type": "Feature", "geometry": {"type": "Point", "coordinates": [121.38264248079247, 31.21610160559679]}, "properties": {"name": "\u53f0\u5317\u7eafK PARTy(\u7f24\u8c37\u5e7f\u573a)", "biz": "080302 \u4f53\u80b2\u4f11\u95f2\u670d\u52a1;\u5a31\u4e50\u573a\u6240;KTV", "pty": "0803"}}, {"type": "Feature", "geometry": {"type": "Point", "coordinates": [121.39468295419007, 31.218458821996638]}, "properties": {"name": "\u838e\u838e\u4ff1\u4e50\u90e8", "biz": "080302 \u4f53\u80b2\u4f11\u95f2\u670d\u52a1;\u5a31\u4e50\u573a\u6240;KTV", "pty": "0803"}}, {"type": "Feature", "geometry": {"type": "Point", "coordinates": [121.3722115616662, 31.216545075289915]}, "properties": {"name": "\u878d\u8fea\u6c47\u91cf\u8d29KTV(\u5317\u8679\u8def)", "biz": "080302 \u4f53\u80b2\u4f11\u95f2\u670d\u52a1;\u5a31\u4e50\u573a\u6240;KTV", "pty": "0803"}}, {"type": "Feature", "geometry": {"type": "Point", "coordinates": [121.41235741078812, 31.221370007678512]}, "properties": {"name": "\u53cb\u5531(\u9f99\u4e4b\u68a6\u8d2d\u7269\u4e2d\u5fc3)", "biz": "080302 \u4f53\u80b2\u4f11\u95f2\u670d\u52a1;\u5a31\u4e50\u573a\u6240;KTV", "pty": "0803"}}, {"type": "Feature", "geometry": {"type": "Point", "coordinates": [121.38315211086405, 31.21612127833468]}, "properties": {"name": "\u7eafk(\u5929\u5c71\u5e97)", "biz": "080302 \u4f53\u80b2\u4f11\u95f2\u670d\u52a1;\u5a31\u4e50\u573a\u6240;KTV", "pty": "0803"}}, {"type": "Feature", "geometry": {"type": "Point", "coordinates": [121.41212027266343, 31.22081511578437]}, "properties": {"name": "\u54aa\u54d2(\u9f99\u4e4b\u68a6\u8d2d\u7269\u4e2d\u5fc3)", "biz": "080302 \u4f53\u80b2\u4f11\u95f2\u670d\u52a1;\u5a31\u4e50\u573a\u6240;KTV", "pty": "0803"}}, {"type": "Feature", "geometry": {"type": "Point", "coordinates": [121.39611633451084, 31.212392570756297]}, "properties": {"name": "LeVeL7", "biz": "080302 \u4f53\u80b2\u4f11\u95f2\u670d\u52a1;\u5a31\u4e50\u573a\u6240;KTV", "pty": "0803"}}, {"type": "Feature", "geometry": {"type": "Point", "coordinates": [121.42622760441334, 31.22001901194616]}, "properties": {"name": "\u53cb\u5531", "biz": "080302 \u4f53\u80b2\u4f11\u95f2\u670d\u52a1;\u5a31\u4e50\u573a\u6240;KTV", "pty": "0803"}}, {"type": "Feature", "geometry": {"type": "Point", "coordinates": [121.39811043960064, 31.210844260629024]}, "properties": {"name": "\u540d\u4eba\u6c47KTV\u591c\u603b\u4f1a\u4f1a\u6240", "biz": "080302 \u4f53\u80b2\u4f11\u95f2\u670d\u52a1;\u5a31\u4e50\u573a\u6240;KTV", "pty": "0803"}}, {"type": "Feature", "geometry": {"type": "Point", "coordinates": [121.38286902918381, 31.207914394387128]}, "properties": {"name": "HISHT\u6d77\u83b1\u7279KTV", "biz": "080302 \u4f53\u80b2\u4f11\u95f2\u670d\u52a1;\u5a31\u4e50\u573a\u6240;KTV", "pty": "0803"}}, {"type": "Feature", "geometry": {"type": "Point", "coordinates": [121.38164191486278, 31.208347981293635]}, "properties": {"name": "\u7eaf\u6d01", "biz": "080302 \u4f53\u80b2\u4f11\u95f2\u670d\u52a1;\u5a31\u4e50\u573a\u6240;KTV", "pty": "0803"}}, {"type": "Feature", "geometry": {"type": "Point", "coordinates": [121.39828435073592, 31.20047130041351]}, "properties": {"name": "\u6b4c\u795eK-Bar(\u4e0a\u6d77\u9ad8\u5c9b\u5c4b\u767e\u8d27)", "biz": "080302 \u4f53\u80b2\u4f11\u95f2\u670d\u52a1;\u5a31\u4e50\u573a\u6240;KTV", "pty": "0803"}}, {"type": "Feature", "geometry": {"type": "Point", "coordinates": [121.40083158929099, 31.212500673631812]}, "properties": {"name": "\u97f3\u7ea6\u4f1a\u65f6\u5c1aKTV", "biz": "080302 \u4f53\u80b2\u4f11\u95f2\u670d\u52a1;\u5a31\u4e50\u573a\u6240;KTV", "pty": "0803"}}, {"type": "Feature", "geometry": {"type": "Point", "coordinates": [121.38228174059225, 31.216195791929046]}, "properties": {"name": "A\u81ea\u8d29\u67dc", "biz": "080302 \u4f53\u80b2\u4f11\u95f2\u670d\u52a1;\u5a31\u4e50\u573a\u6240;KTV", "pty": "0803"}}, {"type": "Feature", "geometry": {"type": "Point", "coordinates": [121.36160999014662, 31.21013982117102]}, "properties": {"name": "\u4e61\u4e4b\u97f3KTV", "biz": "080302 \u4f53\u80b2\u4f11\u95f2\u670d\u52a1;\u5a31\u4e50\u573a\u6240;KTV", "pty": "0803"}}, {"type": "Feature", "geometry": {"type": "Point", "coordinates": [121.38180879282424, 31.20825991205977]}, "properties": {"name": "\u5927\u4e0a\u6d77\u56fd\u9645\u5a31\u4e50\u4f1a\u6240", "biz": "080302 \u4f53\u80b2\u4f11\u95f2\u670d\u52a1;\u5a31\u4e50\u573a\u6240;KTV", "pty": "0803"}}, {"type": "Feature", "geometry": {"type": "Point", "coordinates": [121.40272365300915, 31.205273501719166]}, "properties": {"name": "\u6b4c\u9b42", "biz": "080302 \u4f53\u80b2\u4f11\u95f2\u670d\u52a1;\u5a31\u4e50\u573a\u6240;KTV", "pty": "0803"}}, {"type": "Feature", "geometry": {"type": "Point", "coordinates": [121.39731119458102, 31.213507982773503]}, "properties": {"name": "\u540d\u4eba\u4f1a\u5546\u52a1\u4f1a\u6240", "biz": "080302 \u4f53\u80b2\u4f11\u95f2\u670d\u52a1;\u5a31\u4e50\u573a\u6240;KTV", "pty": "0803"}}, {"type": "Feature", "geometry": {"type": "Point", "coordinates": [121.40270965398066, 31.205217525822132]}, "properties": {"name": "KARAOKE UTATAMA", "biz": "080302 \u4f53\u80b2\u4f11\u95f2\u670d\u52a1;\u5a31\u4e50\u573a\u6240;KTV", "pty": "0803"}}, {"type": "Feature", "geometry": {"type": "Point", "coordinates": [121.40341492290287, 31.204537023403688]}, "properties": {"name": "\u53cb\u5531", "biz": "080302 \u4f53\u80b2\u4f11\u95f2\u670d\u52a1;\u5a31\u4e50\u573a\u6240;KTV", "pty": "0803"}}, {"type": "Feature", "geometry": {"type": "Point", "coordinates": [121.3967061917863, 31.21368191868663]}, "properties": {"name": "\u54aa\u54d2", "biz": "080302 \u4f53\u80b2\u4f11\u95f2\u670d\u52a1;\u5a31\u4e50\u573a\u6240;KTV", "pty": "0803"}}, {"type": "Feature", "geometry": {"type": "Point", "coordinates": [121.45293924121948, 31.242443783641093]}, "properties": {"name": "\u79c1\u4eba\u5b9a\u5236", "biz": "080302|080301 \u4f53\u80b2\u4f11\u95f2\u670d\u52a1;\u5a31\u4e50\u573a\u6240;KTV|\u4f53\u80b2\u4f11\u95f2\u670d\u52a1;\u5a31\u4e50\u573a\u6240;\u591c\u603b\u4f1a", "pty": "0803"}}, {"type": "Feature", "geometry": {"type": "Point", "coordinates": [121.45293924121948, 31.242443783641093]}, "properties": {"name": "\u79c1\u4eba\u5b9a\u5236", "biz": "080302|080301 \u4f53\u80b2\u4f11\u95f2\u670d\u52a1;\u5a31\u4e50\u573a\u6240;KTV|\u4f53\u80b2\u4f11\u95f2\u670d\u52a1;\u5a31\u4e50\u573a\u6240;\u591c\u603b\u4f1a", "pty": "0803"}}, {"type": "Feature", "geometry": {"type": "Point", "coordinates": [121.44798169738692, 31.24798235576927]}, "properties": {"name": "\u8d85\u7ea7\u739b\u4e3d\u91cf\u8d29KTV", "biz": "080302 \u4f53\u80b2\u4f11\u95f2\u670d\u52a1;\u5a31\u4e50\u573a\u6240;KTV", "pty": "0803"}}, {"type": "Feature", "geometry": {"type": "Point", "coordinates": [121.44988694077637, 31.232493505724484]}, "properties": {"name": "\u597d\u4e50\u8fea(\u6c5f\u5b81\u5e97)", "biz": "080302 \u4f53\u80b2\u4f11\u95f2\u670d\u52a1;\u5a31\u4e50\u573a\u6240;KTV", "pty": "0803"}}, {"type": "Feature", "geometry": {"type": "Point", "coordinates": [121.45506352764164, 31.237819814988903]}, "properties": {"name": "\u51ef\u6492\u56fd\u9645(\u9759\u5b89\u5e97)", "biz": "080302 \u4f53\u80b2\u4f11\u95f2\u670d\u52a1;\u5a31\u4e50\u573a\u6240;KTV", "pty": "0803"}}, {"type": "Feature", "geometry": {"type": "Point", "coordinates": [121.45099462278537, 31.269984292685315]}, "properties": {"name": "\u65b0\u68a6\u821e\u5385", "biz": "080302 \u4f53\u80b2\u4f11\u95f2\u670d\u52a1;\u5a31\u4e50\u573a\u6240;KTV", "pty": "0803"}}, {"type": "Feature", "geometry": {"type": "Point", "coordinates": [121.45371435796203, 31.300513932411747]}, "properties": {"name": "MYTH KTV", "biz": "080302 \u4f53\u80b2\u4f11\u95f2\u670d\u52a1;\u5a31\u4e50\u573a\u6240;KTV", "pty": "0803"}}, {"type": "Feature", "geometry": {"type": "Point", "coordinates": [121.44723238591227, 31.27599562049376]}, "properties": {"name": "\u94f6\u4e50\u8fea(\u5927\u5b81\u5e97)", "biz": "080302 \u4f53\u80b2\u4f11\u95f2\u670d\u52a1;\u5a31\u4e50\u573a\u6240;KTV", "pty": "0803"}}, {"type": "Feature", "geometry": {"type": "Point", "coordinates": [121.44248414914793, 31.227670504962195]}, "properties": {"name": "K\u6b4c\u4e4b\u738b(\u9759\u5b89\u5e97)", "biz": "080302 \u4f53\u80b2\u4f11\u95f2\u670d\u52a1;\u5a31\u4e50\u573a\u6240;KTV", "pty": "0803"}}, {"type": "Feature", "geometry": {"type": "Point", "coordinates": [121.42683724893654, 31.2348888563418]}, "properties": {"name": "\u4e0a\u6d77\u5929\u4e0a\u4eba\u95f4", "biz": "080302 \u4f53\u80b2\u4f11\u95f2\u670d\u52a1;\u5a31\u4e50\u573a\u6240;KTV", "pty": "0803"}}, {"type": "Feature", "geometry": {"type": "Point", "coordinates": [121.42564740818375, 31.281224069429705]}, "properties": {"name": "\u9ea6\u70ab\u4e3b\u9898\u91cf\u8d29\u5f0f\u00b7KTV(\u95f8\u5317\u5e97)", "biz": "080302 \u4f53\u80b2\u4f11\u95f2\u670d\u52a1;\u5a31\u4e50\u573a\u6240;KTV", "pty": "0803"}}, {"type": "Feature", "geometry": {"type": "Point", "coordinates": [121.45861014641358, 31.25609914743068]}, "properties": {"name": "\u695a\u9999\u697cKTV", "biz": "080302 \u4f53\u80b2\u4f11\u95f2\u670d\u52a1;\u5a31\u4e50\u573a\u6240;KTV", "pty": "0803"}}, {"type": "Feature", "geometry": {"type": "Point", "coordinates": [121.4678375521471, 31.244711997058342]}, "properties": {"name": "\u597d\u4e50\u8fea(\u4e0a\u6d77\u5927\u60a6\u57ce\u5357\u5ea7)", "biz": "080302 \u4f53\u80b2\u4f11\u95f2\u670d\u52a1;\u5a31\u4e50\u573a\u6240;KTV", "pty": "0803"}}, {"type": "Feature", "geometry": {"type": "Point", "coordinates": [121.45391048332965, 31.2590146472714]}, "properties": {"name": "\u7d2b\u56ed\u4f1a\u6240KTV", "biz": "080302 \u4f53\u80b2\u4f11\u95f2\u670d\u52a1;\u5a31\u4e50\u573a\u6240;KTV", "pty": "0803"}}, {"type": "Feature", "geometry": {"type": "Point", "coordinates": [121.45053361632233, 31.232754806400397]}, "properties": {"name": "\u661f\u8f89\u56fd\u9645", "biz": "080302 \u4f53\u80b2\u4f11\u95f2\u670d\u52a1;\u5a31\u4e50\u573a\u6240;KTV", "pty": "0803"}}, {"type": "Feature", "geometry": {"type": "Point", "coordinates": [121.45359403548018, 31.300401698853328]}, "properties": {"name": "MKKTV", "biz": "080302 \u4f53\u80b2\u4f11\u95f2\u670d\u52a1;\u5a31\u4e50\u573a\u6240;KTV", "pty": "0803"}}, {"type": "Feature", "geometry": {"type": "Point", "coordinates": [121.45234109043061, 31.24851069213783]}, "properties": {"name": "\u4e0a\u6d77\u4e2d\u4e9a\u56fd\u9645\u5546\u52a1\u5a31\u4e50\u4f1a\u6240", "biz": "080302 \u4f53\u80b2\u4f11\u95f2\u670d\u52a1;\u5a31\u4e50\u573a\u6240;KTV", "pty": "0803"}}, {"type": "Feature", "geometry": {"type": "Point", "coordinates": [121.47617370157641, 31.25035656541051]}, "properties": {"name": "\u7687\u5bb6\u4f1a\u6240(\u6cb3\u5357\u5317\u8def)", "biz": "080302|071400 \u4f53\u80b2\u4f11\u95f2\u670d\u52a1;\u5a31\u4e50\u573a\u6240;KTV|\u751f\u6d3b\u670d\u52a1;\u6d17\u6d74\u63a8\u62ff\u573a\u6240;\u6d17\u6d74\u63a8\u62ff\u573a\u6240", "pty": "0803"}}, {"type": "Feature", "geometry": {"type": "Point", "coordinates": [121.45936288147702, 31.2733375703907]}, "properties": {"name": "\u4e1c\u65b9\u58f9\u53f7\u516c\u9986", "biz": "080302 \u4f53\u80b2\u4f11\u95f2\u670d\u52a1;\u5a31\u4e50\u573a\u6240;KTV", "pty": "0803"}}, {"type": "Feature", "geometry": {"type": "Point", "coordinates": [121.46743416306079, 31.245815417849798]}, "properties": {"name": "\u53cb\u5531(\u4e0a\u6d77\u5927\u60a6\u57ce\u5317\u5ea7)", "biz": "080302 \u4f53\u80b2\u4f11\u95f2\u670d\u52a1;\u5a31\u4e50\u573a\u6240;KTV", "pty": "0803"}}, {"type": "Feature", "geometry": {"type": "Point", "coordinates": [121.44477070769652, 31.3064232698114]}, "properties": {"name": "\u5531\u4eab\u7eafK PARTY(\u5171\u548c\u65b0\u8def\u5e97)", "biz": "080302 \u4f53\u80b2\u4f11\u95f2\u670d\u52a1;\u5a31\u4e50\u573a\u6240;KTV", "pty": "0803"}}, {"type": "Feature", "geometry": {"type": "Point", "coordinates": [121.45389251339824, 31.269679002606004]}, "properties": {"name": "\u5927\u56de\u97f3\u91cf\u8d29\u5f0fKTV(\u95f8\u5317\u516c\u56ed\u5e97)", "biz": "080302 \u4f53\u80b2\u4f11\u95f2\u670d\u52a1;\u5a31\u4e50\u573a\u6240;KTV", "pty": "0803"}}, {"type": "Feature", "geometry": {"type": "Point", "coordinates": [121.45107319776197, 31.265747281536044]}, "properties": {"name": "\u6b66\u5fb7\u640f\u51fb(\u76db\u6e90\u751f\u6d3b\u5e7f\u573a)", "biz": "080302 \u4f53\u80b2\u4f11\u95f2\u670d\u52a1;\u5a31\u4e50\u573a\u6240;KTV", "pty": "0803"}}, {"type": "Feature", "geometry": {"type": "Point", "coordinates": [121.44895457937626, 31.31278953758992]}, "properties": {"name": "\u626c\u6b4cKTV(\u5f6d\u6d66\u5e97)", "biz": "080302 \u4f53\u80b2\u4f11\u95f2\u670d\u52a1;\u5a31\u4e50\u573a\u6240;KTV", "pty": "0803"}}, {"type": "Feature", "geometry": {"type": "Point", "coordinates": [121.43011599448039, 31.27647303407691]}, "properties": {"name": "\u9f0e\u7ea2\u56fd\u9645", "biz": "080302 \u4f53\u80b2\u4f11\u95f2\u670d\u52a1;\u5a31\u4e50\u573a\u6240;KTV", "pty": "0803"}}, {"type": "Feature", "geometry": {"type": "Point", "coordinates": [121.43814389521343, 31.235655810264163]}, "properties": {"name": "FZ studio(\u5e38\u5fb7\u8def\u5e97)", "biz": "080302 \u4f53\u80b2\u4f11\u95f2\u670d\u52a1;\u5a31\u4e50\u573a\u6240;KTV", "pty": "0803"}}, {"type": "Feature", "geometry": {"type": "Point", "coordinates": [121.4438630594951, 31.300483784595805]}, "properties": {"name": "\u6b22\u6b4c\u5929\u5929\u91cf\u8d29\u00b7KTV(\u5171\u548c\u65b0\u8def\u5e97)", "biz": "080302 \u4f53\u80b2\u4f11\u95f2\u670d\u52a1;\u5a31\u4e50\u573a\u6240;KTV", "pty": "0803"}}, {"type": "Feature", "geometry": {"type": "Point", "coordinates": [121.45977909543801, 31.273588497916563]}, "properties": {"name": "\u7acb\u6e90KTV(\u6d1b\u5ddd\u4e1c\u8def)", "biz": "080302 \u4f53\u80b2\u4f11\u95f2\u670d\u52a1;\u5a31\u4e50\u573a\u6240;KTV", "pty": "0803"}}, {"type": "Feature", "geometry": {"type": "Point", "coordinates": [121.43599018508361, 31.319585060358712]}, "properties": {"name": "\u79cb\u4e91OK", "biz": "080302 \u4f53\u80b2\u4f11\u95f2\u670d\u52a1;\u5a31\u4e50\u573a\u6240;KTV", "pty": "0803"}}, {"type": "Feature", "geometry": {"type": "Point", "coordinates": [121.46297129169677, 31.267376222751455]}, "properties": {"name": "\u4e50\u4f34\u6e7e\u91cf\u8d29KTV(\u5e73\u578b\u5173\u8def\u5e97)", "biz": "080302 \u4f53\u80b2\u4f11\u95f2\u670d\u52a1;\u5a31\u4e50\u573a\u6240;KTV", "pty": "0803"}}, {"type": "Feature", "geometry": {"type": "Point", "coordinates": [121.42587971260555, 31.23574024539417]}, "properties": {"name": "KING COIN\u91cf\u8d29KTV(\u957f\u5bff\u8def\u5e97)", "biz": "080302 \u4f53\u80b2\u4f11\u95f2\u670d\u52a1;\u5a31\u4e50\u573a\u6240;KTV", "pty": "0803"}}, {"type": "Feature", "geometry": {"type": "Point", "coordinates": [121.44033999901622, 31.312098544639824]}, "properties": {"name": "\u4e3d\u7f8e\u4ebaKTV", "biz": "080302 \u4f53\u80b2\u4f11\u95f2\u670d\u52a1;\u5a31\u4e50\u573a\u6240;KTV", "pty": "0803"}}, {"type": "Feature", "geometry": {"type": "Point", "coordinates": [121.45596417559152, 31.271446115616012]}, "properties": {"name": "\u56fd\u8272\u5929\u9999KTV(\u6d1b\u5ddd\u4e1c\u8def\u5e97)", "biz": "080302 \u4f53\u80b2\u4f11\u95f2\u670d\u52a1;\u5a31\u4e50\u573a\u6240;KTV", "pty": "0803"}}, {"type": "Feature", "geometry": {"type": "Point", "coordinates": [121.45403787429552, 31.27016513252719]}, "properties": {"name": "\u6caa\u5317\u5361\u62c9ok", "biz": "080302 \u4f53\u80b2\u4f11\u95f2\u670d\u52a1;\u5a31\u4e50\u573a\u6240;KTV", "pty": "0803"}}, {"type": "Feature", "geometry": {"type": "Point", "coordinates": [121.44491906063357, 31.306469550318017]}, "properties": {"name": "\u7545\u4eab\u7eafKKTV", "biz": "080302 \u4f53\u80b2\u4f11\u95f2\u670d\u52a1;\u5a31\u4e50\u573a\u6240;KTV", "pty": "0803"}}, {"type": "Feature", "geometry": {"type": "Point", "coordinates": [121.45542715813363, 31.23078491058999]}, "properties": {"name": "\u5de8\u679c\u5a31\u4e50", "biz": "080302 \u4f53\u80b2\u4f11\u95f2\u670d\u52a1;\u5a31\u4e50\u573a\u6240;KTV", "pty": "0803"}}, {"type": "Feature", "geometry": {"type": "Point", "coordinates": [121.42620421089475, 31.23564869638889]}, "properties": {"name": "\u7329\u738bKTV", "biz": "080302 \u4f53\u80b2\u4f11\u95f2\u670d\u52a1;\u5a31\u4e50\u573a\u6240;KTV", "pty": "0803"}}, {"type": "Feature", "geometry": {"type": "Point", "coordinates": [121.43388571075519, 31.220119918278947]}, "properties": {"name": "\u4f11\u95f2\u89d2", "biz": "080302 \u4f53\u80b2\u4f11\u95f2\u670d\u52a1;\u5a31\u4e50\u573a\u6240;KTV", "pty": "0803"}}, {"type": "Feature", "geometry": {"type": "Point", "coordinates": [121.43982093009778, 31.230558167926574]}, "properties": {"name": "\u6d69\u987a\u9633\u5149\u5546\u52a1\u4f1a\u6240", "biz": "080302 \u4f53\u80b2\u4f11\u95f2\u670d\u52a1;\u5a31\u4e50\u573a\u6240;KTV", "pty": "0803"}}, {"type": "Feature", "geometry": {"type": "Point", "coordinates": [121.46742413109787, 31.245813391884752]}, "properties": {"name": "\u54c7\u5c4b(\u4e0a\u6d77\u5927\u60a6\u57ce\u5317\u5ea7)", "biz": "080302 \u4f53\u80b2\u4f11\u95f2\u670d\u52a1;\u5a31\u4e50\u573a\u6240;KTV", "pty": "0803"}}, {"type": "Feature", "geometry": {"type": "Point", "coordinates": [121.43992287914627, 31.26834150355334]}, "properties": {"name": "Skymusic\u5929\u7a7a\u97f3\u4e50K Party(\u6caa\u592a\u8def\u5e97)", "biz": "080302 \u4f53\u80b2\u4f11\u95f2\u670d\u52a1;\u5a31\u4e50\u573a\u6240;KTV", "pty": "0803"}}, {"type": "Feature", "geometry": {"type": "Point", "coordinates": [121.38611955512545, 31.269484501488265]}, "properties": {"name": "\u5fb7\u827a\u684c\u7403", "biz": "080302|080113 \u4f53\u80b2\u4f11\u95f2\u670d\u52a1;\u5a31\u4e50\u573a\u6240;KTV|\u4f53\u80b2\u4f11\u95f2\u670d\u52a1;\u8fd0\u52a8\u573a\u9986;\u53f0\u7403\u5385", "pty": "0803"}}, {"type": "Feature", "geometry": {"type": "Point", "coordinates": [121.377003307495, 31.285410986306974]}, "properties": {"name": "\u8c6a\u7235(\u53e4\u6d6a\u8def)", "biz": "080302|040100 \u4f53\u80b2\u4f11\u95f2\u670d\u52a1;\u5a31\u4e50\u573a\u6240;KTV|\u6469\u6258\u8f66\u670d\u52a1;\u6469\u6258\u8f66\u9500\u552e;\u6469\u6258\u8f66\u9500\u552e", "pty": "0803"}}, {"type": "Feature", "geometry": {"type": "Point", "coordinates": [121.40096208828867, 31.241456172088853]}, "properties": {"name": "\u97f3\u6770\u91cf\u8d29\u5f0fKTV(\u5170\u6eaa\u5e97)", "biz": "080302 \u4f53\u80b2\u4f11\u95f2\u670d\u52a1;\u5a31\u4e50\u573a\u6240;KTV", "pty": "0803"}}, {"type": "Feature", "geometry": {"type": "Point", "coordinates": [121.41053046421183, 31.239591436322776]}, "properties": {"name": "\u6b22\u4e50\u8fea\u6c27\u5427KTV(\u66f9\u6768\u5e97)", "biz": "080302 \u4f53\u80b2\u4f11\u95f2\u670d\u52a1;\u5a31\u4e50\u573a\u6240;KTV", "pty": "0803"}}, {"type": "Feature", "geometry": {"type": "Point", "coordinates": [121.3972630073836, 31.25004908207972]}, "properties": {"name": "\u5e1d\u6653\u5546\u52a1\u4f1a\u6240", "biz": "080302 \u4f53\u80b2\u4f11\u95f2\u670d\u52a1;\u5a31\u4e50\u573a\u6240;KTV", "pty": "0803"}}, {"type": "Feature", "geometry": {"type": "Point", "coordinates": [121.43320561254338, 31.264094931724742]}, "properties": {"name": "Enjoy\u97f3\u6770\u4e3b\u9898\u6b4c\u57ce(\u5b9c\u5ddd\u5e97)", "biz": "080302 \u4f53\u80b2\u4f11\u95f2\u670d\u52a1;\u5a31\u4e50\u573a\u6240;KTV", "pty": "0803"}}, {"type": "Feature", "geometry": {"type": "Point", "coordinates": [121.42819096841772, 31.251316220802636]}, "properties": {"name": "\u4e1c\u65b9\u6b27\u00b7\u8bfa\u62c9\u91cf\u8d29\u5f0fKTV", "biz": "080302 \u4f53\u80b2\u4f11\u95f2\u670d\u52a1;\u5a31\u4e50\u573a\u6240;KTV", "pty": "0803"}}, {"type": "Feature", "geometry": {"type": "Point", "coordinates": [121.42143587141044, 31.231969841923476]}, "properties": {"name": "\u65b0\u9f0e\u4f1a\u4f1a\u6240", "biz": "080302 \u4f53\u80b2\u4f11\u95f2\u670d\u52a1;\u5a31\u4e50\u573a\u6240;KTV", "pty": "0803"}}, {"type": "Feature", "geometry": {"type": "Point", "coordinates": [121.3911447202419, 31.27631665099263]}, "properties": {"name": "\u91d1\u4e2d\u73af\u00b7\u591c\u660e\u73e0\u591c\u603b\u4f1aKTV\u4f1a\u6240", "biz": "080302 \u4f53\u80b2\u4f11\u95f2\u670d\u52a1;\u5a31\u4e50\u573a\u6240;KTV", "pty": "0803"}}, {"type": "Feature", "geometry": {"type": "Point", "coordinates": [121.40899969116522, 31.2369678113748]}, "properties": {"name": "Z+KTV\u81ea\u7531\u6e2fPLUS(\u73af\u7403\u6e2f\u5e97)", "biz": "080302 \u4f53\u80b2\u4f11\u95f2\u670d\u52a1;\u5a31\u4e50\u573a\u6240;KTV", "pty": "0803"}}, {"type": "Feature", "geometry": {"type": "Point", "coordinates": [121.42515050638626, 31.24866748721486]}, "properties": {"name": "\u661f\u7687\u5bab", "biz": "080302 \u4f53\u80b2\u4f11\u95f2\u670d\u52a1;\u5a31\u4e50\u573a\u6240;KTV", "pty": "0803"}}, {"type": "Feature", "geometry": {"type": "Point", "coordinates": [121.40012891558443, 31.24186388353142]}, "properties": {"name": "\u81ea\u7531\u6e2f(\u66f9\u6768\u5e97)", "biz": "080302 \u4f53\u80b2\u4f11\u95f2\u670d\u52a1;\u5a31\u4e50\u573a\u6240;KTV", "pty": "0803"}}, {"type": "Feature", "geometry": {"type": "Point", "coordinates": [121.3794983665075, 31.246526703149005]}, "properties": {"name": "\u597d\u4e50\u8fea(\u767e\u8054\u4e2d\u73af\u8d2d\u7269\u5e7f\u573a)", "biz": "080302 \u4f53\u80b2\u4f11\u95f2\u670d\u52a1;\u5a31\u4e50\u573a\u6240;KTV", "pty": "0803"}}, {"type": "Feature", "geometry": {"type": "Point", "coordinates": [121.43292108659183, 31.241012716771465]}, "properties": {"name": "\u97f3\u6770KTV(\u957f\u5bff\u8def\u5e97)", "biz": "080302 \u4f53\u80b2\u4f11\u95f2\u670d\u52a1;\u5a31\u4e50\u573a\u6240;KTV", "pty": "0803"}}, {"type": "Feature", "geometry": {"type": "Point", "coordinates": [121.3716646868673, 31.23416538405061]}, "properties": {"name": "\u4e0a\u6d77\u6b4c\u57ce(\u91d1\u6c99\u6c5f\u8def\u5e97)", "biz": "080302 \u4f53\u80b2\u4f11\u95f2\u670d\u52a1;\u5a31\u4e50\u573a\u6240;KTV", "pty": "0803"}}, {"type": "Feature", "geometry": {"type": "Point", "coordinates": [121.43191437605661, 31.239488870171495]}, "properties": {"name": "\u4e0a\u6d77K\u6b4c", "biz": "080302 \u4f53\u80b2\u4f11\u95f2\u670d\u52a1;\u5a31\u4e50\u573a\u6240;KTV", "pty": "0803"}}, {"type": "Feature", "geometry": {"type": "Point", "coordinates": [121.43265661044498, 31.24086537515553]}, "properties": {"name": "\u6b23\u5c1a\u6b4c\u57ce\u91cf\u8d29\u5f0fKTV(\u4e9a\u65b0\u751f\u6d3b\u5e7f\u573a)", "biz": "080302 \u4f53\u80b2\u4f11\u95f2\u670d\u52a1;\u5a31\u4e50\u573a\u6240;KTV", "pty": "0803"}}, {"type": "Feature", "geometry": {"type": "Point", "coordinates": [121.43569794724144, 31.24651769277385]}, "properties": {"name": "\u91d1\u679d\u7389\u53f6", "biz": "080302 \u4f53\u80b2\u4f11\u95f2\u670d\u52a1;\u5a31\u4e50\u573a\u6240;KTV", "pty": "0803"}}, {"type": "Feature", "geometry": {"type": "Point", "coordinates": [121.38321211373817, 31.26144856918244]}, "properties": {"name": "\u6625\u6696\u82b1\u5f00KTV", "biz": "080302 \u4f53\u80b2\u4f11\u95f2\u670d\u52a1;\u5a31\u4e50\u573a\u6240;KTV", "pty": "0803"}}, {"type": "Feature", "geometry": {"type": "Point", "coordinates": [121.37610973578424, 31.23356438103281]}, "properties": {"name": "\u597d\u4e50\u8fea(\u8fd1\u94c1\u5e97)", "biz": "080302 \u4f53\u80b2\u4f11\u95f2\u670d\u52a1;\u5a31\u4e50\u573a\u6240;KTV", "pty": "0803"}}, {"type": "Feature", "geometry": {"type": "Point", "coordinates": [121.4228103280336, 31.27037627409696]}, "properties": {"name": "\u65b0\u5750\u6807\u4e3b\u9898KTV(\u666e\u9640\u5e97)", "biz": "080302 \u4f53\u80b2\u4f11\u95f2\u670d\u52a1;\u5a31\u4e50\u573a\u6240;KTV", "pty": "0803"}}, {"type": "Feature", "geometry": {"type": "Point", "coordinates": [121.34495931553515, 31.283700904493696]}, "properties": {"name": "\u6b22\u6b4c\u5929\u5929\u91cf\u8d29KTV(\u6843\u6d66\u5e97)", "biz": "080302 \u4f53\u80b2\u4f11\u95f2\u670d\u52a1;\u5a31\u4e50\u573a\u6240;KTV", "pty": "0803"}}, {"type": "Feature", "geometry": {"type": "Point", "coordinates": [121.43298517890167, 31.264356475520128]}, "properties": {"name": "\u7f24\u7eb7\u6b4c\u57ce(\u7f8e\u534e\u5546\u57ce\u5e97)", "biz": "080302 \u4f53\u80b2\u4f11\u95f2\u670d\u52a1;\u5a31\u4e50\u573a\u6240;KTV", "pty": "0803"}}, {"type": "Feature", "geometry": {"type": "Point", "coordinates": [121.39443448480188, 31.24718259598493]}, "properties": {"name": "\u65b0\u5927\u4e16\u754c\u6b4c\u5385", "biz": "080302 \u4f53\u80b2\u4f11\u95f2\u670d\u52a1;\u5a31\u4e50\u573a\u6240;KTV", "pty": "0803"}}, {"type": "Feature", "geometry": {"type": "Point", "coordinates": [121.4329722009905, 31.240787898171895]}, "properties": {"name": "\u54aa\u54d2\u5531\u5427(\u4e9a\u65b0\u751f\u6d3b\u5e7f\u573a)", "biz": "080302 \u4f53\u80b2\u4f11\u95f2\u670d\u52a1;\u5a31\u4e50\u573a\u6240;KTV", "pty": "0803"}}, {"type": "Feature", "geometry": {"type": "Point", "coordinates": [121.41268106919935, 31.239748699411187]}, "properties": {"name": "\u91d1\u4ed5\u5821\u6c47\u878d\u5929\u5730\u4f1a\u6240", "biz": "080302 \u4f53\u80b2\u4f11\u95f2\u670d\u52a1;\u5a31\u4e50\u573a\u6240;KTV", "pty": "0803"}}, {"type": "Feature", "geometry": {"type": "Point", "coordinates": [121.40440147312508, 31.247981986307707]}, "properties": {"name": "\u5317\u6d77KTV", "biz": "080302 \u4f53\u80b2\u4f11\u95f2\u670d\u52a1;\u5a31\u4e50\u573a\u6240;KTV", "pty": "0803"}}, {"type": "Feature", "geometry": {"type": "Point", "coordinates": [121.42967245114265, 31.239496589116644]}, "properties": {"name": "\u4e0a\u6d77\u6ee9\u83c1\u82f1\u4f1a(\u957f\u5bff\u8def\u5e97)", "biz": "080302 \u4f53\u80b2\u4f11\u95f2\u670d\u52a1;\u5a31\u4e50\u573a\u6240;KTV", "pty": "0803"}}, {"type": "Feature", "geometry": {"type": "Point", "coordinates": [121.42260435461263, 31.23242689875751]}, "properties": {"name": "\u597d\u4e50\u8fea(\u957f\u5bff\u5e97)", "biz": "080302 \u4f53\u80b2\u4f11\u95f2\u670d\u52a1;\u5a31\u4e50\u573a\u6240;KTV", "pty": "0803"}}, {"type": "Feature", "geometry": {"type": "Point", "coordinates": [121.42629674065492, 31.26567645488598]}, "properties": {"name": "\u73b0\u4ee3\u897f\u90e8KTV", "biz": "080302 \u4f53\u80b2\u4f11\u95f2\u670d\u52a1;\u5a31\u4e50\u573a\u6240;KTV", "pty": "0803"}}, {"type": "Feature", "geometry": {"type": "Point", "coordinates": [121.41607643193049, 31.236241832361884]}, "properties": {"name": "\u541b\u6ee1\u5802", "biz": "080302 \u4f53\u80b2\u4f11\u95f2\u670d\u52a1;\u5a31\u4e50\u573a\u6240;KTV", "pty": "0803"}}, {"type": "Feature", "geometry": {"type": "Point", "coordinates": [121.39853030164598, 31.24705343064216]}, "properties": {"name": "\u5357\u77f3\u5927\u9152\u5e97KTV", "biz": "080302 \u4f53\u80b2\u4f11\u95f2\u670d\u52a1;\u5a31\u4e50\u573a\u6240;KTV", "pty": "0803"}}, {"type": "Feature", "geometry": {"type": "Point", "coordinates": [121.36740002950764, 31.236678974910152]}, "properties": {"name": "\u5b9d\u96867\u53f7\u516c\u9986KTV", "biz": "080302 \u4f53\u80b2\u4f11\u95f2\u670d\u52a1;\u5a31\u4e50\u573a\u6240;KTV", "pty": "0803"}}, {"type": "Feature", "geometry": {"type": "Point", "coordinates": [121.42933991115306, 31.23925722996269]}, "properties": {"name": "\u4e0a\u6d77\u6ee9KTV{(\u666e\u9640\u5e97\u5206\u5e97})", "biz": "080302 \u4f53\u80b2\u4f11\u95f2\u670d\u52a1;\u5a31\u4e50\u573a\u6240;KTV", "pty": "0803"}}, {"type": "Feature", "geometry": {"type": "Point", "coordinates": [121.40844938953316, 31.236647687903773]}, "properties": {"name": "\u54aa\u54d2", "biz": "080302 \u4f53\u80b2\u4f11\u95f2\u670d\u52a1;\u5a31\u4e50\u573a\u6240;KTV", "pty": "0803"}}, {"type": "Feature", "geometry": {"type": "Point", "coordinates": [121.43677026970319, 31.244647340088175]}, "properties": {"name": "\u53cb\u5531(\u5df4\u9ece\u6625\u5929\u767e\u8d27)", "biz": "080302 \u4f53\u80b2\u4f11\u95f2\u670d\u52a1;\u5a31\u4e50\u573a\u6240;KTV", "pty": "0803"}}, {"type": "Feature", "geometry": {"type": "Point", "coordinates": [121.39107104744832, 31.22702355078347]}, "properties": {"name": "\u597d\u4e50\u8feaKTV(\u56fd\u76db\u65f6\u5c1a)", "biz": "080302 \u4f53\u80b2\u4f11\u95f2\u670d\u52a1;\u5a31\u4e50\u573a\u6240;KTV", "pty": "0803"}}, {"type": "Feature", "geometry": {"type": "Point", "coordinates": [121.42217225131974, 31.27300545278294]}, "properties": {"name": "\u94ed\u4ebaKTV", "biz": "080302 \u4f53\u80b2\u4f11\u95f2\u670d\u52a1;\u5a31\u4e50\u573a\u6240;KTV", "pty": "0803"}}, {"type": "Feature", "geometry": {"type": "Point", "coordinates": [121.3913321930377, 31.224403703593477]}, "properties": {"name": "MT\u5546\u52a1\u91cf\u8d29\u5f0fKTV(\u957f\u98ce\u666f\u7554\u5e97)", "biz": "080302 \u4f53\u80b2\u4f11\u95f2\u670d\u52a1;\u5a31\u4e50\u573a\u6240;KTV", "pty": "0803"}}, {"type": "Feature", "geometry": {"type": "Point", "coordinates": [121.36184511600095, 31.23887501865423]}, "properties": {"name": "\u97f3\u6770BUbbLE\u91cf\u8d29\u5f0fKTV(\u91d1\u6c99\u6c5f\u8def\u5e97)", "biz": "080302 \u4f53\u80b2\u4f11\u95f2\u670d\u52a1;\u5a31\u4e50\u573a\u6240;KTV", "pty": "0803"}}, {"type": "Feature", "geometry": {"type": "Point", "coordinates": [121.38989760886423, 31.22534270388752]}, "properties": {"name": "MT\u5546\u52a1\u91cf\u8d29KTV", "biz": "080302 \u4f53\u80b2\u4f11\u95f2\u670d\u52a1;\u5a31\u4e50\u573a\u6240;KTV", "pty": "0803"}}, {"type": "Feature", "geometry": {"type": "Point", "coordinates": [121.37992162786016, 31.28512678263869]}, "properties": {"name": "\u7ea2\u6b4c\u574a(\u53e4\u6d6a\u8def)", "biz": "080302 \u4f53\u80b2\u4f11\u95f2\u670d\u52a1;\u5a31\u4e50\u573a\u6240;KTV", "pty": "0803"}}, {"type": "Feature", "geometry": {"type": "Point", "coordinates": [121.38592351752521, 31.23683904701479]}, "properties": {"name": "\u987a\u7f51\u5a31\u4e50\u5728\u7ebf", "biz": "080302 \u4f53\u80b2\u4f11\u95f2\u670d\u52a1;\u5a31\u4e50\u573a\u6240;KTV", "pty": "0803"}}, {"type": "Feature", "geometry": {"type": "Point", "coordinates": [121.42665052327699, 31.26291709854828]}, "properties": {"name": "\u7f8e\u742a\u97f3\u4e50\u8336\u5427", "biz": "080302 \u4f53\u80b2\u4f11\u95f2\u670d\u52a1;\u5a31\u4e50\u573a\u6240;KTV", "pty": "0803"}}, {"type": "Feature", "geometry": {"type": "Point", "coordinates": [121.41331842538192, 31.264654090333988]}, "properties": {"name": "\u77e5\u97f3(\u65b0\u6cc9\u8def)", "biz": "080302 \u4f53\u80b2\u4f11\u95f2\u670d\u52a1;\u5a31\u4e50\u573a\u6240;KTV", "pty": "0803"}}, {"type": "Feature", "geometry": {"type": "Point", "coordinates": [121.39041543127965, 31.22518260983511]}, "properties": {"name": "VIGOR 100 KTV(\u957f\u98ce\u666f\u7554\u5e7f\u573a)", "biz": "080302 \u4f53\u80b2\u4f11\u95f2\u670d\u52a1;\u5a31\u4e50\u573a\u6240;KTV", "pty": "0803"}}, {"type": "Feature", "geometry": {"type": "Point", "coordinates": [121.43170523432723, 31.25981549199369]}, "properties": {"name": "\u6765\u53bb\u81ea\u7531", "biz": "080302 \u4f53\u80b2\u4f11\u95f2\u670d\u52a1;\u5a31\u4e50\u573a\u6240;KTV", "pty": "0803"}}, {"type": "Feature", "geometry": {"type": "Point", "coordinates": [121.36202883396925, 31.238767819744442]}, "properties": {"name": "BUbbLE(\u91d1\u6c99\u548c\u7f8e\u5e7f\u573a)", "biz": "080302 \u4f53\u80b2\u4f11\u95f2\u670d\u52a1;\u5a31\u4e50\u573a\u6240;KTV", "pty": "0803"}}, {"type": "Feature", "geometry": {"type": "Point", "coordinates": [121.42209114064113, 31.27305634282848]}, "properties": {"name": "\u65b0\u94ed\u4eba", "biz": "080302 \u4f53\u80b2\u4f11\u95f2\u670d\u52a1;\u5a31\u4e50\u573a\u6240;KTV", "pty": "0803"}}, {"type": "Feature", "geometry": {"type": "Point", "coordinates": [121.37279331921333, 31.234377133607126]}, "properties": {"name": "\u7687\u51a0\u5047\u65e5\u8d35\u5bbe\u9152\u5eca", "biz": "080302 \u4f53\u80b2\u4f11\u95f2\u670d\u52a1;\u5a31\u4e50\u573a\u6240;KTV", "pty": "0803"}}, {"type": "Feature", "geometry": {"type": "Point", "coordinates": [121.37614069327017, 31.23368629750354]}, "properties": {"name": "\u4f11\u95f2\u5a31\u4e50\u5e97", "biz": "080302 \u4f53\u80b2\u4f11\u95f2\u670d\u52a1;\u5a31\u4e50\u573a\u6240;KTV", "pty": "0803"}}, {"type": "Feature", "geometry": {"type": "Point", "coordinates": [121.39997094742382, 31.24124814668812]}, "properties": {"name": "\u9e92\u9e9f\u6b4c\u57ce(\u5170\u6eaa\u8def)", "biz": "080302 \u4f53\u80b2\u4f11\u95f2\u670d\u52a1;\u5a31\u4e50\u573a\u6240;KTV", "pty": "0803"}}, {"type": "Feature", "geometry": {"type": "Point", "coordinates": [121.39000666444124, 31.224230189113783]}, "properties": {"name": "VIGOR 100 KTV(\u957f\u98ce\u5927\u60a6\u57ce)", "biz": "080302 \u4f53\u80b2\u4f11\u95f2\u670d\u52a1;\u5a31\u4e50\u573a\u6240;KTV", "pty": "0803"}}, {"type": "Feature", "geometry": {"type": "Point", "coordinates": [121.41507865987289, 31.257016711342484]}, "properties": {"name": "IN LOVE KTV", "biz": "080302 \u4f53\u80b2\u4f11\u95f2\u670d\u52a1;\u5a31\u4e50\u573a\u6240;KTV", "pty": "0803"}}, {"type": "Feature", "geometry": {"type": "Point", "coordinates": [121.36174226056289, 31.239094057904612]}, "properties": {"name": "\u82f1\u6770KTV", "biz": "080302 \u4f53\u80b2\u4f11\u95f2\u670d\u52a1;\u5a31\u4e50\u573a\u6240;KTV", "pty": "0803"}}, {"type": "Feature", "geometry": {"type": "Point", "coordinates": [121.43685043276102, 31.244654473723177]}, "properties": {"name": "6\u53f7\u5305\u53a2(\u5df4\u9ece\u6625\u5929\u767e\u8d27)", "biz": "080302 \u4f53\u80b2\u4f11\u95f2\u670d\u52a1;\u5a31\u4e50\u573a\u6240;KTV", "pty": "0803"}}, {"type": "Feature", "geometry": {"type": "Point", "coordinates": [121.42873779411497, 31.240589787600825]}, "properties": {"name": "\u65e0\u975e\u5a31\u4e50", "biz": "080302 \u4f53\u80b2\u4f11\u95f2\u670d\u52a1;\u5a31\u4e50\u573a\u6240;KTV", "pty": "0803"}}, {"type": "Feature", "geometry": {"type": "Point", "coordinates": [121.35951380721993, 31.228584989982547]}, "properties": {"name": "\u5fae\u5c18\u5a31\u4e50", "biz": "080302 \u4f53\u80b2\u4f11\u95f2\u670d\u52a1;\u5a31\u4e50\u573a\u6240;KTV", "pty": "0803"}}, {"type": "Feature", "geometry": {"type": "Point", "coordinates": [121.43320060013535, 31.264129908791226]}, "properties": {"name": "\u97f3\u8282KTV", "biz": "080302 \u4f53\u80b2\u4f11\u95f2\u670d\u52a1;\u5a31\u4e50\u573a\u6240;KTV", "pty": "0803"}}, {"type": "Feature", "geometry": {"type": "Point", "coordinates": [121.40826933070923, 31.236125841719684]}, "properties": {"name": "\u5927\u6b4c\u661f\u91cf\u8d29\u5f0fKTV(\u6708\u661f\u73af\u7403\u6e2f\u5e97)", "biz": "080302 \u4f53\u80b2\u4f11\u95f2\u670d\u52a1;\u5a31\u4e50\u573a\u6240;KTV", "pty": "0803"}}, {"type": "Feature", "geometry": {"type": "Point", "coordinates": [121.48644279272555, 31.28237370612036]}, "properties": {"name": "\u8c6a\u60c5\u4f1a\u6240", "biz": "080301|080302 \u4f53\u80b2\u4f11\u95f2\u670d\u52a1;\u5a31\u4e50\u573a\u6240;\u591c\u603b\u4f1a|\u4f53\u80b2\u4f11\u95f2\u670d\u52a1;\u5a31\u4e50\u573a\u6240;KTV", "pty": "0803"}}, {"type": "Feature", "geometry": {"type": "Point", "coordinates": [121.48644279272555, 31.28237370612036]}, "properties": {"name": "\u8c6a\u60c5\u4f1a\u6240", "biz": "080301|080302 \u4f53\u80b2\u4f11\u95f2\u670d\u52a1;\u5a31\u4e50\u573a\u6240;\u591c\u603b\u4f1a|\u4f53\u80b2\u4f11\u95f2\u670d\u52a1;\u5a31\u4e50\u573a\u6240;KTV", "pty": "0803"}}, {"type": "Feature", "geometry": {"type": "Point", "coordinates": [121.48567325966233, 31.29175859293721]}, "properties": {"name": "\u8c6a\u95e8\u516c\u9986(\u66f2\u9633\u8def\u5e97)", "biz": "080302 \u4f53\u80b2\u4f11\u95f2\u670d\u52a1;\u5a31\u4e50\u573a\u6240;KTV", "pty": "0803"}}, {"type": "Feature", "geometry": {"type": "Point", "coordinates": [121.50306096717463, 31.264916737239567]}, "properties": {"name": "\u5fc3\u4eab\u6b4c\u57ce", "biz": "080302 \u4f53\u80b2\u4f11\u95f2\u670d\u52a1;\u5a31\u4e50\u573a\u6240;KTV", "pty": "0803"}}, {"type": "Feature", "geometry": {"type": "Point", "coordinates": [121.47917084893656, 31.263718294416663]}, "properties": {"name": "\u4e0a\u6d77\u6b4c\u57ce(\u56db\u5ddd\u5317\u8def\u5e97)", "biz": "080302 \u4f53\u80b2\u4f11\u95f2\u670d\u52a1;\u5a31\u4e50\u573a\u6240;KTV", "pty": "0803"}}, {"type": "Feature", "geometry": {"type": "Point", "coordinates": [121.47839157366646, 31.258856161522402]}, "properties": {"name": "\u94f6\u4e50\u8fea(\u51ef\u9e3f\u5e7f\u573a\u5e97)", "biz": "080302 \u4f53\u80b2\u4f11\u95f2\u670d\u52a1;\u5a31\u4e50\u573a\u6240;KTV", "pty": "0803"}}, {"type": "Feature", "geometry": {"type": "Point", "coordinates": [121.48418840374369, 31.263607983861032]}, "properties": {"name": "\u738b\u5b50\u516c\u4e3b\u5947\u9047\u8bb0\u4e3b\u9898KTV(\u56db\u5e73\u8def\u5e97)", "biz": "080302 \u4f53\u80b2\u4f11\u95f2\u670d\u52a1;\u5a31\u4e50\u573a\u6240;KTV", "pty": "0803"}}, {"type": "Feature", "geometry": {"type": "Point", "coordinates": [121.46303985989691, 31.27485022361205]}, "properties": {"name": "\u597d\u4e50\u8feaKTV(\u8679\u53e3\u767e\u8054\u5e97)", "biz": "080302 \u4f53\u80b2\u4f11\u95f2\u670d\u52a1;\u5a31\u4e50\u573a\u6240;KTV", "pty": "0803"}}, {"type": "Feature", "geometry": {"type": "Point", "coordinates": [121.47306763892136, 31.292185048753264]}, "properties": {"name": "\u5929\u5929\u5531\u5427(\u6c34\u7535\u8def\u5e97)", "biz": "080302 \u4f53\u80b2\u4f11\u95f2\u670d\u52a1;\u5a31\u4e50\u573a\u6240;KTV", "pty": "0803"}}, {"type": "Feature", "geometry": {"type": "Point", "coordinates": [121.4727863186543, 31.27329106785808]}, "properties": {"name": "\u94f6\u4e50\u8feaKTV(\u51ef\u5fb7\u9f99\u4e4b\u68a6\u8d2d\u7269\u4e2d\u5fc3)", "biz": "080302 \u4f53\u80b2\u4f11\u95f2\u670d\u52a1;\u5a31\u4e50\u573a\u6240;KTV", "pty": "0803"}}, {"type": "Feature", "geometry": {"type": "Point", "coordinates": [121.48498041549803, 31.249378571368776]}, "properties": {"name": "\u4e1c\u65b9\u6c47", "biz": "080302 \u4f53\u80b2\u4f11\u95f2\u670d\u52a1;\u5a31\u4e50\u573a\u6240;KTV", "pty": "0803"}}, {"type": "Feature", "geometry": {"type": "Point", "coordinates": [121.47060606222554, 31.285389995775553]}, "properties": {"name": "\u5b9d\u4e50\u8fea\u91cf\u8d29\u5f0fKTV(\u4e16\u7eaa\u8054\u534e\u5e97)", "biz": "080302 \u4f53\u80b2\u4f11\u95f2\u670d\u52a1;\u5a31\u4e50\u573a\u6240;KTV", "pty": "0803"}}, {"type": "Feature", "geometry": {"type": "Point", "coordinates": [121.47550787807029, 31.291967002403318]}, "properties": {"name": "\u7545\u535a\u9601KTV", "biz": "080302 \u4f53\u80b2\u4f11\u95f2\u670d\u52a1;\u5a31\u4e50\u573a\u6240;KTV", "pty": "0803"}}, {"type": "Feature", "geometry": {"type": "Point", "coordinates": [121.48688490764575, 31.26426467194877]}, "properties": {"name": "\u5de8\u9ea6KTV(\u8679\u53e3\u5e97)", "biz": "080302 \u4f53\u80b2\u4f11\u95f2\u670d\u52a1;\u5a31\u4e50\u573a\u6240;KTV", "pty": "0803"}}, {"type": "Feature", "geometry": {"type": "Point", "coordinates": [121.48670779369161, 31.28168777562004]}, "properties": {"name": "\u73af\u7403\u68a6\u4e3b\u9898KTV", "biz": "080302 \u4f53\u80b2\u4f11\u95f2\u670d\u52a1;\u5a31\u4e50\u573a\u6240;KTV", "pty": "0803"}}, {"type": "Feature", "geometry": {"type": "Point", "coordinates": [121.4711217394522, 31.285627316953466]}, "properties": {"name": "\u6d77\u95f3\u56fd\u9645KTV", "biz": "080302 \u4f53\u80b2\u4f11\u95f2\u670d\u52a1;\u5a31\u4e50\u573a\u6240;KTV", "pty": "0803"}}, {"type": "Feature", "geometry": {"type": "Point", "coordinates": [121.48717746529755, 31.246447388677673]}, "properties": {"name": "\u4f2f\u7235\u4e09\u53f7\u5916\u6ee9\u5e97KTV", "biz": "080302 \u4f53\u80b2\u4f11\u95f2\u670d\u52a1;\u5a31\u4e50\u573a\u6240;KTV", "pty": "0803"}}, {"type": "Feature", "geometry": {"type": "Point", "coordinates": [121.47923807142492, 31.263836437521114]}, "properties": {"name": "\u6b4c\u57ce\u91cf\u8d29\u5f0fKTV\u56db\u5ddd\u8def\u5e97", "biz": "080302 \u4f53\u80b2\u4f11\u95f2\u670d\u52a1;\u5a31\u4e50\u573a\u6240;KTV", "pty": "0803"}}, {"type": "Feature", "geometry": {"type": "Point", "coordinates": [121.47782088268909, 31.26736583781227]}, "properties": {"name": "\u9ea6\u8fea\u68ee\u91cf\u8d29KTV(\u56db\u5ddd\u5317\u8def)", "biz": "080302 \u4f53\u80b2\u4f11\u95f2\u670d\u52a1;\u5a31\u4e50\u573a\u6240;KTV", "pty": "0803"}}, {"type": "Feature", "geometry": {"type": "Point", "coordinates": [121.47926413626338, 31.264133384529732]}, "properties": {"name": "\u666e\u4e50\u8fea\u91cf\u8d29KTV(\u56db\u5ddd\u5317\u8def\u5e97)", "biz": "080302 \u4f53\u80b2\u4f11\u95f2\u670d\u52a1;\u5a31\u4e50\u573a\u6240;KTV", "pty": "0803"}}, {"type": "Feature", "geometry": {"type": "Point", "coordinates": [121.4811617001899, 31.25278485476146]}, "properties": {"name": "\u91d1\u838e\u4e3dKTV", "biz": "080302 \u4f53\u80b2\u4f11\u95f2\u670d\u52a1;\u5a31\u4e50\u573a\u6240;KTV", "pty": "0803"}}, {"type": "Feature", "geometry": {"type": "Point", "coordinates": [121.52665727588337, 31.330935260803702]}, "properties": {"name": "LONA\u9152\u5427(\u6bb7\u884c\u8def\u5e97)", "biz": "080302 \u4f53\u80b2\u4f11\u95f2\u670d\u52a1;\u5a31\u4e50\u573a\u6240;KTV", "pty": "0803"}}, {"type": "Feature", "geometry": {"type": "Point", "coordinates": [121.53450144043384, 31.318142645150704]}, "properties": {"name": "\u4ed9\u59ff\u5a31\u4e50\u603b\u6c47", "biz": "080302 \u4f53\u80b2\u4f11\u95f2\u670d\u52a1;\u5a31\u4e50\u573a\u6240;KTV", "pty": "0803"}}, {"type": "Feature", "geometry": {"type": "Point", "coordinates": [121.49981246515293, 31.274724864589245]}, "properties": {"name": "\u4eca\u9177\u65f6\u5c1aKTV", "biz": "080302 \u4f53\u80b2\u4f11\u95f2\u670d\u52a1;\u5a31\u4e50\u573a\u6240;KTV", "pty": "0803"}}, {"type": "Feature", "geometry": {"type": "Point", "coordinates": [121.51720915719856, 31.31803237341942]}, "properties": {"name": "\u5de8\u9ea6\u65f6\u5c1aKTV(\u4e2d\u539f\u57ce\u5e02\u5e7f\u573a\u5e97)", "biz": "080302 \u4f53\u80b2\u4f11\u95f2\u670d\u52a1;\u5a31\u4e50\u573a\u6240;KTV", "pty": "0803"}}, {"type": "Feature", "geometry": {"type": "Point", "coordinates": [121.53864101634711, 31.31019233674823]}, "properties": {"name": "\u91d1\u94bb\u8c6a\u95e8\u4f1a\u6240", "biz": "080302 \u4f53\u80b2\u4f11\u95f2\u670d\u52a1;\u5a31\u4e50\u573a\u6240;KTV", "pty": "0803"}}, {"type": "Feature", "geometry": {"type": "Point", "coordinates": [121.52029642604488, 31.29603447862794]}, "properties": {"name": "\u73b0\u573a\u9152\u5427", "biz": "080304|080302 \u4f53\u80b2\u4f11\u95f2\u670d\u52a1;\u5a31\u4e50\u573a\u6240;\u9152\u5427|\u4f53\u80b2\u4f11\u95f2\u670d\u52a1;\u5a31\u4e50\u573a\u6240;KTV", "pty": "0803"}}, {"type": "Feature", "geometry": {"type": "Point", "coordinates": [121.52029642604488, 31.29603447862794]}, "properties": {"name": "\u73b0\u573a\u9152\u5427", "biz": "080304|080302 \u4f53\u80b2\u4f11\u95f2\u670d\u52a1;\u5a31\u4e50\u573a\u6240;\u9152\u5427|\u4f53\u80b2\u4f11\u95f2\u670d\u52a1;\u5a31\u4e50\u573a\u6240;KTV", "pty": "0803"}}, {"type": "Feature", "geometry": {"type": "Point", "coordinates": [121.52559013988747, 31.30377268350015]}, "properties": {"name": "\u5b9d\u4e50\u8fea\u91cf\u8d29\u5f0fKTV(\u5b89\u6ce2\u8def\u5e97)", "biz": "080302 \u4f53\u80b2\u4f11\u95f2\u670d\u52a1;\u5a31\u4e50\u573a\u6240;KTV", "pty": "0803"}}, {"type": "Feature", "geometry": {"type": "Point", "coordinates": [121.51285761699673, 31.277088282507762]}, "properties": {"name": "\u597d\u4e50\u8fea(\u7d2b\u8346\u5e97)", "biz": "080302 \u4f53\u80b2\u4f11\u95f2\u670d\u52a1;\u5a31\u4e50\u573a\u6240;KTV", "pty": "0803"}}, {"type": "Feature", "geometry": {"type": "Point", "coordinates": [121.51244713372836, 31.30145619781923]}, "properties": {"name": "\u661f\u805a\u4f1a(\u5408\u751f\u6c47)", "biz": "080302 \u4f53\u80b2\u4f11\u95f2\u670d\u52a1;\u5a31\u4e50\u573a\u6240;KTV", "pty": "0803"}}, {"type": "Feature", "geometry": {"type": "Point", "coordinates": [121.53381064074733, 31.267376424403803]}, "properties": {"name": "GALACITY\u4e0a\u6d77\u6b4c\u57ce(\u767e\u8054\u6ee8\u6c5f\u8d2d\u7269\u4e2d\u5fc3)", "biz": "080302 \u4f53\u80b2\u4f11\u95f2\u670d\u52a1;\u5a31\u4e50\u573a\u6240;KTV", "pty": "0803"}}, {"type": "Feature", "geometry": {"type": "Point", "coordinates": [121.4895069799029, 31.302915545014415]}, "properties": {"name": "\u55e8K", "biz": "080302 \u4f53\u80b2\u4f11\u95f2\u670d\u52a1;\u5a31\u4e50\u573a\u6240;KTV", "pty": "0803"}}, {"type": "Feature", "geometry": {"type": "Point", "coordinates": [121.51984753927853, 31.324390351263656]}, "properties": {"name": "\u777f\u5112\u516c\u9986", "biz": "080302 \u4f53\u80b2\u4f11\u95f2\u670d\u52a1;\u5a31\u4e50\u573a\u6240;KTV", "pty": "0803"}}, {"type": "Feature", "geometry": {"type": "Point", "coordinates": [121.52726159192619, 31.29044636261461]}, "properties": {"name": "\u5929\u7a7a\u97f3\u4e50\u57ce", "biz": "080302 \u4f53\u80b2\u4f11\u95f2\u670d\u52a1;\u5a31\u4e50\u573a\u6240;KTV", "pty": "0803"}}, {"type": "Feature", "geometry": {"type": "Point", "coordinates": [121.51607887527872, 31.29927042788459]}, "properties": {"name": "\u6b22\u7545\u6b4c\u57ce(\u56fd\u5b9a\u4e1c\u8def)", "biz": "080302 \u4f53\u80b2\u4f11\u95f2\u670d\u52a1;\u5a31\u4e50\u573a\u6240;KTV", "pty": "0803"}}, {"type": "Feature", "geometry": {"type": "Point", "coordinates": [121.54017553776575, 31.2711126139194]}, "properties": {"name": "\u4eae\u6b4c\u91cf\u8d29KTV(\u5e73\u51c9\u8def\u5e97)", "biz": "080302 \u4f53\u80b2\u4f11\u95f2\u670d\u52a1;\u5a31\u4e50\u573a\u6240;KTV", "pty": "0803"}}, {"type": "Feature", "geometry": {"type": "Point", "coordinates": [121.5139822994254, 31.30346181714676]}, "properties": {"name": "\u7eafK(\u4e94\u89d2\u573a\u5e97)", "biz": "080302 \u4f53\u80b2\u4f11\u95f2\u670d\u52a1;\u5a31\u4e50\u573a\u6240;KTV", "pty": "0803"}}, {"type": "Feature", "geometry": {"type": "Point", "coordinates": [121.52321313545809, 31.259569664006754]}, "properties": {"name": "\u6728\u897f\u6728\u897fKTV", "biz": "080302 \u4f53\u80b2\u4f11\u95f2\u670d\u52a1;\u5a31\u4e50\u573a\u6240;KTV", "pty": "0803"}}, {"type": "Feature", "geometry": {"type": "Point", "coordinates": [121.53465479243549, 31.30738111765613]}, "properties": {"name": "\u7545\u541f\u97f3\u4e50\u5531\u5427", "biz": "080302 \u4f53\u80b2\u4f11\u95f2\u670d\u52a1;\u5a31\u4e50\u573a\u6240;KTV", "pty": "0803"}}, {"type": "Feature", "geometry": {"type": "Point", "coordinates": [121.5162223204713, 31.29981861626629]}, "properties": {"name": "\u9526\u7f18\u5546\u52a1\u4f1a\u6240", "biz": "080302 \u4f53\u80b2\u4f11\u95f2\u670d\u52a1;\u5a31\u4e50\u573a\u6240;KTV", "pty": "0803"}}, {"type": "Feature", "geometry": {"type": "Point", "coordinates": [121.50822353650564, 31.262935850195966]}, "properties": {"name": "66\u5495\u565c\u5495\u565c(\u5b9d\u5730\u5e7f\u573aD\u5ea7)", "biz": "080302 \u4f53\u80b2\u4f11\u95f2\u670d\u52a1;\u5a31\u4e50\u573a\u6240;KTV", "pty": "0803"}}, {"type": "Feature", "geometry": {"type": "Point", "coordinates": [121.50895172443884, 31.30307741223809]}, "properties": {"name": "\u597d\u4e50\u8feaKTV(\u4e94\u89d2\u573a\u4e07\u8fbe\u5e97)", "biz": "080302 \u4f53\u80b2\u4f11\u95f2\u670d\u52a1;\u5a31\u4e50\u573a\u6240;KTV", "pty": "0803"}}, {"type": "Feature", "geometry": {"type": "Point", "coordinates": [121.5338673258171, 31.273160097325327]}, "properties": {"name": "\u957f\u9633KTV", "biz": "080302 \u4f53\u80b2\u4f11\u95f2\u670d\u52a1;\u5a31\u4e50\u573a\u6240;KTV", "pty": "0803"}}, {"type": "Feature", "geometry": {"type": "Point", "coordinates": [121.5304675196065, 31.279502050748047]}, "properties": {"name": "\u9f99\u57ce\u6b4c\u57ce", "biz": "080302 \u4f53\u80b2\u4f11\u95f2\u670d\u52a1;\u5a31\u4e50\u573a\u6240;KTV", "pty": "0803"}}, {"type": "Feature", "geometry": {"type": "Point", "coordinates": [121.52797314352739, 31.26293174434529]}, "properties": {"name": "\u51e4\u666f\u6e7eKTV", "biz": "080302 \u4f53\u80b2\u4f11\u95f2\u670d\u52a1;\u5a31\u4e50\u573a\u6240;KTV", "pty": "0803"}}, {"type": "Feature", "geometry": {"type": "Point", "coordinates": [121.49189680562057, 31.31174126875119]}, "properties": {"name": "\u91d1\u7ffc\u9152\u5427KTV", "biz": "080302|080304 \u4f53\u80b2\u4f11\u95f2\u670d\u52a1;\u5a31\u4e50\u573a\u6240;KTV|\u4f53\u80b2\u4f11\u95f2\u670d\u52a1;\u5a31\u4e50\u573a\u6240;\u9152\u5427", "pty": "0803"}}, {"type": "Feature", "geometry": {"type": "Point", "coordinates": [121.49189680562057, 31.31174126875119]}, "properties": {"name": "\u91d1\u7ffc\u9152\u5427KTV", "biz": "080302|080304 \u4f53\u80b2\u4f11\u95f2\u670d\u52a1;\u5a31\u4e50\u573a\u6240;KTV|\u4f53\u80b2\u4f11\u95f2\u670d\u52a1;\u5a31\u4e50\u573a\u6240;\u9152\u5427", "pty": "0803"}}, {"type": "Feature", "geometry": {"type": "Point", "coordinates": [121.51377552242691, 31.30418094440734]}, "properties": {"name": "\u597d\u4e50\u8fea(\u8d22\u5bcc\u5e97)", "biz": "080302 \u4f53\u80b2\u4f11\u95f2\u670d\u52a1;\u5a31\u4e50\u573a\u6240;KTV", "pty": "0803"}}, {"type": "Feature", "geometry": {"type": "Point", "coordinates": [121.5216974816194, 31.2675001313569]}, "properties": {"name": "\u7ea2\u5730\u5531\u5427", "biz": "080302 \u4f53\u80b2\u4f11\u95f2\u670d\u52a1;\u5a31\u4e50\u573a\u6240;KTV", "pty": "0803"}}, {"type": "Feature", "geometry": {"type": "Point", "coordinates": [121.53097000458862, 31.28017802853154]}, "properties": {"name": "\u54c6\u553b\u54aa(\u8fbd\u6e90\u4e1c\u8def)", "biz": "080302 \u4f53\u80b2\u4f11\u95f2\u670d\u52a1;\u5a31\u4e50\u573a\u6240;KTV", "pty": "0803"}}, {"type": "Feature", "geometry": {"type": "Point", "coordinates": [121.51678940930894, 31.309915278249896]}, "properties": {"name": "\u9ea6\u52a8\u4f11\u95f2\u5a31\u4e50", "biz": "080302 \u4f53\u80b2\u4f11\u95f2\u670d\u52a1;\u5a31\u4e50\u573a\u6240;KTV", "pty": "0803"}}, {"type": "Feature", "geometry": {"type": "Point", "coordinates": [121.5291021349085, 31.293327933254368]}, "properties": {"name": "\u53cb\u51ef\u5531\u5427", "biz": "080302 \u4f53\u80b2\u4f11\u95f2\u670d\u52a1;\u5a31\u4e50\u573a\u6240;KTV", "pty": "0803"}}, {"type": "Feature", "geometry": {"type": "Point", "coordinates": [121.51163818141322, 31.302960271941533]}, "properties": {"name": "\u597d\u4e50\u8fea\u91cf\u8d29KTV(\u767e\u8054\u53c8\u4e00\u57ce\u8d2d\u7269\u4e2d\u5fc3)", "biz": "080302 \u4f53\u80b2\u4f11\u95f2\u670d\u52a1;\u5a31\u4e50\u573a\u6240;KTV", "pty": "0803"}}, {"type": "Feature", "geometry": {"type": "Point", "coordinates": [121.52842971246298, 31.29715168310058]}, "properties": {"name": "\u98de\u9e70\u771f\u4ebaCS\u4ff1\u4e50\u90e8(\u9ec4\u5174\u516c\u56ed\u91ce\u5916\u62d3\u5c55\u5e97)", "biz": "080302 \u4f53\u80b2\u4f11\u95f2\u670d\u52a1;\u5a31\u4e50\u573a\u6240;KTV", "pty": "0803"}}, {"type": "Feature", "geometry": {"type": "Point", "coordinates": [121.51609513799228, 31.296811450604842]}, "properties": {"name": "\u6d77\u4e0a\u701b\u53f0KTV", "biz": "080302 \u4f53\u80b2\u4f11\u95f2\u670d\u52a1;\u5a31\u4e50\u573a\u6240;KTV", "pty": "0803"}}, {"type": "Feature", "geometry": {"type": "Point", "coordinates": [121.527657199726, 31.286192121154688]}, "properties": {"name": "\u5929\u5929\u5531\u5427\u8336\u82d1(\u5ef6\u5409\u4e2d\u8def)", "biz": "080302 \u4f53\u80b2\u4f11\u95f2\u670d\u52a1;\u5a31\u4e50\u573a\u6240;KTV", "pty": "0803"}}, {"type": "Feature", "geometry": {"type": "Point", "coordinates": [121.54713019872234, 31.277234660952352]}, "properties": {"name": "\u6625\u96f7\u5361\u62c9OK", "biz": "080302 \u4f53\u80b2\u4f11\u95f2\u670d\u52a1;\u5a31\u4e50\u573a\u6240;KTV", "pty": "0803"}}, {"type": "Feature", "geometry": {"type": "Point", "coordinates": [121.53542429815117, 31.268474819748644]}, "properties": {"name": "\u5929\u97f5(\u5e73\u51c9\u8def)", "biz": "080302 \u4f53\u80b2\u4f11\u95f2\u670d\u52a1;\u5a31\u4e50\u573a\u6240;KTV", "pty": "0803"}}, {"type": "Feature", "geometry": {"type": "Point", "coordinates": [121.53630420236507, 31.300182842429006]}, "properties": {"name": "\u4e0a\u6d77\u6d77\u97f3\u9601\u4f11\u95f2\u5a31\u4e50\u6709\u9650\u516c\u53f8", "biz": "080302 \u4f53\u80b2\u4f11\u95f2\u670d\u52a1;\u5a31\u4e50\u573a\u6240;KTV", "pty": "0803"}}, {"type": "Feature", "geometry": {"type": "Point", "coordinates": [121.5158826475772, 31.282100826055718]}, "properties": {"name": "\u5929\u5929\u5531\u5427\u8336\u82d1(\u5ef6\u5409\u897f\u8def)", "biz": "080302|050600 \u4f53\u80b2\u4f11\u95f2\u670d\u52a1;\u5a31\u4e50\u573a\u6240;KTV|\u9910\u996e\u670d\u52a1;\u8336\u827a\u9986;\u8336\u827a\u9986", "pty": "0803"}}, {"type": "Feature", "geometry": {"type": "Point", "coordinates": [121.53160933582164, 31.263661629641355]}, "properties": {"name": "\u5c45\u8f69\u5802KTV", "biz": "080302 \u4f53\u80b2\u4f11\u95f2\u670d\u52a1;\u5a31\u4e50\u573a\u6240;KTV", "pty": "0803"}}, {"type": "Feature", "geometry": {"type": "Point", "coordinates": [121.51347772602489, 31.301374192023]}, "properties": {"name": "\u7c89\u7ea2\u8ff7\u4f60K\u5427(\u5408\u751f\u6c47)", "biz": "080302 \u4f53\u80b2\u4f11\u95f2\u670d\u52a1;\u5a31\u4e50\u573a\u6240;KTV", "pty": "0803"}}, {"type": "Feature", "geometry": {"type": "Point", "coordinates": [121.50350083015361, 31.273353442512487]}, "properties": {"name": "\u6770\u4e1dKTV", "biz": "080302 \u4f53\u80b2\u4f11\u95f2\u670d\u52a1;\u5a31\u4e50\u573a\u6240;KTV", "pty": "0803"}}, {"type": "Feature", "geometry": {"type": "Point", "coordinates": [121.51112937260766, 31.26769527301834]}, "properties": {"name": "\u56fd\u8272\u5929\u9999KTV(\u5468\u5bb6\u5634\u8def\u5e97)", "biz": "080302 \u4f53\u80b2\u4f11\u95f2\u670d\u52a1;\u5a31\u4e50\u573a\u6240;KTV", "pty": "0803"}}, {"type": "Feature", "geometry": {"type": "Point", "coordinates": [121.53828968677114, 31.27836230877727]}, "properties": {"name": "\u5b9d\u4e50\u8fea\u91cf\u8d29\u5f0fKTV(\u9686\u660c\u8def\u5e97)", "biz": "080302 \u4f53\u80b2\u4f11\u95f2\u670d\u52a1;\u5a31\u4e50\u573a\u6240;KTV", "pty": "0803"}}, {"type": "Feature", "geometry": {"type": "Point", "coordinates": [121.5304243507753, 31.279932762879223]}, "properties": {"name": "\u9523\u94ed\u9152\u5427", "biz": "080304|080302 \u4f53\u80b2\u4f11\u95f2\u670d\u52a1;\u5a31\u4e50\u573a\u6240;\u9152\u5427|\u4f53\u80b2\u4f11\u95f2\u670d\u52a1;\u5a31\u4e50\u573a\u6240;KTV", "pty": "0803"}}, {"type": "Feature", "geometry": {"type": "Point", "coordinates": [121.5304243507753, 31.279932762879223]}, "properties": {"name": "\u9523\u94ed\u9152\u5427", "biz": "080304|080302 \u4f53\u80b2\u4f11\u95f2\u670d\u52a1;\u5a31\u4e50\u573a\u6240;\u9152\u5427|\u4f53\u80b2\u4f11\u95f2\u670d\u52a1;\u5a31\u4e50\u573a\u6240;KTV", "pty": "0803"}}, {"type": "Feature", "geometry": {"type": "Point", "coordinates": [121.520760215529, 31.328842231195384]}, "properties": {"name": "\u58f0\u7b1b\u96c5\u6b4cKTV", "biz": "080302 \u4f53\u80b2\u4f11\u95f2\u670d\u52a1;\u5a31\u4e50\u573a\u6240;KTV", "pty": "0803"}}, {"type": "Feature", "geometry": {"type": "Point", "coordinates": [121.51457830417084, 31.304129257591953]}, "properties": {"name": "\u597d\u77f3\u4f1a\u6240KTV", "biz": "080302 \u4f53\u80b2\u4f11\u95f2\u670d\u52a1;\u5a31\u4e50\u573a\u6240;KTV", "pty": "0803"}}, {"type": "Feature", "geometry": {"type": "Point", "coordinates": [121.53790697727607, 31.261932434747436]}, "properties": {"name": "\u5927\u4e2d\u56fd\u6b4c\u5385", "biz": "080302 \u4f53\u80b2\u4f11\u95f2\u670d\u52a1;\u5a31\u4e50\u573a\u6240;KTV", "pty": "0803"}}, {"type": "Feature", "geometry": {"type": "Point", "coordinates": [121.54079615382868, 31.28408355629138]}, "properties": {"name": "\u5a01\u4e3d\u4e1dKTV", "biz": "080302 \u4f53\u80b2\u4f11\u95f2\u670d\u52a1;\u5a31\u4e50\u573a\u6240;KTV", "pty": "0803"}}, {"type": "Feature", "geometry": {"type": "Point", "coordinates": [121.52683803248324, 31.30493749888855]}, "properties": {"name": "\u542f\u97f5\u97f3\u4e50", "biz": "080302 \u4f53\u80b2\u4f11\u95f2\u670d\u52a1;\u5a31\u4e50\u573a\u6240;KTV", "pty": "0803"}}, {"type": "Feature", "geometry": {"type": "Point", "coordinates": [121.50769259811989, 31.263613998404097]}, "properties": {"name": "\u54aa\u54d2", "biz": "080302 \u4f53\u80b2\u4f11\u95f2\u670d\u52a1;\u5a31\u4e50\u573a\u6240;KTV", "pty": "0803"}}, {"type": "Feature", "geometry": {"type": "Point", "coordinates": [121.51883540056961, 31.261760736261156]}, "properties": {"name": "\u68ee\u8feaKTV(\u8bb8\u660c\u8def)", "biz": "080302 \u4f53\u80b2\u4f11\u95f2\u670d\u52a1;\u5a31\u4e50\u573a\u6240;KTV", "pty": "0803"}}, {"type": "Feature", "geometry": {"type": "Point", "coordinates": [121.52449054759077, 31.2804341886903]}, "properties": {"name": "\u9e3f\u8fd0KTV(\u63a7\u6c5f\u8def)", "biz": "080302 \u4f53\u80b2\u4f11\u95f2\u670d\u52a1;\u5a31\u4e50\u573a\u6240;KTV", "pty": "0803"}}, {"type": "Feature", "geometry": {"type": "Point", "coordinates": [121.52322933969154, 31.30544374553025]}, "properties": {"name": "\u73cd\u73cd\u5361\u62c9OK", "biz": "080302 \u4f53\u80b2\u4f11\u95f2\u670d\u52a1;\u5a31\u4e50\u573a\u6240;KTV", "pty": "0803"}}, {"type": "Feature", "geometry": {"type": "Point", "coordinates": [121.53108234581478, 31.280206297360518]}, "properties": {"name": "\u597d\u5fc3\u60c5\u5531\u5427", "biz": "080302 \u4f53\u80b2\u4f11\u95f2\u670d\u52a1;\u5a31\u4e50\u573a\u6240;KTV", "pty": "0803"}}, {"type": "Feature", "geometry": {"type": "Point", "coordinates": [121.51618620978448, 31.299664575189272]}, "properties": {"name": "\u6b27\u7545\u91cf\u8d29KTV", "biz": "080302 \u4f53\u80b2\u4f11\u95f2\u670d\u52a1;\u5a31\u4e50\u573a\u6240;KTV", "pty": "0803"}}, {"type": "Feature", "geometry": {"type": "Point", "coordinates": [121.54562754558074, 31.275912198292506]}, "properties": {"name": "\u5929\u8f85\u5174KTV", "biz": "080302 \u4f53\u80b2\u4f11\u95f2\u670d\u52a1;\u5a31\u4e50\u573a\u6240;KTV", "pty": "0803"}}, {"type": "Feature", "geometry": {"type": "Point", "coordinates": [121.50872564311943, 31.2708749131314]}, "properties": {"name": "\u9ea6\u514b\u98ce\u6f14\u827a\u6b4c\u5385", "biz": "080302 \u4f53\u80b2\u4f11\u95f2\u670d\u52a1;\u5a31\u4e50\u573a\u6240;KTV", "pty": "0803"}}, {"type": "Feature", "geometry": {"type": "Point", "coordinates": [121.54040520525531, 31.270662315060452]}, "properties": {"name": "\u51e4\u4e4b\u96e8OK", "biz": "080302 \u4f53\u80b2\u4f11\u95f2\u670d\u52a1;\u5a31\u4e50\u573a\u6240;KTV", "pty": "0803"}}, {"type": "Feature", "geometry": {"type": "Point", "coordinates": [121.54996919515976, 31.275511859981385]}, "properties": {"name": "\u5929\u5929\u5531\u5427\u8336\u82d1(\u5185\u6c5f\u8def)(\u88c5\u4fee\u4e2d)", "biz": "080302 \u4f53\u80b2\u4f11\u95f2\u670d\u52a1;\u5a31\u4e50\u573a\u6240;KTV", "pty": "0803"}}, {"type": "Feature", "geometry": {"type": "Point", "coordinates": [121.53635334174574, 31.300211946123852]}, "properties": {"name": "\u4e09\u697cKTV", "biz": "080302 \u4f53\u80b2\u4f11\u95f2\u670d\u52a1;\u5a31\u4e50\u573a\u6240;KTV", "pty": "0803"}}, {"type": "Feature", "geometry": {"type": "Point", "coordinates": [121.50541892803388, 31.306004877014214]}, "properties": {"name": "\u4e50\u62cd\u97f3\u4e50(\u5927\u5b66\u8def)", "biz": "080302|141400 \u4f53\u80b2\u4f11\u95f2\u670d\u52a1;\u5a31\u4e50\u573a\u6240;KTV|\u79d1\u6559\u6587\u5316\u670d\u52a1;\u57f9\u8bad\u673a\u6784;\u57f9\u8bad\u673a\u6784", "pty": "0803"}}, {"type": "Feature", "geometry": {"type": "Point", "coordinates": [121.36734414715593, 31.17875504718987]}, "properties": {"name": "\u4e07\u8c61\u56fd\u9645KTV", "biz": "080301|080302 \u4f53\u80b2\u4f11\u95f2\u670d\u52a1;\u5a31\u4e50\u573a\u6240;\u591c\u603b\u4f1a|\u4f53\u80b2\u4f11\u95f2\u670d\u52a1;\u5a31\u4e50\u573a\u6240;KTV", "pty": "0803"}}, {"type": "Feature", "geometry": {"type": "Point", "coordinates": [121.36734414715593, 31.17875504718987]}, "properties": {"name": "\u4e07\u8c61\u56fd\u9645KTV", "biz": "080301|080302 \u4f53\u80b2\u4f11\u95f2\u670d\u52a1;\u5a31\u4e50\u573a\u6240;\u591c\u603b\u4f1a|\u4f53\u80b2\u4f11\u95f2\u670d\u52a1;\u5a31\u4e50\u573a\u6240;KTV", "pty": "0803"}}, {"type": "Feature", "geometry": {"type": "Point", "coordinates": [121.35740430859461, 31.137394896819952]}, "properties": {"name": "MT BAr(\u95f5\u884c\u65d7\u8230\u5e97)", "biz": "080304|080302 \u4f53\u80b2\u4f11\u95f2\u670d\u52a1;\u5a31\u4e50\u573a\u6240;\u9152\u5427|\u4f53\u80b2\u4f11\u95f2\u670d\u52a1;\u5a31\u4e50\u573a\u6240;KTV", "pty": "0803"}}, {"type": "Feature", "geometry": {"type": "Point", "coordinates": [121.35740430859461, 31.137394896819952]}, "properties": {"name": "MT BAr(\u95f5\u884c\u65d7\u8230\u5e97)", "biz": "080304|080302 \u4f53\u80b2\u4f11\u95f2\u670d\u52a1;\u5a31\u4e50\u573a\u6240;\u9152\u5427|\u4f53\u80b2\u4f11\u95f2\u670d\u52a1;\u5a31\u4e50\u573a\u6240;KTV", "pty": "0803"}}, {"type": "Feature", "geometry": {"type": "Point", "coordinates": [121.43942041511978, 31.041035253016588]}, "properties": {"name": "\u54aa\u6d3e\u91cf\u8d29KTV(\u4e07\u4e50\u57ce\u5e97)", "biz": "080302 \u4f53\u80b2\u4f11\u95f2\u670d\u52a1;\u5a31\u4e50\u573a\u6240;KTV", "pty": "0803"}}, {"type": "Feature", "geometry": {"type": "Point", "coordinates": [121.4056293026646, 31.01385004239297]}, "properties": {"name": "\u738b\u5b50\u516c\u4e3b\u5947\u9047\u8bb0\u4e3b\u9898KTV(\u91d1\u5e73\u5e97)", "biz": "080302 \u4f53\u80b2\u4f11\u95f2\u670d\u52a1;\u5a31\u4e50\u573a\u6240;KTV", "pty": "0803"}}, {"type": "Feature", "geometry": {"type": "Point", "coordinates": [121.49944812766664, 31.097355032677374]}, "properties": {"name": "\u4e0a\u6d77\u7eafK(\u6d66\u6c5f\u5e97)", "biz": "080302 \u4f53\u80b2\u4f11\u95f2\u670d\u52a1;\u5a31\u4e50\u573a\u6240;KTV", "pty": "0803"}}, {"type": "Feature", "geometry": {"type": "Point", "coordinates": [121.36854432486815, 30.996200609694956]}, "properties": {"name": "\u70ab\u9ea6\u65f6\u5c1aKTV(\u6c5f\u5ddd\u8def\u5e97)", "biz": "080302 \u4f53\u80b2\u4f11\u95f2\u670d\u52a1;\u5a31\u4e50\u573a\u6240;KTV", "pty": "0803"}}, {"type": "Feature", "geometry": {"type": "Point", "coordinates": [121.53309550324262, 31.063253163642347]}, "properties": {"name": "\u4f18\u9ea6\u91cf\u8d29\u5f0f\u6b4c\u57ce(\u6d66\u6c5f\u5e97)", "biz": "080302 \u4f53\u80b2\u4f11\u95f2\u670d\u52a1;\u5a31\u4e50\u573a\u6240;KTV", "pty": "0803"}}, {"type": "Feature", "geometry": {"type": "Point", "coordinates": [121.45163498609153, 31.041498817589304]}, "properties": {"name": "\u7231\u7434\u9e1f\u65f6\u5c1a\u91cf\u8d29KTV(\u5251\u5ddd\u5e97)", "biz": "080302 \u4f53\u80b2\u4f11\u95f2\u670d\u52a1;\u5a31\u4e50\u573a\u6240;KTV", "pty": "0803"}}, {"type": "Feature", "geometry": {"type": "Point", "coordinates": [121.3042239516188, 31.211300278709462]}, "properties": {"name": "\u97f3\u7ef4\u7231\u65f6\u5c1a\u91cf\u8d29KTV(\u8679\u6865\u826f\u534e\u8d2d\u7269\u5e7f\u573a)", "biz": "080302 \u4f53\u80b2\u4f11\u95f2\u670d\u52a1;\u5a31\u4e50\u573a\u6240;KTV", "pty": "0803"}}, {"type": "Feature", "geometry": {"type": "Point", "coordinates": [121.37815718940428, 31.159247256601216]}, "properties": {"name": "\u4e91\u8c79\u91cf\u8d29KTV(\u6f15\u5b9d\u8def\u5e97)", "biz": "080302 \u4f53\u80b2\u4f11\u95f2\u670d\u52a1;\u5a31\u4e50\u573a\u6240;KTV", "pty": "0803"}}, {"type": "Feature", "geometry": {"type": "Point", "coordinates": [121.44935685979394, 31.04303589690745]}, "properties": {"name": "\u8d85\u7ea7\u739b\u4e3d\u91cf\u8d29KTV(\u5434\u6cfe\u5e97)", "biz": "080302 \u4f53\u80b2\u4f11\u95f2\u670d\u52a1;\u5a31\u4e50\u573a\u6240;KTV", "pty": "0803"}}, {"type": "Feature", "geometry": {"type": "Point", "coordinates": [121.3338978260815, 31.229097981820992]}, "properties": {"name": "\u94bb\u77f3\u7eafK\u91cf\u8d29\u5f0fKTV", "biz": "080302 \u4f53\u80b2\u4f11\u95f2\u670d\u52a1;\u5a31\u4e50\u573a\u6240;KTV", "pty": "0803"}}, {"type": "Feature", "geometry": {"type": "Point", "coordinates": [121.52733520527043, 31.022082538390716]}, "properties": {"name": "\u6c5f\u6668KTV", "biz": "080302 \u4f53\u80b2\u4f11\u95f2\u670d\u52a1;\u5a31\u4e50\u573a\u6240;KTV", "pty": "0803"}}, {"type": "Feature", "geometry": {"type": "Point", "coordinates": [121.37392278692774, 31.110602135827506]}, "properties": {"name": "\u597d\u4e50\u8fea(\u51ef\u5fb7\u9f99\u4e4b\u68a6\u8d2d\u7269\u4e2d\u5fc3\u8398\u5e84\u5e97)", "biz": "080302 \u4f53\u80b2\u4f11\u95f2\u670d\u52a1;\u5a31\u4e50\u573a\u6240;KTV", "pty": "0803"}}, {"type": "Feature", "geometry": {"type": "Point", "coordinates": [121.36932912491076, 31.18267777570802]}, "properties": {"name": "\u597d\u4e50\u8fea(\u91d1\u6c47\u5e97)", "biz": "080302 \u4f53\u80b2\u4f11\u95f2\u670d\u52a1;\u5a31\u4e50\u573a\u6240;KTV", "pty": "0803"}}, {"type": "Feature", "geometry": {"type": "Point", "coordinates": [121.33710915737791, 31.166397833882517]}, "properties": {"name": "\u597d\u4e50\u8fea(\u51ef\u5fb7\u4e03\u5b9d\u8d2d\u7269\u5e7f\u573a)", "biz": "080302 \u4f53\u80b2\u4f11\u95f2\u670d\u52a1;\u5a31\u4e50\u573a\u6240;KTV", "pty": "0803"}}, {"type": "Feature", "geometry": {"type": "Point", "coordinates": [121.36756851501261, 30.997780810334156]}, "properties": {"name": "\u90fd\u551b\u91cf\u8d29\u5f0fKTV(\u5929\u661f\u8def\u5e97)", "biz": "080302 \u4f53\u80b2\u4f11\u95f2\u670d\u52a1;\u5a31\u4e50\u573a\u6240;KTV", "pty": "0803"}}, {"type": "Feature", "geometry": {"type": "Point", "coordinates": [121.39423043475718, 31.087269558969936]}, "properties": {"name": "\u805a\u70b9+\u91cf\u8d29KTV", "biz": "080302 \u4f53\u80b2\u4f11\u95f2\u670d\u52a1;\u5a31\u4e50\u573a\u6240;KTV", "pty": "0803"}}, {"type": "Feature", "geometry": {"type": "Point", "coordinates": [121.26375561729068, 31.246708573916248]}, "properties": {"name": "\u4f18\u9ea6\u91cf\u8d29\u5f0f\u6b4c\u57ce(\u7eaa\u738b\u5e97)", "biz": "080302 \u4f53\u80b2\u4f11\u95f2\u670d\u52a1;\u5a31\u4e50\u573a\u6240;KTV", "pty": "0803"}}, {"type": "Feature", "geometry": {"type": "Point", "coordinates": [121.52089522378436, 31.071351826457576]}, "properties": {"name": "\u91d1\u968bKTV\u5a31\u4e50\u4f1a\u6240", "biz": "080302 \u4f53\u80b2\u4f11\u95f2\u670d\u52a1;\u5a31\u4e50\u573a\u6240;KTV", "pty": "0803"}}, {"type": "Feature", "geometry": {"type": "Point", "coordinates": [121.40604742093069, 31.014624737770635]}, "properties": {"name": "258\u91d1\u4e4b\u8f69\u4f1a\u6240", "biz": "080302 \u4f53\u80b2\u4f11\u95f2\u670d\u52a1;\u5a31\u4e50\u573a\u6240;KTV", "pty": "0803"}}, {"type": "Feature", "geometry": {"type": "Point", "coordinates": [121.38965030309026, 31.057456693924934]}, "properties": {"name": "\u9f0e\u5c1a\u56fd\u9645", "biz": "080302 \u4f53\u80b2\u4f11\u95f2\u670d\u52a1;\u5a31\u4e50\u573a\u6240;KTV", "pty": "0803"}}, {"type": "Feature", "geometry": {"type": "Point", "coordinates": [121.42312495632008, 31.118335429736668]}, "properties": {"name": "\u81f3\u7231KTV", "biz": "080302 \u4f53\u80b2\u4f11\u95f2\u670d\u52a1;\u5a31\u4e50\u573a\u6240;KTV", "pty": "0803"}}, {"type": "Feature", "geometry": {"type": "Point", "coordinates": [121.34460595818123, 31.15775483363026]}, "properties": {"name": "\u4e3d\u6b4c\u574a\u91cf\u8d29\u5f0fKTV", "biz": "080302 \u4f53\u80b2\u4f11\u95f2\u670d\u52a1;\u5a31\u4e50\u573a\u6240;KTV", "pty": "0803"}}, {"type": "Feature", "geometry": {"type": "Point", "coordinates": [121.36160072106253, 31.109702024055153]}, "properties": {"name": "\u551b\u52a8\u6b4c\u57ce(\u8398\u5e84\u5e97)", "biz": "080302 \u4f53\u80b2\u4f11\u95f2\u670d\u52a1;\u5a31\u4e50\u573a\u6240;KTV", "pty": "0803"}}, {"type": "Feature", "geometry": {"type": "Point", "coordinates": [121.50012457397216, 31.085281833419852]}, "properties": {"name": "\u6b4c\u795eKTV(\u6d66\u6c5f\u751f\u6d3b\u5e7f\u573a\u5e97)", "biz": "080302 \u4f53\u80b2\u4f11\u95f2\u670d\u52a1;\u5a31\u4e50\u573a\u6240;KTV", "pty": "0803"}}, {"type": "Feature", "geometry": {"type": "Point", "coordinates": [121.39954750250983, 31.18839234222646]}, "properties": {"name": "\u4e1c\u65b9\u4e4b\u73e0\u91cf\u8d29\u5f0fKTV", "biz": "080302 \u4f53\u80b2\u4f11\u95f2\u670d\u52a1;\u5a31\u4e50\u573a\u6240;KTV", "pty": "0803"}}, {"type": "Feature", "geometry": {"type": "Point", "coordinates": [121.38039061701078, 31.177476164311326]}, "properties": {"name": "\u4e3d\u90fdKTV(\u5434\u4e2d\u8def\u5e97)", "biz": "080302 \u4f53\u80b2\u4f11\u95f2\u670d\u52a1;\u5a31\u4e50\u573a\u6240;KTV", "pty": "0803"}}, {"type": "Feature", "geometry": {"type": "Point", "coordinates": [121.38406672680824, 31.17886107169615]}, "properties": {"name": "\u5a01\u5c3c\u65afKTV(\u83b2\u82b1\u8def\u5e97)", "biz": "080302 \u4f53\u80b2\u4f11\u95f2\u670d\u52a1;\u5a31\u4e50\u573a\u6240;KTV", "pty": "0803"}}, {"type": "Feature", "geometry": {"type": "Point", "coordinates": [121.35647056836919, 31.14167599440851]}, "properties": {"name": "\u4e50\u6f6e\u4f1a\u6240", "biz": "080302 \u4f53\u80b2\u4f11\u95f2\u670d\u52a1;\u5a31\u4e50\u573a\u6240;KTV", "pty": "0803"}}, {"type": "Feature", "geometry": {"type": "Point", "coordinates": [121.33382949907231, 31.165160584096245]}, "properties": {"name": "\u68a6\u4e4b\u58f0\u91cf\u8d29\u5f0fKTV(\u4e03\u5b9d\u5e97)", "biz": "080302 \u4f53\u80b2\u4f11\u95f2\u670d\u52a1;\u5a31\u4e50\u573a\u6240;KTV", "pty": "0803"}}, {"type": "Feature", "geometry": {"type": "Point", "coordinates": [121.40920684660327, 31.098637841161754]}, "properties": {"name": "\u4f18\u9ea6\u91cf\u8d29\u5f0f\u6b4c\u57ce(\u83b2\u82b1\u5357\u8def\u5e97)", "biz": "080302 \u4f53\u80b2\u4f11\u95f2\u670d\u52a1;\u5a31\u4e50\u573a\u6240;KTV", "pty": "0803"}}, {"type": "Feature", "geometry": {"type": "Point", "coordinates": [121.39513231974534, 31.133188114656786]}, "properties": {"name": "\u597d\u4e50\u8fea(\u5357\u65b9\u5e97)", "biz": "080302 \u4f53\u80b2\u4f11\u95f2\u670d\u52a1;\u5a31\u4e50\u573a\u6240;KTV", "pty": "0803"}}, {"type": "Feature", "geometry": {"type": "Point", "coordinates": [121.39203653923138, 31.18363935996262]}, "properties": {"name": "\u91d1\u8272\u5e74\u4ee3", "biz": "080302 \u4f53\u80b2\u4f11\u95f2\u670d\u52a1;\u5a31\u4e50\u573a\u6240;KTV", "pty": "0803"}}, {"type": "Feature", "geometry": {"type": "Point", "coordinates": [121.39998907849048, 31.009565295319167]}, "properties": {"name": "\u4e50\u5723\u8feaKTV(\u9e64\u5e86\u8def\u5e97)", "biz": "080302 \u4f53\u80b2\u4f11\u95f2\u670d\u52a1;\u5a31\u4e50\u573a\u6240;KTV", "pty": "0803"}}, {"type": "Feature", "geometry": {"type": "Point", "coordinates": [121.40676378376016, 31.10669924416287]}, "properties": {"name": "\u592a\u9633\u57ce\u97f3\u4e50\u5e7f\u573a(\u83b2\u82b1\u5357\u8def\u5e97)", "biz": "080302 \u4f53\u80b2\u4f11\u95f2\u670d\u52a1;\u5a31\u4e50\u573a\u6240;KTV", "pty": "0803"}}, {"type": "Feature", "geometry": {"type": "Point", "coordinates": [121.3974920305872, 31.134975006246147]}, "properties": {"name": "\u6b22\u6b4c\u5929\u5929\u91cf\u8d29\u5f0fKTV(\u83b2\u82b1\u56fd\u9645\u5e97)", "biz": "080302 \u4f53\u80b2\u4f11\u95f2\u670d\u52a1;\u5a31\u4e50\u573a\u6240;KTV", "pty": "0803"}}, {"type": "Feature", "geometry": {"type": "Point", "coordinates": [121.41860975428715, 31.125234998434166]}, "properties": {"name": "\u4f18\u9ea6\u91cf\u8d29\u5f0f\u6b4c\u57ce(\u8679\u6885\u5357\u8def)", "biz": "080302 \u4f53\u80b2\u4f11\u95f2\u670d\u52a1;\u5a31\u4e50\u573a\u6240;KTV", "pty": "0803"}}, {"type": "Feature", "geometry": {"type": "Point", "coordinates": [121.42087789791704, 31.00424027747442]}, "properties": {"name": "\u592a\u9633\u57ce\u97f3\u4e50\u5e7f\u573a(\u6caa\u95f5\u8def\u5e97)", "biz": "080302 \u4f53\u80b2\u4f11\u95f2\u670d\u52a1;\u5a31\u4e50\u573a\u6240;KTV", "pty": "0803"}}, {"type": "Feature", "geometry": {"type": "Point", "coordinates": [121.40563415089727, 31.015628998783725]}, "properties": {"name": "\u68a6\u4e4b\u58f0\u91cf\u8d29KTV(\u91d1\u5e73\u8def\u5e97)", "biz": "080302 \u4f53\u80b2\u4f11\u95f2\u670d\u52a1;\u5a31\u4e50\u573a\u6240;KTV", "pty": "0803"}}, {"type": "Feature", "geometry": {"type": "Point", "coordinates": [121.38320632872579, 31.109731279330994]}, "properties": {"name": "\u597d\u4e50\u8fea(\u8398\u5e84\u5e97)", "biz": "080302 \u4f53\u80b2\u4f11\u95f2\u670d\u52a1;\u5a31\u4e50\u573a\u6240;KTV", "pty": "0803"}}, {"type": "Feature", "geometry": {"type": "Point", "coordinates": [121.29913533568032, 31.20220251021654]}, "properties": {"name": "\u6052\u6d69KTV", "biz": "080302 \u4f53\u80b2\u4f11\u95f2\u670d\u52a1;\u5a31\u4e50\u573a\u6240;KTV", "pty": "0803"}}, {"type": "Feature", "geometry": {"type": "Point", "coordinates": [121.28683494033751, 31.20972005709612]}, "properties": {"name": "\u5662\u9ea6\u560e\u4e3b\u9898\u7eafK(\u4fdd\u4e50\u8def\u5e97)", "biz": "080302 \u4f53\u80b2\u4f11\u95f2\u670d\u52a1;\u5a31\u4e50\u573a\u6240;KTV", "pty": "0803"}}, {"type": "Feature", "geometry": {"type": "Point", "coordinates": [121.39245941781076, 31.183748204585456]}, "properties": {"name": "\u4eae\u6b4c\u91cf\u8d29\u5f0fKTV(\u5434\u4e2d\u8def\u5206\u5e97)", "biz": "080302 \u4f53\u80b2\u4f11\u95f2\u670d\u52a1;\u5a31\u4e50\u573a\u6240;KTV", "pty": "0803"}}, {"type": "Feature", "geometry": {"type": "Point", "coordinates": [121.37041641206487, 31.17473960343853]}, "properties": {"name": "99\u56fd\u9645\u4f1a\u6240", "biz": "080302 \u4f53\u80b2\u4f11\u95f2\u670d\u52a1;\u5a31\u4e50\u573a\u6240;KTV", "pty": "0803"}}, {"type": "Feature", "geometry": {"type": "Point", "coordinates": [121.53055916122355, 31.071245311020938]}, "properties": {"name": "\u6d66\u6c5f1\u53f7\u516c\u9986", "biz": "080302 \u4f53\u80b2\u4f11\u95f2\u670d\u52a1;\u5a31\u4e50\u573a\u6240;KTV", "pty": "0803"}}, {"type": "Feature", "geometry": {"type": "Point", "coordinates": [121.4080776381345, 31.081785760135148]}, "properties": {"name": "\u4e50\u8fea\u5b9d\u91cf\u8d29\u5f0fKTV", "biz": "080302 \u4f53\u80b2\u4f11\u95f2\u670d\u52a1;\u5a31\u4e50\u573a\u6240;KTV", "pty": "0803"}}, {"type": "Feature", "geometry": {"type": "Point", "coordinates": [121.38573142927861, 31.06668208370445]}, "properties": {"name": "\u6e05\u9038KTV", "biz": "080302 \u4f53\u80b2\u4f11\u95f2\u670d\u52a1;\u5a31\u4e50\u573a\u6240;KTV", "pty": "0803"}}, {"type": "Feature", "geometry": {"type": "Point", "coordinates": [121.39235595273789, 31.15493004057907]}, "properties": {"name": "\u7f18\u68eeKTV", "biz": "080302 \u4f53\u80b2\u4f11\u95f2\u670d\u52a1;\u5a31\u4e50\u573a\u6240;KTV", "pty": "0803"}}, {"type": "Feature", "geometry": {"type": "Point", "coordinates": [121.4002006959327, 31.187139030670007]}, "properties": {"name": "\u4eca\u751f\u4eca\u4e16\u56fd\u9645\u4f1a\u6240", "biz": "080302 \u4f53\u80b2\u4f11\u95f2\u670d\u52a1;\u5a31\u4e50\u573a\u6240;KTV", "pty": "0803"}}, {"type": "Feature", "geometry": {"type": "Point", "coordinates": [121.41671058905979, 31.12670750521841]}, "properties": {"name": "\u551b\u52a8\u7eafK(\u6731\u884c\u5e97)", "biz": "080302 \u4f53\u80b2\u4f11\u95f2\u670d\u52a1;\u5a31\u4e50\u573a\u6240;KTV", "pty": "0803"}}, {"type": "Feature", "geometry": {"type": "Point", "coordinates": [121.2646471062256, 31.24307657989408]}, "properties": {"name": "\u597d\u6b4c\u58f0\u91cf\u8d29KTV(\u7eaa\u738b\u5e97)", "biz": "080302 \u4f53\u80b2\u4f11\u95f2\u670d\u52a1;\u5a31\u4e50\u573a\u6240;KTV", "pty": "0803"}}, {"type": "Feature", "geometry": {"type": "Point", "coordinates": [121.40079629406102, 31.04318173059723]}, "properties": {"name": "\u8fce\u9e64KTV(\u74f6\u5b89\u8def)", "biz": "080302 \u4f53\u80b2\u4f11\u95f2\u670d\u52a1;\u5a31\u4e50\u573a\u6240;KTV", "pty": "0803"}}, {"type": "Feature", "geometry": {"type": "Point", "coordinates": [121.34289648397296, 31.158034693287057]}, "properties": {"name": "\u4e03\u5821\u6b4c\u57ce\u91cf\u8d29\u5f0fKTV(\u4e03\u5b9d\u5e97)", "biz": "080302 \u4f53\u80b2\u4f11\u95f2\u670d\u52a1;\u5a31\u4e50\u573a\u6240;KTV", "pty": "0803"}}, {"type": "Feature", "geometry": {"type": "Point", "coordinates": [121.3900746074354, 31.190172654476083]}, "properties": {"name": "\u4e9a\u6d32\u4f1aKTV", "biz": "080302 \u4f53\u80b2\u4f11\u95f2\u670d\u52a1;\u5a31\u4e50\u573a\u6240;KTV", "pty": "0803"}}, {"type": "Feature", "geometry": {"type": "Point", "coordinates": [121.53421673151536, 31.064470184919607]}, "properties": {"name": "\u4e07\u6b4c\u7eafKTV", "biz": "080302 \u4f53\u80b2\u4f11\u95f2\u670d\u52a1;\u5a31\u4e50\u573a\u6240;KTV", "pty": "0803"}}, {"type": "Feature", "geometry": {"type": "Point", "coordinates": [121.42019596045957, 31.00544587170185]}, "properties": {"name": "\u5e1d\u8c6a\u516c\u9986KTV(\u6caa\u95f5\u8def\u5e97)", "biz": "080302 \u4f53\u80b2\u4f11\u95f2\u670d\u52a1;\u5a31\u4e50\u573a\u6240;KTV", "pty": "0803"}}, {"type": "Feature", "geometry": {"type": "Point", "coordinates": [121.53303630695522, 31.063486885058555]}, "properties": {"name": "\u4f20\u6b4c\u5947KTV", "biz": "080302 \u4f53\u80b2\u4f11\u95f2\u670d\u52a1;\u5a31\u4e50\u573a\u6240;KTV", "pty": "0803"}}, {"type": "Feature", "geometry": {"type": "Point", "coordinates": [121.40784458370511, 31.04628599214368]}, "properties": {"name": "\u4fa8\u66e6KTV", "biz": "080302 \u4f53\u80b2\u4f11\u95f2\u670d\u52a1;\u5a31\u4e50\u573a\u6240;KTV", "pty": "0803"}}, {"type": "Feature", "geometry": {"type": "Point", "coordinates": [121.41203508200037, 31.08410362826368]}, "properties": {"name": "\u559c\u9633\u9633\u91cf\u8d29KTV", "biz": "080302 \u4f53\u80b2\u4f11\u95f2\u670d\u52a1;\u5a31\u4e50\u573a\u6240;KTV", "pty": "0803"}}, {"type": "Feature", "geometry": {"type": "Point", "coordinates": [121.462500006079, 31.043706712273337]}, "properties": {"name": "\u6d3e\u4e4b\u661f\u91cf\u8d29\u5f0fKTV(\u5434\u6cfe\u5e97)", "biz": "080302 \u4f53\u80b2\u4f11\u95f2\u670d\u52a1;\u5a31\u4e50\u573a\u6240;KTV", "pty": "0803"}}, {"type": "Feature", "geometry": {"type": "Point", "coordinates": [121.40366551227828, 31.049020918099956]}, "properties": {"name": "\u551b\u4e50\u6c47\u4e3b\u9898\u91cf\u8d29KTV(\u9e64\u7fd4\u8def)", "biz": "080302 \u4f53\u80b2\u4f11\u95f2\u670d\u52a1;\u5a31\u4e50\u573a\u6240;KTV", "pty": "0803"}}, {"type": "Feature", "geometry": {"type": "Point", "coordinates": [121.3707468880984, 31.12992681361684]}, "properties": {"name": "\u551b\u52a8\u7eafk(\u79c0\u6587\u5e97)", "biz": "080302 \u4f53\u80b2\u4f11\u95f2\u670d\u52a1;\u5a31\u4e50\u573a\u6240;KTV", "pty": "0803"}}, {"type": "Feature", "geometry": {"type": "Point", "coordinates": [121.45954608087254, 31.044174989429965]}, "properties": {"name": "\u592a\u9633\u57ce\u97f3\u4e50\u5e7f\u573a\u91cf\u8d29KTV(\u5b9d\u79c0\u8def\u5e97)", "biz": "080302 \u4f53\u80b2\u4f11\u95f2\u670d\u52a1;\u5a31\u4e50\u573a\u6240;KTV", "pty": "0803"}}, {"type": "Feature", "geometry": {"type": "Point", "coordinates": [121.37260514703915, 31.158469710063997]}, "properties": {"name": "\u82ad\u55b1\u5c9bKTV\u56fd\u9645\u81f3\u5c0a\u4f1a\u6240", "biz": "080302 \u4f53\u80b2\u4f11\u95f2\u670d\u52a1;\u5a31\u4e50\u573a\u6240;KTV", "pty": "0803"}}, {"type": "Feature", "geometry": {"type": "Point", "coordinates": [121.41933159724287, 31.12501980130956]}, "properties": {"name": "\u6cd3\u97f5KTV", "biz": "080302 \u4f53\u80b2\u4f11\u95f2\u670d\u52a1;\u5a31\u4e50\u573a\u6240;KTV", "pty": "0803"}}, {"type": "Feature", "geometry": {"type": "Point", "coordinates": [121.52548320292975, 31.02335794379651]}, "properties": {"name": "\u82b1\u6837\u5e74\u534e(\u9c81\u6c47\u5e97)", "biz": "080302 \u4f53\u80b2\u4f11\u95f2\u670d\u52a1;\u5a31\u4e50\u573a\u6240;KTV", "pty": "0803"}}, {"type": "Feature", "geometry": {"type": "Point", "coordinates": [121.3811238251321, 31.145164439653804]}, "properties": {"name": "365KTV", "biz": "080302 \u4f53\u80b2\u4f11\u95f2\u670d\u52a1;\u5a31\u4e50\u573a\u6240;KTV", "pty": "0803"}}, {"type": "Feature", "geometry": {"type": "Point", "coordinates": [121.36898096832522, 31.18975861754565]}, "properties": {"name": "\u7ebd\u65af\u7ec3\u6b4c\u5e7f\u573a", "biz": "080302 \u4f53\u80b2\u4f11\u95f2\u670d\u52a1;\u5a31\u4e50\u573a\u6240;KTV", "pty": "0803"}}, {"type": "Feature", "geometry": {"type": "Point", "coordinates": [121.33933991844737, 31.147845442808297]}, "properties": {"name": "\u65b0\u4e16\u7eaa\u98ce\u60c5KTV", "biz": "080302 \u4f53\u80b2\u4f11\u95f2\u670d\u52a1;\u5a31\u4e50\u573a\u6240;KTV", "pty": "0803"}}, {"type": "Feature", "geometry": {"type": "Point", "coordinates": [121.3253275962907, 31.224315525276726]}, "properties": {"name": "\u946b\u68a6\u82d1\u4f1a\u6240", "biz": "080302 \u4f53\u80b2\u4f11\u95f2\u670d\u52a1;\u5a31\u4e50\u573a\u6240;KTV", "pty": "0803"}}, {"type": "Feature", "geometry": {"type": "Point", "coordinates": [121.37247631300905, 31.158311922670045]}, "properties": {"name": "\u82ad\u5398\u5c9b\u4f1a\u6240KTV-\u5df4\u5398\u5c9b\u591c\u603b\u4f1a", "biz": "080302 \u4f53\u80b2\u4f11\u95f2\u670d\u52a1;\u5a31\u4e50\u573a\u6240;KTV", "pty": "0803"}}, {"type": "Feature", "geometry": {"type": "Point", "coordinates": [121.4073481113426, 31.01399262821083]}, "properties": {"name": "\u7231\u5e86\u6d77KTV(\u4e1c\u5ddd\u8def\u5e97)", "biz": "080302 \u4f53\u80b2\u4f11\u95f2\u670d\u52a1;\u5a31\u4e50\u573a\u6240;KTV", "pty": "0803"}}, {"type": "Feature", "geometry": {"type": "Point", "coordinates": [121.46245690456286, 31.04335380661714]}, "properties": {"name": "\u9177\u4e50\u73a9\u5bb6KTV", "biz": "080302 \u4f53\u80b2\u4f11\u95f2\u670d\u52a1;\u5a31\u4e50\u573a\u6240;KTV", "pty": "0803"}}, {"type": "Feature", "geometry": {"type": "Point", "coordinates": [121.43799270666557, 31.106912263043956]}, "properties": {"name": "\u7eff\u94f6\u7effKTV", "biz": "080302 \u4f53\u80b2\u4f11\u95f2\u670d\u52a1;\u5a31\u4e50\u573a\u6240;KTV", "pty": "0803"}}, {"type": "Feature", "geometry": {"type": "Point", "coordinates": [121.51758823573792, 31.069999433843194]}, "properties": {"name": "\u4e07\u6b4c\u91cf\u8d29\u5f0fKTV(\u6682\u505c\u8425\u4e1a)", "biz": "080302 \u4f53\u80b2\u4f11\u95f2\u670d\u52a1;\u5a31\u4e50\u573a\u6240;KTV", "pty": "0803"}}, {"type": "Feature", "geometry": {"type": "Point", "coordinates": [121.30901311971562, 31.193344396499167]}, "properties": {"name": "\u5531\u5427\u9ea6\u9882(\u4e0a\u6d77\u95f5\u884c\u8679\u6865\u9f99\u6e56\u5929\u8857\u5e97)", "biz": "080302 \u4f53\u80b2\u4f11\u95f2\u670d\u52a1;\u5a31\u4e50\u573a\u6240;KTV", "pty": "0803"}}, {"type": "Feature", "geometry": {"type": "Point", "coordinates": [121.53522526596026, 31.057530584908097]}, "properties": {"name": "\u7687\u5bb6\u4f1a\u6240KTV", "biz": "080302 \u4f53\u80b2\u4f11\u95f2\u670d\u52a1;\u5a31\u4e50\u573a\u6240;KTV", "pty": "0803"}}, {"type": "Feature", "geometry": {"type": "Point", "coordinates": [121.45133340009858, 31.097248338317137]}, "properties": {"name": "\u5f64\u91d1\u9f99\u4f1a\u6240", "biz": "080302 \u4f53\u80b2\u4f11\u95f2\u670d\u52a1;\u5a31\u4e50\u573a\u6240;KTV", "pty": "0803"}}, {"type": "Feature", "geometry": {"type": "Point", "coordinates": [121.37214460627298, 31.1249450479742]}, "properties": {"name": "\u4eac\u4ee3\u56fd\u9645\u4f1a\u6240KTV", "biz": "080302 \u4f53\u80b2\u4f11\u95f2\u670d\u52a1;\u5a31\u4e50\u573a\u6240;KTV", "pty": "0803"}}, {"type": "Feature", "geometry": {"type": "Point", "coordinates": [121.35448702869402, 31.142716456863067]}, "properties": {"name": "\u6676\u61b6\u56fd\u9645", "biz": "080302 \u4f53\u80b2\u4f11\u95f2\u670d\u52a1;\u5a31\u4e50\u573a\u6240;KTV", "pty": "0803"}}, {"type": "Feature", "geometry": {"type": "Point", "coordinates": [121.36043439522403, 31.181309672033347]}, "properties": {"name": "\u854a\u68a6KTV", "biz": "080302 \u4f53\u80b2\u4f11\u95f2\u670d\u52a1;\u5a31\u4e50\u573a\u6240;KTV", "pty": "0803"}}, {"type": "Feature", "geometry": {"type": "Point", "coordinates": [121.38907340859905, 31.162586041430885]}, "properties": {"name": "\u534e\u9038\u4f1a\u6240", "biz": "080302 \u4f53\u80b2\u4f11\u95f2\u670d\u52a1;\u5a31\u4e50\u573a\u6240;KTV", "pty": "0803"}}, {"type": "Feature", "geometry": {"type": "Point", "coordinates": [121.34213548944815, 31.164891481169303]}, "properties": {"name": "\u7ea2\u5b9d\u77f3KTV(\u5434\u5b9d\u8def)", "biz": "080302 \u4f53\u80b2\u4f11\u95f2\u670d\u52a1;\u5a31\u4e50\u573a\u6240;KTV", "pty": "0803"}}, {"type": "Feature", "geometry": {"type": "Point", "coordinates": [121.30431187451346, 31.210013742127764]}, "properties": {"name": "\u82b1\u6837\u5e74\u534e", "biz": "080302 \u4f53\u80b2\u4f11\u95f2\u670d\u52a1;\u5a31\u4e50\u573a\u6240;KTV", "pty": "0803"}}, {"type": "Feature", "geometry": {"type": "Point", "coordinates": [121.35937358814618, 31.1762507293034]}, "properties": {"name": "\u79c0\u7ec3\u6b4c\u5385", "biz": "080302 \u4f53\u80b2\u4f11\u95f2\u670d\u52a1;\u5a31\u4e50\u573a\u6240;KTV", "pty": "0803"}}, {"type": "Feature", "geometry": {"type": "Point", "coordinates": [121.39774236726359, 31.154135826590213]}, "properties": {"name": "\u7537\u4eba\u5e2e\u97f3\u4e50\u5427", "biz": "080302 \u4f53\u80b2\u4f11\u95f2\u670d\u52a1;\u5a31\u4e50\u573a\u6240;KTV", "pty": "0803"}}, {"type": "Feature", "geometry": {"type": "Point", "coordinates": [121.37056583127216, 31.179244151468694]}, "properties": {"name": "\u91d1\u7ea2\u6865\u56fd\u9645\u4f1a\u6240", "biz": "080302 \u4f53\u80b2\u4f11\u95f2\u670d\u52a1;\u5a31\u4e50\u573a\u6240;KTV", "pty": "0803"}}, {"type": "Feature", "geometry": {"type": "Point", "coordinates": [121.4628939979961, 31.04621426990777]}, "properties": {"name": "\u541b\u90fd\u97f3\u4e50\u4f1a\u6240(\u5434\u6cfe\u5e97)", "biz": "080302 \u4f53\u80b2\u4f11\u95f2\u670d\u52a1;\u5a31\u4e50\u573a\u6240;KTV", "pty": "0803"}}, {"type": "Feature", "geometry": {"type": "Point", "coordinates": [121.328719811096, 31.225118653382793]}, "properties": {"name": "\u6a31\u306e\u82b1KTV", "biz": "080302 \u4f53\u80b2\u4f11\u95f2\u670d\u52a1;\u5a31\u4e50\u573a\u6240;KTV", "pty": "0803"}}, {"type": "Feature", "geometry": {"type": "Point", "coordinates": [121.38821807990024, 31.182221325723617]}, "properties": {"name": "\u97e6\u97e6\u5546\u52a1\u4f1a\u6240KTV", "biz": "080302 \u4f53\u80b2\u4f11\u95f2\u670d\u52a1;\u5a31\u4e50\u573a\u6240;KTV", "pty": "0803"}}, {"type": "Feature", "geometry": {"type": "Point", "coordinates": [121.46027056823554, 31.051972283461737]}, "properties": {"name": "\u65b0\u5170\u534e\u56fd\u9645\u5a31\u4e50\u516c\u9986", "biz": "080302 \u4f53\u80b2\u4f11\u95f2\u670d\u52a1;\u5a31\u4e50\u573a\u6240;KTV", "pty": "0803"}}, {"type": "Feature", "geometry": {"type": "Point", "coordinates": [121.39690344528856, 31.084213029027477]}, "properties": {"name": "\u7687\u5bab\u4f1a\u6240KTV", "biz": "080302 \u4f53\u80b2\u4f11\u95f2\u670d\u52a1;\u5a31\u4e50\u573a\u6240;KTV", "pty": "0803"}}, {"type": "Feature", "geometry": {"type": "Point", "coordinates": [121.34980929299864, 31.160524553211786]}, "properties": {"name": "INLOVE\u94f6\u4e50\u8fea", "biz": "080302 \u4f53\u80b2\u4f11\u95f2\u670d\u52a1;\u5a31\u4e50\u573a\u6240;KTV", "pty": "0803"}}, {"type": "Feature", "geometry": {"type": "Point", "coordinates": [121.48555478228867, 31.115941230109577]}, "properties": {"name": "\u6f2b\u57ce\u5a31\u4e50\u4f1a\u6240", "biz": "080302 \u4f53\u80b2\u4f11\u95f2\u670d\u52a1;\u5a31\u4e50\u573a\u6240;KTV", "pty": "0803"}}, {"type": "Feature", "geometry": {"type": "Point", "coordinates": [121.53268226142795, 31.063308120920443]}, "properties": {"name": "\u5947\u8363\u5a31\u4e50(\u6d66\u6c5f\u4e2d\u5fc3\u4f11\u95f2\u5e7f\u573a\u5e97)", "biz": "080302 \u4f53\u80b2\u4f11\u95f2\u670d\u52a1;\u5a31\u4e50\u573a\u6240;KTV", "pty": "0803"}}, {"type": "Feature", "geometry": {"type": "Point", "coordinates": [121.35647738230087, 31.120593364602744]}, "properties": {"name": "\u8398\u5f71\u6b23\u5a31\u4e50\u603b\u6c47", "biz": "080302 \u4f53\u80b2\u4f11\u95f2\u670d\u52a1;\u5a31\u4e50\u573a\u6240;KTV", "pty": "0803"}}, {"type": "Feature", "geometry": {"type": "Point", "coordinates": [121.34000389815368, 31.14314273256892]}, "properties": {"name": "\u661f\u4e4b\u5149\u6b4c\u53cb\u4f1a", "biz": "080302 \u4f53\u80b2\u4f11\u95f2\u670d\u52a1;\u5a31\u4e50\u573a\u6240;KTV", "pty": "0803"}}, {"type": "Feature", "geometry": {"type": "Point", "coordinates": [121.43631226696566, 31.095172904839043]}, "properties": {"name": "\u5f69\u4f9d\u56fd\u9645\u516c\u9986KTV", "biz": "080302 \u4f53\u80b2\u4f11\u95f2\u670d\u52a1;\u5a31\u4e50\u573a\u6240;KTV", "pty": "0803"}}, {"type": "Feature", "geometry": {"type": "Point", "coordinates": [121.39591519558726, 31.13373874247693]}, "properties": {"name": "6\u53f7\u5305\u53a2(\u767e\u8054\u5357\u65b9\u8d2d\u7269\u4e2d\u5fc3)", "biz": "080302 \u4f53\u80b2\u4f11\u95f2\u670d\u52a1;\u5a31\u4e50\u573a\u6240;KTV", "pty": "0803"}}, {"type": "Feature", "geometry": {"type": "Point", "coordinates": [121.43802176778593, 31.10690931565389]}, "properties": {"name": "\u6d77\u5c1a\u5df4\u9ece", "biz": "080302 \u4f53\u80b2\u4f11\u95f2\u670d\u52a1;\u5a31\u4e50\u573a\u6240;KTV", "pty": "0803"}}, {"type": "Feature", "geometry": {"type": "Point", "coordinates": [121.51375369772477, 31.110678720334025]}, "properties": {"name": "\u6d01\u5149KTV", "biz": "080302 \u4f53\u80b2\u4f11\u95f2\u670d\u52a1;\u5a31\u4e50\u573a\u6240;KTV", "pty": "0803"}}, {"type": "Feature", "geometry": {"type": "Point", "coordinates": [121.40901327389317, 31.138423982813887]}, "properties": {"name": "\u539f\u91ceKTV(\u6885\u9647\u897f\u8def)", "biz": "080302 \u4f53\u80b2\u4f11\u95f2\u670d\u52a1;\u5a31\u4e50\u573a\u6240;KTV", "pty": "0803"}}, {"type": "Feature", "geometry": {"type": "Point", "coordinates": [121.36830885586006, 31.17840009923406]}, "properties": {"name": "\u7687\u5bb6\u56fd\u9645(\u5148\u950b\u8857)", "biz": "080302 \u4f53\u80b2\u4f11\u95f2\u670d\u52a1;\u5a31\u4e50\u573a\u6240;KTV", "pty": "0803"}}, {"type": "Feature", "geometry": {"type": "Point", "coordinates": [121.52450239778152, 31.067204939079634]}, "properties": {"name": "\u534e\u8000KTV", "biz": "080302 \u4f53\u80b2\u4f11\u95f2\u670d\u52a1;\u5a31\u4e50\u573a\u6240;KTV", "pty": "0803"}}, {"type": "Feature", "geometry": {"type": "Point", "coordinates": [121.40664273999313, 31.106520294890693]}, "properties": {"name": "\u97f3\u4e50\u5e7f\u573a\u91cf\u8d29KTV", "biz": "080302 \u4f53\u80b2\u4f11\u95f2\u670d\u52a1;\u5a31\u4e50\u573a\u6240;KTV", "pty": "0803"}}, {"type": "Feature", "geometry": {"type": "Point", "coordinates": [121.36164667929053, 31.10933816258098]}, "properties": {"name": "\u76db\u590f\u4e4b\u591cKTV", "biz": "080302 \u4f53\u80b2\u4f11\u95f2\u670d\u52a1;\u5a31\u4e50\u573a\u6240;KTV", "pty": "0803"}}, {"type": "Feature", "geometry": {"type": "Point", "coordinates": [121.43098642401513, 31.11594298405675]}, "properties": {"name": "\u7687\u5bb6KTV", "biz": "080302 \u4f53\u80b2\u4f11\u95f2\u670d\u52a1;\u5a31\u4e50\u573a\u6240;KTV", "pty": "0803"}}, {"type": "Feature", "geometry": {"type": "Point", "coordinates": [121.40714209375899, 31.012962146708656]}, "properties": {"name": "\u8c4c\u8c46\u97f3\u4e50(\u4e1c\u5ddd\u5e97)", "biz": "080302 \u4f53\u80b2\u4f11\u95f2\u670d\u52a1;\u5a31\u4e50\u573a\u6240;KTV", "pty": "0803"}}, {"type": "Feature", "geometry": {"type": "Point", "coordinates": [121.3923308857195, 31.190236985450195]}, "properties": {"name": "\u4e0a\u6d77\u54c8\u4e00\u987f\u5927\u9152\u5e97KTV", "biz": "080302 \u4f53\u80b2\u4f11\u95f2\u670d\u52a1;\u5a31\u4e50\u573a\u6240;KTV", "pty": "0803"}}, {"type": "Feature", "geometry": {"type": "Point", "coordinates": [121.4110011756984, 31.00476792302764]}, "properties": {"name": "\u9526\u4e50KTV", "biz": "080302 \u4f53\u80b2\u4f11\u95f2\u670d\u52a1;\u5a31\u4e50\u573a\u6240;KTV", "pty": "0803"}}, {"type": "Feature", "geometry": {"type": "Point", "coordinates": [121.36725928201729, 31.178561246152746]}, "properties": {"name": "\u53cb\u5531", "biz": "080302 \u4f53\u80b2\u4f11\u95f2\u670d\u52a1;\u5a31\u4e50\u573a\u6240;KTV", "pty": "0803"}}, {"type": "Feature", "geometry": {"type": "Point", "coordinates": [121.38252188460046, 31.109033092978382]}, "properties": {"name": "\u7231\u7545\u4eab(\u90fd\u5e02\u8def\u5e97)", "biz": "080302 \u4f53\u80b2\u4f11\u95f2\u670d\u52a1;\u5a31\u4e50\u573a\u6240;KTV", "pty": "0803"}}, {"type": "Feature", "geometry": {"type": "Point", "coordinates": [121.39619562435952, 31.013267059318213]}, "properties": {"name": "\u78a7\u5dddKTV(\u78a7\u6c5f\u8def)", "biz": "080302 \u4f53\u80b2\u4f11\u95f2\u670d\u52a1;\u5a31\u4e50\u573a\u6240;KTV", "pty": "0803"}}, {"type": "Feature", "geometry": {"type": "Point", "coordinates": [121.40977849317689, 31.014540480062987]}, "properties": {"name": "\u91d1\u90fd\u56fd\u9645", "biz": "080302 \u4f53\u80b2\u4f11\u95f2\u670d\u52a1;\u5a31\u4e50\u573a\u6240;KTV", "pty": "0803"}}, {"type": "Feature", "geometry": {"type": "Point", "coordinates": [121.3411015723698, 31.177675776910867]}, "properties": {"name": "\u963f\u80e1\u5b50KTV(\u8363\u5fb7\u516c\u5bd3\u897f\u5357)", "biz": "080302 \u4f53\u80b2\u4f11\u95f2\u670d\u52a1;\u5a31\u4e50\u573a\u6240;KTV", "pty": "0803"}}, {"type": "Feature", "geometry": {"type": "Point", "coordinates": [121.53284374719543, 31.06328852789053]}, "properties": {"name": "\u4f18\u9ea6\u6b4c\u57ce\u4e3b\u9898KTV", "biz": "080302 \u4f53\u80b2\u4f11\u95f2\u670d\u52a1;\u5a31\u4e50\u573a\u6240;KTV", "pty": "0803"}}, {"type": "Feature", "geometry": {"type": "Point", "coordinates": [121.29177723709175, 31.207674742330827]}, "properties": {"name": "\u539f\u946b\u6b4c\u5385", "biz": "080302 \u4f53\u80b2\u4f11\u95f2\u670d\u52a1;\u5a31\u4e50\u573a\u6240;KTV", "pty": "0803"}}, {"type": "Feature", "geometry": {"type": "Point", "coordinates": [121.37739226039297, 31.17834006197188]}, "properties": {"name": "\u53cb\u5531M-Bar", "biz": "080302 \u4f53\u80b2\u4f11\u95f2\u670d\u52a1;\u5a31\u4e50\u573a\u6240;KTV", "pty": "0803"}}, {"type": "Feature", "geometry": {"type": "Point", "coordinates": [121.39848035048873, 31.189108924232226]}, "properties": {"name": "\u4e50\u9b54\u65b9", "biz": "080302 \u4f53\u80b2\u4f11\u95f2\u670d\u52a1;\u5a31\u4e50\u573a\u6240;KTV", "pty": "0803"}}, {"type": "Feature", "geometry": {"type": "Point", "coordinates": [121.46233254705871, 31.043096637637912]}, "properties": {"name": "\u6c47\u57ce\u68cb\u724c", "biz": "080302 \u4f53\u80b2\u4f11\u95f2\u670d\u52a1;\u5a31\u4e50\u573a\u6240;KTV", "pty": "0803"}}, {"type": "Feature", "geometry": {"type": "Point", "coordinates": [121.35663401169552, 31.144784095904292]}, "properties": {"name": "\u5fa1\u516c\u9986", "biz": "080302 \u4f53\u80b2\u4f11\u95f2\u670d\u52a1;\u5a31\u4e50\u573a\u6240;KTV", "pty": "0803"}}, {"type": "Feature", "geometry": {"type": "Point", "coordinates": [121.349643647417, 31.14860008291672]}, "properties": {"name": "A8\u6162\u6447\u9152\u5427KTV", "biz": "080304|080302 \u4f53\u80b2\u4f11\u95f2\u670d\u52a1;\u5a31\u4e50\u573a\u6240;\u9152\u5427|\u4f53\u80b2\u4f11\u95f2\u670d\u52a1;\u5a31\u4e50\u573a\u6240;KTV", "pty": "0803"}}, {"type": "Feature", "geometry": {"type": "Point", "coordinates": [121.349643647417, 31.14860008291672]}, "properties": {"name": "A8\u6162\u6447\u9152\u5427KTV", "biz": "080304|080302 \u4f53\u80b2\u4f11\u95f2\u670d\u52a1;\u5a31\u4e50\u573a\u6240;\u9152\u5427|\u4f53\u80b2\u4f11\u95f2\u670d\u52a1;\u5a31\u4e50\u573a\u6240;KTV", "pty": "0803"}}, {"type": "Feature", "geometry": {"type": "Point", "coordinates": [121.3503182303307, 31.16141125568727]}, "properties": {"name": "2003CLUB\u9152\u5427KTV", "biz": "080302 \u4f53\u80b2\u4f11\u95f2\u670d\u52a1;\u5a31\u4e50\u573a\u6240;KTV", "pty": "0803"}},