{"type": "FeatureCollection", "features": [{"type": "Feature", "geometry": {"type": "Point", "coordinates": [121.43506215407072, 31.195036950582114]}, "properties": {"name": "ROG\u73a9\u5bb6\u56fd\u5ea6(\u7f8e\u7f57\u57ce)", "biz": "080308|060306 \u4f53\u80b2\u4f11\u95f2\u670d\u52a1;\u5a31\u4e50\u573a\u6240;\u7f51\u5427|\u8d2d\u7269\u670d\u52a1;\u5bb6\u7535\u7535\u5b50\u5356\u573a;\u6570\u7801\u7535\u5b50", "pty": "0803"}}, {"type": "Feature", "geometry": {"type": "Point", "coordinates": [121.4138484996098, 31.17713873180884]}, "properties": {"name": "\u5de8\u4eba\u7f51\u7edc\u96c6\u56e2\u6709\u9650\u516c\u53f8", "biz": "170206|080308 \u516c\u53f8\u4f01\u4e1a;\u516c\u53f8;\u7f51\u7edc\u79d1\u6280|\u4f53\u80b2\u4f11\u95f2\u670d\u52a1;\u5a31\u4e50\u573a\u6240;\u7f51\u5427", "pty": "1702"}}, {"type": "Feature", "geometry": {"type": "Point", "coordinates": [121.3644956411291, 31.20883365265208]}, "properties": {"name": "\u81ea\u6e38\u7a7a\u95f4\u4f11\u95f2\u7f51\u5496", "biz": "080308 \u4f53\u80b2\u4f11\u95f2\u670d\u52a1;\u5a31\u4e50\u573a\u6240;\u7f51\u5427", "pty": "0803"}}, {"type": "Feature", "geometry": {"type": "Point", "coordinates": [121.34578883120977, 31.223633015224404]}, "properties": {"name": "\u7f51\u9c7c\u7f51\u5496(\u51cc\u7a7aSOHO\u643a\u7a0b\u5e97)", "biz": "080308 \u4f53\u80b2\u4f11\u95f2\u670d\u52a1;\u5a31\u4e50\u573a\u6240;\u7f51\u5427", "pty": "0803"}}, {"type": "Feature", "geometry": {"type": "Point", "coordinates": [121.40865826516101, 31.193566348809803]}, "properties": {"name": "\u5320\u661f\u7f51\u7edc\u751f\u6d3b\u9986", "biz": "080308 \u4f53\u80b2\u4f11\u95f2\u670d\u52a1;\u5a31\u4e50\u573a\u6240;\u7f51\u5427", "pty": "0803"}}, {"type": "Feature", "geometry": {"type": "Point", "coordinates": [121.38542435675166, 31.20765805199937]}, "properties": {"name": "\u7f51\u9c7c\u7f51\u5496(\u4ed9\u971e\u5e97)", "biz": "080308 \u4f53\u80b2\u4f11\u95f2\u670d\u52a1;\u5a31\u4e50\u573a\u6240;\u7f51\u5427", "pty": "0803"}}, {"type": "Feature", "geometry": {"type": "Point", "coordinates": [121.39786220178658, 31.21348598979477]}, "properties": {"name": "\u7f51\u9c7c\u7f51\u5496(\u5df4\u9ece\u6625\u5929\u5929\u5c71\u5e97)", "biz": "080308 \u4f53\u80b2\u4f11\u95f2\u670d\u52a1;\u5a31\u4e50\u573a\u6240;\u7f51\u5427", "pty": "0803"}}, {"type": "Feature", "geometry": {"type": "Point", "coordinates": [121.41773060807516, 31.219409099339696]}, "properties": {"name": "\u7f51\u9c7c\u7f51\u5496(\u5ba3\u5316\u5e97)", "biz": "080308 \u4f53\u80b2\u4f11\u95f2\u670d\u52a1;\u5a31\u4e50\u573a\u6240;\u7f51\u5427", "pty": "0803"}}, {"type": "Feature", "geometry": {"type": "Point", "coordinates": [121.35459468879462, 31.213564369702006]}, "properties": {"name": "\u8f89\u817e\u7f51\u5496(\u798f\u6cc9\u8def)", "biz": "080308 \u4f53\u80b2\u4f11\u95f2\u670d\u52a1;\u5a31\u4e50\u573a\u6240;\u7f51\u5427", "pty": "0803"}}, {"type": "Feature", "geometry": {"type": "Point", "coordinates": [121.42748057655932, 31.219703783957318]}, "properties": {"name": "\u7f51\u6f6e\u7f51\u5427(\u4e1c\u8bf8\u5b89\u6d5c\u8def)", "biz": "080308 \u4f53\u80b2\u4f11\u95f2\u670d\u52a1;\u5a31\u4e50\u573a\u6240;\u7f51\u5427", "pty": "0803"}}, {"type": "Feature", "geometry": {"type": "Point", "coordinates": [121.42523362604022, 31.214177551275718]}, "properties": {"name": "\u7f51\u9c7c\u7f51\u5496(\u5ef6\u5b89\u897f\u8def\u5e97)", "biz": "080308 \u4f53\u80b2\u4f11\u95f2\u670d\u52a1;\u5a31\u4e50\u573a\u6240;\u7f51\u5427", "pty": "0803"}}, {"type": "Feature", "geometry": {"type": "Point", "coordinates": [121.41953516640415, 31.213347674598978]}, "properties": {"name": "\u524d\u536b\u7f51\u5496", "biz": "080308 \u4f53\u80b2\u4f11\u95f2\u670d\u52a1;\u5a31\u4e50\u573a\u6240;\u7f51\u5427", "pty": "0803"}}, {"type": "Feature", "geometry": {"type": "Point", "coordinates": [121.36819845130874, 31.219254164043512]}, "properties": {"name": "\u7f51\u9c7c\u7f51\u5496(\u5929\u99a5\u5e97)", "biz": "080308 \u4f53\u80b2\u4f11\u95f2\u670d\u52a1;\u5a31\u4e50\u573a\u6240;\u7f51\u5427", "pty": "0803"}}, {"type": "Feature", "geometry": {"type": "Point", "coordinates": [121.40064903937737, 31.218443813588948]}, "properties": {"name": "\u4f17\u827a\u7f51\u7edc(\u5a04\u5c71\u5173\u8def)", "biz": "080308 \u4f53\u80b2\u4f11\u95f2\u670d\u52a1;\u5a31\u4e50\u573a\u6240;\u7f51\u5427", "pty": "0803"}}, {"type": "Feature", "geometry": {"type": "Point", "coordinates": [121.41724607625393, 31.219589585294674]}, "properties": {"name": "\u98ce\u8776\u7f51\u5496(\u5b9a\u897f\u8def\u5e97)", "biz": "080308 \u4f53\u80b2\u4f11\u95f2\u670d\u52a1;\u5a31\u4e50\u573a\u6240;\u7f51\u5427", "pty": "0803"}}, {"type": "Feature", "geometry": {"type": "Point", "coordinates": [121.41463383390635, 31.20435377043906]}, "properties": {"name": "\u6770\u62c9\u7f51\u5496(\u51ef\u65cb\u8def\u5e97)", "biz": "080308 \u4f53\u80b2\u4f11\u95f2\u670d\u52a1;\u5a31\u4e50\u573a\u6240;\u7f51\u5427", "pty": "0803"}}, {"type": "Feature", "geometry": {"type": "Point", "coordinates": [121.41556856343087, 31.194553305653596]}, "properties": {"name": "\u9b54\u5708\u7f51\u7edc", "biz": "080308 \u4f53\u80b2\u4f11\u95f2\u670d\u52a1;\u5a31\u4e50\u573a\u6240;\u7f51\u5427", "pty": "0803"}}, {"type": "Feature", "geometry": {"type": "Point", "coordinates": [121.36327747532636, 31.220490654771556]}, "properties": {"name": "\u826f\u8fb0\u7f8e\u666f\u7f51\u5427", "biz": "080308 \u4f53\u80b2\u4f11\u95f2\u670d\u52a1;\u5a31\u4e50\u573a\u6240;\u7f51\u5427", "pty": "0803"}}, {"type": "Feature", "geometry": {"type": "Point", "coordinates": [121.39840944790319, 31.210902239679005]}, "properties": {"name": "\u5e73\u5b89\u4e92\u8054\u7f51", "biz": "080308 \u4f53\u80b2\u4f11\u95f2\u670d\u52a1;\u5a31\u4e50\u573a\u6240;\u7f51\u5427", "pty": "0803"}}, {"type": "Feature", "geometry": {"type": "Point", "coordinates": [121.42620740954723, 31.210394580238]}, "properties": {"name": "\u7f51\u5496", "biz": "080308 \u4f53\u80b2\u4f11\u95f2\u670d\u52a1;\u5a31\u4e50\u573a\u6240;\u7f51\u5427", "pty": "0803"}}, {"type": "Feature", "geometry": {"type": "Point", "coordinates": [121.41255502595168, 31.20462716147096]}, "properties": {"name": "\u5bbe\u8c37\u7f51\u7edc", "biz": "080308 \u4f53\u80b2\u4f11\u95f2\u670d\u52a1;\u5a31\u4e50\u573a\u6240;\u7f51\u5427", "pty": "0803"}}, {"type": "Feature", "geometry": {"type": "Point", "coordinates": [121.36644192758156, 31.21886243191985]}, "properties": {"name": "\u98ce\u8776\u7f51\u5496(\u5929\u5c71\u897f\u8def\u5e97)", "biz": "080308 \u4f53\u80b2\u4f11\u95f2\u670d\u52a1;\u5a31\u4e50\u573a\u6240;\u7f51\u5427", "pty": "0803"}}, {"type": "Feature", "geometry": {"type": "Point", "coordinates": [121.4438630594951, 31.300483784595805]}, "properties": {"name": "\u7f51\u9c7c\u7f51\u5496(\u5171\u548c\u65b0\u8def\u5e97)", "biz": "080308 \u4f53\u80b2\u4f11\u95f2\u670d\u52a1;\u5a31\u4e50\u573a\u6240;\u7f51\u5427", "pty": "0803"}}, {"type": "Feature", "geometry": {"type": "Point", "coordinates": [121.43851169953068, 31.223794968889955]}, "properties": {"name": "\u7f51\u9c7c\u7f51\u5496(\u9759\u5b89\u5bfa\u5e97)", "biz": "080308 \u4f53\u80b2\u4f11\u95f2\u670d\u52a1;\u5a31\u4e50\u573a\u6240;\u7f51\u5427", "pty": "0803"}}, {"type": "Feature", "geometry": {"type": "Point", "coordinates": [121.42682003378752, 31.294534130702118]}, "properties": {"name": "\u6709\u7ea6\u7f51\u5427", "biz": "080308 \u4f53\u80b2\u4f11\u95f2\u670d\u52a1;\u5a31\u4e50\u573a\u6240;\u7f51\u5427", "pty": "0803"}}, {"type": "Feature", "geometry": {"type": "Point", "coordinates": [121.45556371774754, 31.251981616623752]}, "properties": {"name": "\u7f51\u9c7c\u7f51\u5496(\u592a\u9633\u5c71\u5e97)", "biz": "080308 \u4f53\u80b2\u4f11\u95f2\u670d\u52a1;\u5a31\u4e50\u573a\u6240;\u7f51\u5427", "pty": "0803"}}, {"type": "Feature", "geometry": {"type": "Point", "coordinates": [121.44687200630065, 31.24684852982065]}, "properties": {"name": "\u4e1c\u65b9\u7f51\u70b9(\u6587\u5316\u82b1\u56ed\u5e97)", "biz": "080308 \u4f53\u80b2\u4f11\u95f2\u670d\u52a1;\u5a31\u4e50\u573a\u6240;\u7f51\u5427", "pty": "0803"}}, {"type": "Feature", "geometry": {"type": "Point", "coordinates": [121.4243844208936, 31.282879848498677]}, "properties": {"name": "\u6770\u62c9\u7f51\u5496(\u95f8\u5317\u5e97)", "biz": "080308 \u4f53\u80b2\u4f11\u95f2\u670d\u52a1;\u5a31\u4e50\u573a\u6240;\u7f51\u5427", "pty": "0803"}}, {"type": "Feature", "geometry": {"type": "Point", "coordinates": [121.45723176928813, 31.271912957703567]}, "properties": {"name": "\u7f51\u9c7c\u7f51\u5496(\u6d1b\u5ddd\u5e97)", "biz": "080308 \u4f53\u80b2\u4f11\u95f2\u670d\u52a1;\u5a31\u4e50\u573a\u6240;\u7f51\u5427", "pty": "0803"}}, {"type": "Feature", "geometry": {"type": "Point", "coordinates": [121.4273952805661, 31.279075201690357]}, "properties": {"name": "\u7f51\u9c7c\u7f51\u5496(\u4e0a\u6d77\u7075\u77f3\u8def\u5e97)", "biz": "080308 \u4f53\u80b2\u4f11\u95f2\u670d\u52a1;\u5a31\u4e50\u573a\u6240;\u7f51\u5427", "pty": "0803"}}, {"type": "Feature", "geometry": {"type": "Point", "coordinates": [121.4532885703226, 31.249720314803444]}, "properties": {"name": "\u5e03\u4e50\u7f51\u5427", "biz": "080308 \u4f53\u80b2\u4f11\u95f2\u670d\u52a1;\u5a31\u4e50\u573a\u6240;\u7f51\u5427", "pty": "0803"}}, {"type": "Feature", "geometry": {"type": "Point", "coordinates": [121.44421171219756, 31.314023235006587]}, "properties": {"name": "\u661f\u8fb0\u7f51\u5496(\u5171\u548c\u65b0\u8def\u5e97)", "biz": "080308 \u4f53\u80b2\u4f11\u95f2\u670d\u52a1;\u5a31\u4e50\u573a\u6240;\u7f51\u5427", "pty": "0803"}}, {"type": "Feature", "geometry": {"type": "Point", "coordinates": [121.44751870658537, 31.257479169956646]}, "properties": {"name": "\u7f51\u9c7c\u7f51\u5496(\u6caa\u592a\u8def\u5e97)", "biz": "080308 \u4f53\u80b2\u4f11\u95f2\u670d\u52a1;\u5a31\u4e50\u573a\u6240;\u7f51\u5427", "pty": "0803"}}, {"type": "Feature", "geometry": {"type": "Point", "coordinates": [121.45987134505796, 31.22739428045208]}, "properties": {"name": "\u7f51\u9c7c\u7f51\u5496(\u5927\u6cbd\u8def\u5e97)", "biz": "080308 \u4f53\u80b2\u4f11\u95f2\u670d\u52a1;\u5a31\u4e50\u573a\u6240;\u7f51\u5427", "pty": "0803"}}, {"type": "Feature", "geometry": {"type": "Point", "coordinates": [121.45328597518805, 31.25653629211331]}, "properties": {"name": "\u4e1c\u65b9\u7f51\u70b9(\u666e\u5584\u5e97)", "biz": "080308 \u4f53\u80b2\u4f11\u95f2\u670d\u52a1;\u5a31\u4e50\u573a\u6240;\u7f51\u5427", "pty": "0803"}}, {"type": "Feature", "geometry": {"type": "Point", "coordinates": [121.43717444056901, 31.24069582088084]}, "properties": {"name": "\u987a\u6668\u7f51\u5496", "biz": "080308 \u4f53\u80b2\u4f11\u95f2\u670d\u52a1;\u5a31\u4e50\u573a\u6240;\u7f51\u5427", "pty": "0803"}}, {"type": "Feature", "geometry": {"type": "Point", "coordinates": [121.4606182838313, 31.254070030564744]}, "properties": {"name": "\u6cf0\u84dd\u7f51\u5496(\u4e2d\u5174\u8def\u5e97)", "biz": "080308 \u4f53\u80b2\u4f11\u95f2\u670d\u52a1;\u5a31\u4e50\u573a\u6240;\u7f51\u5427", "pty": "0803"}}, {"type": "Feature", "geometry": {"type": "Point", "coordinates": [121.45923185741736, 31.269115039643715]}, "properties": {"name": "\u4e09\u51cc\u7f51\u5427", "biz": "080308 \u4f53\u80b2\u4f11\u95f2\u670d\u52a1;\u5a31\u4e50\u573a\u6240;\u7f51\u5427", "pty": "0803"}}, {"type": "Feature", "geometry": {"type": "Point", "coordinates": [121.47387726961668, 31.25812164678256]}, "properties": {"name": "\u98de\u7fd4\u7f51\u5427(\u5b9d\u901a\u8def)", "biz": "080308 \u4f53\u80b2\u4f11\u95f2\u670d\u52a1;\u5a31\u4e50\u573a\u6240;\u7f51\u5427", "pty": "0803"}}, {"type": "Feature", "geometry": {"type": "Point", "coordinates": [121.47536789419044, 31.25117191550807]}, "properties": {"name": "\u7f51\u9c7c\u7f51\u5496(\u6cb3\u5357\u5317\u8def\u5e97)", "biz": "080308 \u4f53\u80b2\u4f11\u95f2\u670d\u52a1;\u5a31\u4e50\u573a\u6240;\u7f51\u5427", "pty": "0803"}}, {"type": "Feature", "geometry": {"type": "Point", "coordinates": [121.44421070981313, 31.314023233013717]}, "properties": {"name": "\u661f\u8fb0\u7535\u7ade(\u5171\u548c\u65b0\u8def\u5e97)", "biz": "080308 \u4f53\u80b2\u4f11\u95f2\u670d\u52a1;\u5a31\u4e50\u573a\u6240;\u7f51\u5427", "pty": "0803"}}, {"type": "Feature", "geometry": {"type": "Point", "coordinates": [121.4555380199704, 31.317164781428335]}, "properties": {"name": "\u5b81\u6d77\u7f51\u5427", "biz": "080308 \u4f53\u80b2\u4f11\u95f2\u670d\u52a1;\u5a31\u4e50\u573a\u6240;\u7f51\u5427", "pty": "0803"}}, {"type": "Feature", "geometry": {"type": "Point", "coordinates": [121.45355453169472, 31.258647984750752]}, "properties": {"name": "\u7f51\u9c7c\u7f51\u5496(\u4e0a\u6d77\u82b7\u897f\u5e97)", "biz": "080308 \u4f53\u80b2\u4f11\u95f2\u670d\u52a1;\u5a31\u4e50\u573a\u6240;\u7f51\u5427", "pty": "0803"}}, {"type": "Feature", "geometry": {"type": "Point", "coordinates": [121.45781621039524, 31.274852133135994]}, "properties": {"name": "\u67ef\u68ee\u7f51\u5496", "biz": "080308 \u4f53\u80b2\u4f11\u95f2\u670d\u52a1;\u5a31\u4e50\u573a\u6240;\u7f51\u5427", "pty": "0803"}}, {"type": "Feature", "geometry": {"type": "Point", "coordinates": [121.46026582874424, 31.258706109620213]}, "properties": {"name": "\u7533\u7fd4\u7f51\u5427", "biz": "080308 \u4f53\u80b2\u4f11\u95f2\u670d\u52a1;\u5a31\u4e50\u573a\u6240;\u7f51\u5427", "pty": "0803"}}, {"type": "Feature", "geometry": {"type": "Point", "coordinates": [121.44365097646002, 31.23793103983232]}, "properties": {"name": "\u745e\u5f97\u7f51\u5427(\u9655\u897f\u5317\u8def\u5e97)", "biz": "080308 \u4f53\u80b2\u4f11\u95f2\u670d\u52a1;\u5a31\u4e50\u573a\u6240;\u7f51\u5427", "pty": "0803"}}, {"type": "Feature", "geometry": {"type": "Point", "coordinates": [121.43547925378301, 31.272554969828203]}, "properties": {"name": "\u6770\u62c9\u7f51\u5496\u8fd0\u57ce\u8def\u5e97", "biz": "080308 \u4f53\u80b2\u4f11\u95f2\u670d\u52a1;\u5a31\u4e50\u573a\u6240;\u7f51\u5427", "pty": "0803"}}, {"type": "Feature", "geometry": {"type": "Point", "coordinates": [121.46812272680404, 31.25337589580739]}, "properties": {"name": "\u4f73\u4f73\u7f51\u5427(\u866c\u6c5f\u8def)", "biz": "080308 \u4f53\u80b2\u4f11\u95f2\u670d\u52a1;\u5a31\u4e50\u573a\u6240;\u7f51\u5427", "pty": "0803"}}, {"type": "Feature", "geometry": {"type": "Point", "coordinates": [121.44653622697682, 31.257782984073714]}, "properties": {"name": "\u8054\u6770\u7f51\u5427(\u88c5\u4fee\u4e2d)", "biz": "080308 \u4f53\u80b2\u4f11\u95f2\u670d\u52a1;\u5a31\u4e50\u573a\u6240;\u7f51\u5427", "pty": "0803"}}, {"type": "Feature", "geometry": {"type": "Point", "coordinates": [121.45471714479902, 31.23098914544255]}, "properties": {"name": "\u7f51\u9c7c\u7f51\u5496(\u6e5f\u666e\u6c47\u5e97)", "biz": "080308 \u4f53\u80b2\u4f11\u95f2\u670d\u52a1;\u5a31\u4e50\u573a\u6240;\u7f51\u5427", "pty": "0803"}}, {"type": "Feature", "geometry": {"type": "Point", "coordinates": [121.43773032135769, 31.289930591275624]}, "properties": {"name": "\u4e16\u821f\u7f51e(\u9e64\u5c7f\u5e97)", "biz": "080308 \u4f53\u80b2\u4f11\u95f2\u670d\u52a1;\u5a31\u4e50\u573a\u6240;\u7f51\u5427", "pty": "0803"}}, {"type": "Feature", "geometry": {"type": "Point", "coordinates": [121.45090574631107, 31.231070409598672]}, "properties": {"name": "\u7f51\u9c7c\u7f51\u5496(\u6c5f\u5b81\u5e97)", "biz": "080308 \u4f53\u80b2\u4f11\u95f2\u670d\u52a1;\u5a31\u4e50\u573a\u6240;\u7f51\u5427", "pty": "0803"}}, {"type": "Feature", "geometry": {"type": "Point", "coordinates": [121.4469304456923, 31.312783246758826]}, "properties": {"name": "\u98ce\u8776\u7f51\u5496(\u4e34\u6c7e\u5e97)", "biz": "080308 \u4f53\u80b2\u4f11\u95f2\u670d\u52a1;\u5a31\u4e50\u573a\u6240;\u7f51\u5427", "pty": "0803"}}, {"type": "Feature", "geometry": {"type": "Point", "coordinates": [121.44429850598385, 31.27263004081078]}, "properties": {"name": "\u797a\u70e8\u7f51\u5427", "biz": "080308 \u4f53\u80b2\u4f11\u95f2\u670d\u52a1;\u5a31\u4e50\u573a\u6240;\u7f51\u5427", "pty": "0803"}}, {"type": "Feature", "geometry": {"type": "Point", "coordinates": [121.45089872414597, 31.231111375027364]}, "properties": {"name": "\u98ce\u8776\u7f51\u5496(\u4e0a\u6d77\u6c5f\u5b81\u5e97)", "biz": "080308 \u4f53\u80b2\u4f11\u95f2\u670d\u52a1;\u5a31\u4e50\u573a\u6240;\u7f51\u5427", "pty": "0803"}}, {"type": "Feature", "geometry": {"type": "Point", "coordinates": [121.43286631901842, 31.237164386342066]}, "properties": {"name": "\u98de\u7fbd\u7f51\u5496(\u4f59\u59da\u8def)", "biz": "080308 \u4f53\u80b2\u4f11\u95f2\u670d\u52a1;\u5a31\u4e50\u573a\u6240;\u7f51\u5427", "pty": "0803"}}, {"type": "Feature", "geometry": {"type": "Point", "coordinates": [121.4524263034944, 31.248718792468882]}, "properties": {"name": "\u5409\u6cf0\u7f51\u5496", "biz": "080308 \u4f53\u80b2\u4f11\u95f2\u670d\u52a1;\u5a31\u4e50\u573a\u6240;\u7f51\u5427", "pty": "0803"}}, {"type": "Feature", "geometry": {"type": "Point", "coordinates": [121.46030493264207, 31.25885814103177]}, "properties": {"name": "\u4e2d\u7fd4\u7f51\u5496", "biz": "080308 \u4f53\u80b2\u4f11\u95f2\u670d\u52a1;\u5a31\u4e50\u573a\u6240;\u7f51\u5427", "pty": "0803"}}, {"type": "Feature", "geometry": {"type": "Point", "coordinates": [121.46369035853904, 31.245886517293894]}, "properties": {"name": "\u53f0\u7403\u7f51\u5427", "biz": "080308 \u4f53\u80b2\u4f11\u95f2\u670d\u52a1;\u5a31\u4e50\u573a\u6240;\u7f51\u5427", "pty": "0803"}}, {"type": "Feature", "geometry": {"type": "Point", "coordinates": [121.4554327228834, 31.259226117669183]}, "properties": {"name": "\u65f6\u5149\u65c5\u884c\u7f51\u5427", "biz": "080308 \u4f53\u80b2\u4f11\u95f2\u670d\u52a1;\u5a31\u4e50\u573a\u6240;\u7f51\u5427", "pty": "0803"}}, {"type": "Feature", "geometry": {"type": "Point", "coordinates": [121.4512522809497, 31.25872972439436]}, "properties": {"name": "\u571f\u661f\u7f51\u5496(\u82b7\u6c5f\u5e97)", "biz": "080308 \u4f53\u80b2\u4f11\u95f2\u670d\u52a1;\u5a31\u4e50\u573a\u6240;\u7f51\u5427", "pty": "0803"}}, {"type": "Feature", "geometry": {"type": "Point", "coordinates": [121.43760105184097, 31.289933365101657]}, "properties": {"name": "\u667a\u9e70\u7f51\u5427", "biz": "080308 \u4f53\u80b2\u4f11\u95f2\u670d\u52a1;\u5a31\u4e50\u573a\u6240;\u7f51\u5427", "pty": "0803"}}, {"type": "Feature", "geometry": {"type": "Point", "coordinates": [121.46747691900484, 31.2619114198142]}, "properties": {"name": "\u7f51\u9c7c\u7f51\u5496(\u82b7\u6c5f\u4e2d\u8def\u5e97)", "biz": "080308 \u4f53\u80b2\u4f11\u95f2\u670d\u52a1;\u5a31\u4e50\u573a\u6240;\u7f51\u5427", "pty": "0803"}}, {"type": "Feature", "geometry": {"type": "Point", "coordinates": [121.42872410741889, 31.23672353292309]}, "properties": {"name": "\u653b\u7565\u7f51\u5496(\u5b89\u8fdc\u5e97)", "biz": "080308 \u4f53\u80b2\u4f11\u95f2\u670d\u52a1;\u5a31\u4e50\u573a\u6240;\u7f51\u5427", "pty": "0803"}}, {"type": "Feature", "geometry": {"type": "Point", "coordinates": [121.44729495689259, 31.317410257923683]}, "properties": {"name": "\u7f51\u9c7c\u7f51\u5496", "biz": "080308 \u4f53\u80b2\u4f11\u95f2\u670d\u52a1;\u5a31\u4e50\u573a\u6240;\u7f51\u5427", "pty": "0803"}}, {"type": "Feature", "geometry": {"type": "Point", "coordinates": [121.44653632779735, 31.279736605822425]}, "properties": {"name": "\u7f51\u789f\u7f51\u5496", "biz": "080308 \u4f53\u80b2\u4f11\u95f2\u670d\u52a1;\u5a31\u4e50\u573a\u6240;\u7f51\u5427", "pty": "0803"}}, {"type": "Feature", "geometry": {"type": "Point", "coordinates": [121.4617876723728, 31.255745247392902]}, "properties": {"name": "CYS\u667a\u6167\u578b\u7f51\u5427", "biz": "080308 \u4f53\u80b2\u4f11\u95f2\u670d\u52a1;\u5a31\u4e50\u573a\u6240;\u7f51\u5427", "pty": "0803"}}, {"type": "Feature", "geometry": {"type": "Point", "coordinates": [121.43340871582897, 31.31330424000641]}, "properties": {"name": "\u53f0\u7403\u7f51\u5427", "biz": "080308 \u4f53\u80b2\u4f11\u95f2\u670d\u52a1;\u5a31\u4e50\u573a\u6240;\u7f51\u5427", "pty": "0803"}}, {"type": "Feature", "geometry": {"type": "Point", "coordinates": [121.42872410741889, 31.23672353292309]}, "properties": {"name": "\u653b\u754b\u7f51\u5496", "biz": "080308 \u4f53\u80b2\u4f11\u95f2\u670d\u52a1;\u5a31\u4e50\u573a\u6240;\u7f51\u5427", "pty": "0803"}}, {"type": "Feature", "geometry": {"type": "Point", "coordinates": [121.46374351893652, 31.245936632549792]}, "properties": {"name": "\u661f\u5bab\u7f51\u5496", "biz": "080308 \u4f53\u80b2\u4f11\u95f2\u670d\u52a1;\u5a31\u4e50\u573a\u6240;\u7f51\u5427", "pty": "0803"}}, {"type": "Feature", "geometry": {"type": "Point", "coordinates": [121.46120529030482, 31.274539673892292]}, "properties": {"name": "\u91d1\u5178\u7f51\u5496", "biz": "080308 \u4f53\u80b2\u4f11\u95f2\u670d\u52a1;\u5a31\u4e50\u573a\u6240;\u7f51\u5427", "pty": "0803"}}, {"type": "Feature", "geometry": {"type": "Point", "coordinates": [121.45135355829696, 31.2586489859392]}, "properties": {"name": "\u7f51\u5427\u68cb\u724c", "biz": "080308 \u4f53\u80b2\u4f11\u95f2\u670d\u52a1;\u5a31\u4e50\u573a\u6240;\u7f51\u5427", "pty": "0803"}}, {"type": "Feature", "geometry": {"type": "Point", "coordinates": [121.44030872580768, 31.268347209512253]}, "properties": {"name": "\u571f\u661f\u7f51\u5496(\u6caa\u592a\u8def\u5e97)", "biz": "080308 \u4f53\u80b2\u4f11\u95f2\u670d\u52a1;\u5a31\u4e50\u573a\u6240;\u7f51\u5427", "pty": "0803"}}, {"type": "Feature", "geometry": {"type": "Point", "coordinates": [121.45324344408878, 31.31921766103185]}, "properties": {"name": "\u7535\u8111\u7f51\u7edc", "biz": "080308 \u4f53\u80b2\u4f11\u95f2\u670d\u52a1;\u5a31\u4e50\u573a\u6240;\u7f51\u5427", "pty": "0803"}}, {"type": "Feature", "geometry": {"type": "Point", "coordinates": [121.42344283759017, 31.285895508108215]}, "properties": {"name": "\u571f\u661f\u7f51\u5496(\u9633\u57ce\u8def\u5e97)", "biz": "080308 \u4f53\u80b2\u4f11\u95f2\u670d\u52a1;\u5a31\u4e50\u573a\u6240;\u7f51\u5427", "pty": "0803"}}, {"type": "Feature", "geometry": {"type": "Point", "coordinates": [121.45479137038662, 31.230782415162153]}, "properties": {"name": "SGSG\u7f51\u5427", "biz": "080308 \u4f53\u80b2\u4f11\u95f2\u670d\u52a1;\u5a31\u4e50\u573a\u6240;\u7f51\u5427", "pty": "0803"}}, {"type": "Feature", "geometry": {"type": "Point", "coordinates": [121.44797002368199, 31.313220267651904]}, "properties": {"name": "\u4e45\u5dde\u7f51\u7edc(\u4e2d\u6570\u5e97)", "biz": "080308 \u4f53\u80b2\u4f11\u95f2\u670d\u52a1;\u5a31\u4e50\u573a\u6240;\u7f51\u5427", "pty": "0803"}}, {"type": "Feature", "geometry": {"type": "Point", "coordinates": [121.45151599144515, 31.258664342785632]}, "properties": {"name": "SGSG\u7f51\u5427", "biz": "080308 \u4f53\u80b2\u4f11\u95f2\u670d\u52a1;\u5a31\u4e50\u573a\u6240;\u7f51\u5427", "pty": "0803"}}, {"type": "Feature", "geometry": {"type": "Point", "coordinates": [121.43756396223291, 31.290077242314506]}, "properties": {"name": "\u7f51\u5427\u68cb\u724c\u53f0\u7403", "biz": "080308 \u4f53\u80b2\u4f11\u95f2\u670d\u52a1;\u5a31\u4e50\u573a\u6240;\u7f51\u5427", "pty": "0803"}}, {"type": "Feature", "geometry": {"type": "Point", "coordinates": [121.46173647598036, 31.256219908468463]}, "properties": {"name": "\u62d3\u53d6\u7f51\u7edc", "biz": "080308 \u4f53\u80b2\u4f11\u95f2\u670d\u52a1;\u5a31\u4e50\u573a\u6240;\u7f51\u5427", "pty": "0803"}}, {"type": "Feature", "geometry": {"type": "Point", "coordinates": [121.47040891582967, 31.25622485406816]}, "properties": {"name": "\u653b\u7565\u7f51\u5496(\u6c38\u5174\u5e97)", "biz": "080308 \u4f53\u80b2\u4f11\u95f2\u670d\u52a1;\u5a31\u4e50\u573a\u6240;\u7f51\u5427", "pty": "0803"}}, {"type": "Feature", "geometry": {"type": "Point", "coordinates": [121.42311415182964, 31.288599029218854]}, "properties": {"name": "\u7f51\u9c7c\u7f51\u5496", "biz": "080308 \u4f53\u80b2\u4f11\u95f2\u670d\u52a1;\u5a31\u4e50\u573a\u6240;\u7f51\u5427", "pty": "0803"}}, {"type": "Feature", "geometry": {"type": "Point", "coordinates": [121.41051545421814, 31.23958643001947]}, "properties": {"name": "\u661f\u950b\u7f51\u5427", "biz": "080308 \u4f53\u80b2\u4f11\u95f2\u670d\u52a1;\u5a31\u4e50\u573a\u6240;\u7f51\u5427", "pty": "0803"}}, {"type": "Feature", "geometry": {"type": "Point", "coordinates": [121.39006933836578, 31.262070063139046]}, "properties": {"name": "\u7f51\u98df\u7f51\u5496(\u771f\u5317\u652f\u8def)", "biz": "080308 \u4f53\u80b2\u4f11\u95f2\u670d\u52a1;\u5a31\u4e50\u573a\u6240;\u7f51\u5427", "pty": "0803"}}, {"type": "Feature", "geometry": {"type": "Point", "coordinates": [121.3799408510123, 31.248023701218948]}, "properties": {"name": "\u7f51\u9c7c\u7f51\u5496(\u767e\u8054\u4e2d\u73af\u8d2d\u7269\u5e7f\u573a)", "biz": "080308 \u4f53\u80b2\u4f11\u95f2\u670d\u52a1;\u5a31\u4e50\u573a\u6240;\u7f51\u5427", "pty": "0803"}}, {"type": "Feature", "geometry": {"type": "Point", "coordinates": [121.42244315638285, 31.232241805785936]}, "properties": {"name": "\u7f51\u9c7c\u7f51\u5496(\u82b3\u6c47\u5e7f\u573a)", "biz": "080308 \u4f53\u80b2\u4f11\u95f2\u670d\u52a1;\u5a31\u4e50\u573a\u6240;\u7f51\u5427", "pty": "0803"}}, {"type": "Feature", "geometry": {"type": "Point", "coordinates": [121.43204251239588, 31.24058856345166]}, "properties": {"name": "\u7f51\u9c7c\u7f51\u5496(\u957f\u5bff\u5e97)", "biz": "080308 \u4f53\u80b2\u4f11\u95f2\u670d\u52a1;\u5a31\u4e50\u573a\u6240;\u7f51\u5427", "pty": "0803"}}, {"type": "Feature", "geometry": {"type": "Point", "coordinates": [121.42714110843261, 31.25346187332636]}, "properties": {"name": "\u7f51\u9c7c\u7f51\u5496(\u4e0a\u6d77\u5149\u65b0\u8def\u5e97)", "biz": "080308 \u4f53\u80b2\u4f11\u95f2\u670d\u52a1;\u5a31\u4e50\u573a\u6240;\u7f51\u5427", "pty": "0803"}}, {"type": "Feature", "geometry": {"type": "Point", "coordinates": [121.36258304409925, 31.260793255812114]}, "properties": {"name": "\u4e1c\u65b9\u7f51\u70b9(\u94dc\u5ddd\u5e97)", "biz": "080308 \u4f53\u80b2\u4f11\u95f2\u670d\u52a1;\u5a31\u4e50\u573a\u6240;\u7f51\u5427", "pty": "0803"}}, {"type": "Feature", "geometry": {"type": "Point", "coordinates": [121.38612055691324, 31.26945751250806]}, "properties": {"name": "\u571f\u661f\u7f51\u5496(\u674e\u5b50\u56ed\u5e97)", "biz": "080308 \u4f53\u80b2\u4f11\u95f2\u670d\u52a1;\u5a31\u4e50\u573a\u6240;\u7f51\u5427", "pty": "0803"}}, {"type": "Feature", "geometry": {"type": "Point", "coordinates": [121.38672015044123, 31.270306861729708]}, "properties": {"name": "\u4e1c\u65b9\u7f51\u70b9(\u771f\u5357\u5e97)", "biz": "080308 \u4f53\u80b2\u4f11\u95f2\u670d\u52a1;\u5a31\u4e50\u573a\u6240;\u7f51\u5427", "pty": "0803"}}, {"type": "Feature", "geometry": {"type": "Point", "coordinates": [121.42627068686406, 31.26583835212197]}, "properties": {"name": "\u4e66\u8d4b\u82d1\u7f51\u5427", "biz": "080308 \u4f53\u80b2\u4f11\u95f2\u670d\u52a1;\u5a31\u4e50\u573a\u6240;\u7f51\u5427", "pty": "0803"}}, {"type": "Feature", "geometry": {"type": "Point", "coordinates": [121.34321599852238, 31.282900290361223]}, "properties": {"name": "\u4e2d\u6570\u7f51\u7edc\u5bb6\u56ed(\u65b0\u90bb\u5929\u5730)", "biz": "080308 \u4f53\u80b2\u4f11\u95f2\u670d\u52a1;\u5a31\u4e50\u573a\u6240;\u7f51\u5427", "pty": "0803"}}, {"type": "Feature", "geometry": {"type": "Point", "coordinates": [121.3750915785437, 31.236192090448682]}, "properties": {"name": "\u6500\u8d8a\u7f51\u5427(\u91d1\u6c99\u6c5f\u8def\u5e97)", "biz": "080308 \u4f53\u80b2\u4f11\u95f2\u670d\u52a1;\u5a31\u4e50\u573a\u6240;\u7f51\u5427", "pty": "0803"}}, {"type": "Feature", "geometry": {"type": "Point", "coordinates": [121.42004896566743, 31.24565117415171]}, "properties": {"name": "\u7f51\u6e38\u7f51\u5496", "biz": "080308 \u4f53\u80b2\u4f11\u95f2\u670d\u52a1;\u5a31\u4e50\u573a\u6240;\u7f51\u5427", "pty": "0803"}}, {"type": "Feature", "geometry": {"type": "Point", "coordinates": [121.41028547225491, 31.237563223174053]}, "properties": {"name": "\u6770\u76df\u58eb\u7f51\u5427", "biz": "080308 \u4f53\u80b2\u4f11\u95f2\u670d\u52a1;\u5a31\u4e50\u573a\u6240;\u7f51\u5427", "pty": "0803"}}, {"type": "Feature", "geometry": {"type": "Point", "coordinates": [121.39438780113986, 31.232180434679343]}, "properties": {"name": "\u91d1\u6012\u7f51\u5427", "biz": "080308 \u4f53\u80b2\u4f11\u95f2\u670d\u52a1;\u5a31\u4e50\u573a\u6240;\u7f51\u5427", "pty": "0803"}}, {"type": "Feature", "geometry": {"type": "Point", "coordinates": [121.42664559549377, 31.26199949000375]}, "properties": {"name": "\u6500\u8d8a\u7f51\u670d(\u5fd7\u4e39\u8def\u5e97)", "biz": "080308 \u4f53\u80b2\u4f11\u95f2\u670d\u52a1;\u5a31\u4e50\u573a\u6240;\u7f51\u5427", "pty": "0803"}}, {"type": "Feature", "geometry": {"type": "Point", "coordinates": [121.39127095719614, 31.238789062436226]}, "properties": {"name": "\u4e91\u6735\u7f51\u5427(\u5927\u6e21\u6cb3\u8def)", "biz": "080308 \u4f53\u80b2\u4f11\u95f2\u670d\u52a1;\u5a31\u4e50\u573a\u6240;\u7f51\u5427", "pty": "0803"}}, {"type": "Feature", "geometry": {"type": "Point", "coordinates": [121.38060106606962, 31.284983347875865]}, "properties": {"name": "\u798f\u56ed\u7f51\u5427(\u771f\u5357\u8def)", "biz": "080308 \u4f53\u80b2\u4f11\u95f2\u670d\u52a1;\u5a31\u4e50\u573a\u6240;\u7f51\u5427", "pty": "0803"}}, {"type": "Feature", "geometry": {"type": "Point", "coordinates": [121.38884387657308, 31.227215206990433]}, "properties": {"name": "\u5e03\u5e06\u7f51\u7edc", "biz": "080308 \u4f53\u80b2\u4f11\u95f2\u670d\u52a1;\u5a31\u4e50\u573a\u6240;\u7f51\u5427", "pty": "0803"}}, {"type": "Feature", "geometry": {"type": "Point", "coordinates": [121.36487950994628, 31.238247338861395]}, "properties": {"name": "\u4e2d\u6570\u7f51\u7edc(\u661f\u5a01\u5e97)", "biz": "080308 \u4f53\u80b2\u4f11\u95f2\u670d\u52a1;\u5a31\u4e50\u573a\u6240;\u7f51\u5427", "pty": "0803"}}, {"type": "Feature", "geometry": {"type": "Point", "coordinates": [121.40054283857745, 31.277836247045467]}, "properties": {"name": "\u4e2d\u9752\u7f51\u7edc\u5bb6\u56ed(\u666e\u9640\u5e97)(\u6682\u505c\u8425\u4e1a)", "biz": "080308 \u4f53\u80b2\u4f11\u95f2\u670d\u52a1;\u5a31\u4e50\u573a\u6240;\u7f51\u5427", "pty": "0803"}}, {"type": "Feature", "geometry": {"type": "Point", "coordinates": [121.38074291172994, 31.285408072662758]}, "properties": {"name": "\u99a8\u4e50\u7f51\u5427", "biz": "080308 \u4f53\u80b2\u4f11\u95f2\u670d\u52a1;\u5a31\u4e50\u573a\u6240;\u7f51\u5427", "pty": "0803"}}, {"type": "Feature", "geometry": {"type": "Point", "coordinates": [121.38561363681688, 31.237551878232015]}, "properties": {"name": "\u5c31\u7231\u7f51\u7edc", "biz": "080308 \u4f53\u80b2\u4f11\u95f2\u670d\u52a1;\u5a31\u4e50\u573a\u6240;\u7f51\u5427", "pty": "0803"}}, {"type": "Feature", "geometry": {"type": "Point", "coordinates": [121.38511056132835, 31.253364026665924]}, "properties": {"name": "\u4e2d\u6570\u7f51\u7edc\u5bb6\u56ed(\u94dc\u5ddd\u8def\u5e97)", "biz": "080308 \u4f53\u80b2\u4f11\u95f2\u670d\u52a1;\u5a31\u4e50\u573a\u6240;\u7f51\u5427", "pty": "0803"}}, {"type": "Feature", "geometry": {"type": "Point", "coordinates": [121.40461756281573, 31.247881096584823]}, "properties": {"name": "\u5317\u6d77\u7f51\u5427(\u88c5\u4fee\u4e2d)", "biz": "080308 \u4f53\u80b2\u4f11\u95f2\u670d\u52a1;\u5a31\u4e50\u573a\u6240;\u7f51\u5427", "pty": "0803"}}, {"type": "Feature", "geometry": {"type": "Point", "coordinates": [121.39641098200784, 31.23916702092988]}, "properties": {"name": "\u6500\u8d8a\u7f51\u670d(\u6768\u67f3\u9752\u8def\u5e97)", "biz": "080308 \u4f53\u80b2\u4f11\u95f2\u670d\u52a1;\u5a31\u4e50\u573a\u6240;\u7f51\u5427", "pty": "0803"}}, {"type": "Feature", "geometry": {"type": "Point", "coordinates": [121.41408093593685, 31.254889894251836]}, "properties": {"name": "\u4f17\u610f\u7f51\u7edc(\u91d1\u76db\u56fd\u9645\u5bb6\u5c45)", "biz": "080308|071200 \u4f53\u80b2\u4f11\u95f2\u670d\u52a1;\u5a31\u4e50\u573a\u6240;\u7f51\u5427|\u751f\u6d3b\u670d\u52a1;\u7ef4\u4fee\u7ad9\u70b9;\u7ef4\u4fee\u7ad9\u70b9", "pty": "0803"}}, {"type": "Feature", "geometry": {"type": "Point", "coordinates": [121.39200582962742, 31.249220160344695]}, "properties": {"name": "\u4e1c\u65b9\u7f51\u70b9(\u6606\u4ed1\u5e97)", "biz": "080308 \u4f53\u80b2\u4f11\u95f2\u670d\u52a1;\u5a31\u4e50\u573a\u6240;\u7f51\u5427", "pty": "0803"}}, {"type": "Feature", "geometry": {"type": "Point", "coordinates": [121.37473001121946, 31.235718642757508]}, "properties": {"name": "\u53f0\u97f5\u6e38\u827a\u7f51\u5427", "biz": "080308 \u4f53\u80b2\u4f11\u95f2\u670d\u52a1;\u5a31\u4e50\u573a\u6240;\u7f51\u5427", "pty": "0803"}}, {"type": "Feature", "geometry": {"type": "Point", "coordinates": [121.43569071165324, 31.260593456887833]}, "properties": {"name": "\u4e1c\u65b9\u7f51\u70b9(\u7518\u6cc9\u5e97)", "biz": "080308 \u4f53\u80b2\u4f11\u95f2\u670d\u52a1;\u5a31\u4e50\u573a\u6240;\u7f51\u5427", "pty": "0803"}}, {"type": "Feature", "geometry": {"type": "Point", "coordinates": [121.43840773929651, 31.243880531626168]}, "properties": {"name": "\u4e8c\u697c\u68cb\u724c\u5ba4", "biz": "080308 \u4f53\u80b2\u4f11\u95f2\u670d\u52a1;\u5a31\u4e50\u573a\u6240;\u7f51\u5427", "pty": "0803"}}, {"type": "Feature", "geometry": {"type": "Point", "coordinates": [121.4371327089384, 31.24814439056698]}, "properties": {"name": "\u4e2d\u6570\u7f51\u6e38\u7f51\u5496(\u88c5\u4fee\u4e2d)", "biz": "080308 \u4f53\u80b2\u4f11\u95f2\u670d\u52a1;\u5a31\u4e50\u573a\u6240;\u7f51\u5427", "pty": "0803"}}, {"type": "Feature", "geometry": {"type": "Point", "coordinates": [121.43880291784356, 31.263047757651307]}, "properties": {"name": "\u653b\u7565\u7f51\u5496(\u5b9c\u5ddd\u5e97)", "biz": "080308 \u4f53\u80b2\u4f11\u95f2\u670d\u52a1;\u5a31\u4e50\u573a\u6240;\u7f51\u5427", "pty": "0803"}}, {"type": "Feature", "geometry": {"type": "Point", "coordinates": [121.43289699854938, 31.24151245263178]}, "properties": {"name": "\u6500\u8d8a\u7f51\u670d(\u957f\u5bff\u8def\u5e97)", "biz": "080308 \u4f53\u80b2\u4f11\u95f2\u670d\u52a1;\u5a31\u4e50\u573a\u6240;\u7f51\u5427", "pty": "0803"}}, {"type": "Feature", "geometry": {"type": "Point", "coordinates": [121.39234664216647, 31.26177255039707]}, "properties": {"name": "\u4e0a\u6d77\u7c73\u800c\u601d\u7f51\u7edc\u79d1\u6280", "biz": "080308 \u4f53\u80b2\u4f11\u95f2\u670d\u52a1;\u5a31\u4e50\u573a\u6240;\u7f51\u5427", "pty": "0803"}}, {"type": "Feature", "geometry": {"type": "Point", "coordinates": [121.37859791222301, 31.24956304028797]}, "properties": {"name": "\u9686\u4f73\u7f51\u5427(\u88c5\u4fee\u4e2d)", "biz": "080308 \u4f53\u80b2\u4f11\u95f2\u670d\u52a1;\u5a31\u4e50\u573a\u6240;\u7f51\u5427", "pty": "0803"}}, {"type": "Feature", "geometry": {"type": "Point", "coordinates": [121.43512149525228, 31.261652056753825]}, "properties": {"name": "\u5c1a\u7f51\u5802", "biz": "080308 \u4f53\u80b2\u4f11\u95f2\u670d\u52a1;\u5a31\u4e50\u573a\u6240;\u7f51\u5427", "pty": "0803"}}, {"type": "Feature", "geometry": {"type": "Point", "coordinates": [121.34940810134502, 31.286985999501848]}, "properties": {"name": "\u65f6\u6ce2\u79d1\u6280\u7f51\u5427", "biz": "080308 \u4f53\u80b2\u4f11\u95f2\u670d\u52a1;\u5a31\u4e50\u573a\u6240;\u7f51\u5427", "pty": "0803"}}, {"type": "Feature", "geometry": {"type": "Point", "coordinates": [121.37813179307658, 31.244440710580946]}, "properties": {"name": "\u7535\u73a9\u7f51\u5427", "biz": "080308 \u4f53\u80b2\u4f11\u95f2\u670d\u52a1;\u5a31\u4e50\u573a\u6240;\u7f51\u5427", "pty": "0803"}}, {"type": "Feature", "geometry": {"type": "Point", "coordinates": [121.43783645625959, 31.244821102692274]}, "properties": {"name": "\u5c1a\u54c1\u7f51\u5496", "biz": "080308 \u4f53\u80b2\u4f11\u95f2\u670d\u52a1;\u5a31\u4e50\u573a\u6240;\u7f51\u5427", "pty": "0803"}}, {"type": "Feature", "geometry": {"type": "Point", "coordinates": [121.37739046211888, 31.244912107268316]}, "properties": {"name": "\u65b0\u957f\u5f81\u52a8\u6f2b\u7f51\u5427\u53f0\u7403", "biz": "080308 \u4f53\u80b2\u4f11\u95f2\u670d\u52a1;\u5a31\u4e50\u573a\u6240;\u7f51\u5427", "pty": "0803"}}, {"type": "Feature", "geometry": {"type": "Point", "coordinates": [121.41535472693221, 31.23628623083136]}, "properties": {"name": "\u9526\u5f3a\u7f51\u5427", "biz": "080308 \u4f53\u80b2\u4f11\u95f2\u670d\u52a1;\u5a31\u4e50\u573a\u6240;\u7f51\u5427", "pty": "0803"}}, {"type": "Feature", "geometry": {"type": "Point", "coordinates": [121.42416978925526, 31.25216775141086]}, "properties": {"name": "\u5b89\u60a6\u7f51\u6e38\u7f51\u5496(\u88c5\u4fee\u4e2d)", "biz": "080308 \u4f53\u80b2\u4f11\u95f2\u670d\u52a1;\u5a31\u4e50\u573a\u6240;\u7f51\u5427", "pty": "0803"}}, {"type": "Feature", "geometry": {"type": "Point", "coordinates": [121.4345331330238, 31.241096230844153]}, "properties": {"name": "\u805a\u9f99\u7f51\u5496", "biz": "080308 \u4f53\u80b2\u4f11\u95f2\u670d\u52a1;\u5a31\u4e50\u573a\u6240;\u7f51\u5427", "pty": "0803"}}, {"type": "Feature", "geometry": {"type": "Point", "coordinates": [121.40422741614464, 31.247908968064394]}, "properties": {"name": "\u7f51\u5427\u52a8\u6f2b(\u88c5\u4fee\u4e2d)", "biz": "080308 \u4f53\u80b2\u4f11\u95f2\u670d\u52a1;\u5a31\u4e50\u573a\u6240;\u7f51\u5427", "pty": "0803"}}, {"type": "Feature", "geometry": {"type": "Point", "coordinates": [121.41571405303561, 31.236510414505315]}, "properties": {"name": "\u666f\u5f3a\u7f51\u5427", "biz": "080308 \u4f53\u80b2\u4f11\u95f2\u670d\u52a1;\u5a31\u4e50\u573a\u6240;\u7f51\u5427", "pty": "0803"}}, {"type": "Feature", "geometry": {"type": "Point", "coordinates": [121.37652923454633, 31.24586541158374]}, "properties": {"name": "\u4e1c\u65b9\u7f51\u70b9(\u6885\u5ddd\u5e97)", "biz": "080308 \u4f53\u80b2\u4f11\u95f2\u670d\u52a1;\u5a31\u4e50\u573a\u6240;\u7f51\u5427", "pty": "0803"}}, {"type": "Feature", "geometry": {"type": "Point", "coordinates": [121.43526500578885, 31.247494538564286]}, "properties": {"name": "\u4e2d\u5f55\u65f6\u7a7a\u7f51\u6e38\u7f51\u5496", "biz": "080308 \u4f53\u80b2\u4f11\u95f2\u670d\u52a1;\u5a31\u4e50\u573a\u6240;\u7f51\u5427", "pty": "0803"}}, {"type": "Feature", "geometry": {"type": "Point", "coordinates": [121.39608002610608, 31.25034700420364]}, "properties": {"name": "\u571f\u661f\u7f51\u7edc\u751f\u6d3b\u9986(\u946b\u4e50\u5e97)", "biz": "080308 \u4f53\u80b2\u4f11\u95f2\u670d\u52a1;\u5a31\u4e50\u573a\u6240;\u7f51\u5427", "pty": "0803"}}, {"type": "Feature", "geometry": {"type": "Point", "coordinates": [121.37866385075176, 31.249572983825622]}, "properties": {"name": "\u7f51\u5496\u6e38\u827a", "biz": "080308 \u4f53\u80b2\u4f11\u95f2\u670d\u52a1;\u5a31\u4e50\u573a\u6240;\u7f51\u5427", "pty": "0803"}}, {"type": "Feature", "geometry": {"type": "Point", "coordinates": [121.42723624682107, 31.25358794216608]}, "properties": {"name": "W.Y.W.K", "biz": "080308 \u4f53\u80b2\u4f11\u95f2\u670d\u52a1;\u5a31\u4e50\u573a\u6240;\u7f51\u5427", "pty": "0803"}}, {"type": "Feature", "geometry": {"type": "Point", "coordinates": [121.38437099219742, 31.25380923645727]}, "properties": {"name": "\u4e1c\u65b9\u7f51\u70b9(\u94dc\u5ddd\u5e97)", "biz": "080308 \u4f53\u80b2\u4f11\u95f2\u670d\u52a1;\u5a31\u4e50\u573a\u6240;\u7f51\u5427", "pty": "0803"}}, {"type": "Feature", "geometry": {"type": "Point", "coordinates": [121.39439680104934, 31.23216544030163]}, "properties": {"name": "\u91d1\u6c99\u7f51\u5427", "biz": "080308 \u4f53\u80b2\u4f11\u95f2\u670d\u52a1;\u5a31\u4e50\u573a\u6240;\u7f51\u5427", "pty": "0803"}}, {"type": "Feature", "geometry": {"type": "Point", "coordinates": [121.40804281172645, 31.240601692646486]}, "properties": {"name": "\u53f0\u7403\u68cb\u724c", "biz": "080308 \u4f53\u80b2\u4f11\u95f2\u670d\u52a1;\u5a31\u4e50\u573a\u6240;\u7f51\u5427", "pty": "0803"}}, {"type": "Feature", "geometry": {"type": "Point", "coordinates": [121.39616401809647, 31.25037498583136]}, "properties": {"name": "\u571f\u661f\u7f51\u5496(\u946b\u4e50\u5e97)", "biz": "080308 \u4f53\u80b2\u4f11\u95f2\u670d\u52a1;\u5a31\u4e50\u573a\u6240;\u7f51\u5427", "pty": "0803"}}, {"type": "Feature", "geometry": {"type": "Point", "coordinates": [121.42418195382844, 31.273454545952365]}, "properties": {"name": "\u793e\u533a\u7f51\u7edc\u9752\u5e74\u5bab", "biz": "080308 \u4f53\u80b2\u4f11\u95f2\u670d\u52a1;\u5a31\u4e50\u573a\u6240;\u7f51\u5427", "pty": "0803"}}, {"type": "Feature", "geometry": {"type": "Point", "coordinates": [121.40428444221533, 31.247846012784223]}, "properties": {"name": "\u6469\u5154\u7f51\u5496(\u66f9\u6768\u8def\u5e97)", "biz": "080308 \u4f53\u80b2\u4f11\u95f2\u670d\u52a1;\u5a31\u4e50\u573a\u6240;\u7f51\u5427", "pty": "0803"}}, {"type": "Feature", "geometry": {"type": "Point", "coordinates": [121.3838200249274, 31.234720165312655]}, "properties": {"name": "\u4e0a\u6d77\u542f\u8428\u7f51\u7edc", "biz": "080308 \u4f53\u80b2\u4f11\u95f2\u670d\u52a1;\u5a31\u4e50\u573a\u6240;\u7f51\u5427", "pty": "0803"}}, {"type": "Feature", "geometry": {"type": "Point", "coordinates": [121.41950037877588, 31.233429199906755]}, "properties": {"name": "\u661f\u7f57\u5929\u4e0b", "biz": "080308 \u4f53\u80b2\u4f11\u95f2\u670d\u52a1;\u5a31\u4e50\u573a\u6240;\u7f51\u5427", "pty": "0803"}}, {"type": "Feature", "geometry": {"type": "Point", "coordinates": [121.42825893174513, 31.25300656307793]}, "properties": {"name": "\u4e07\u6e38\u7f51", "biz": "080308 \u4f53\u80b2\u4f11\u95f2\u670d\u52a1;\u5a31\u4e50\u573a\u6240;\u7f51\u5427", "pty": "0803"}}, {"type": "Feature", "geometry": {"type": "Point", "coordinates": [121.46497864837451, 31.28923631007907]}, "properties": {"name": "\u7f51\u9c7c\u7f51\u5496(\u5e7f\u7075\u56db\u8def\u5e97)", "biz": "080308 \u4f53\u80b2\u4f11\u95f2\u670d\u52a1;\u5a31\u4e50\u573a\u6240;\u7f51\u5427", "pty": "0803"}}, {"type": "Feature", "geometry": {"type": "Point", "coordinates": [121.48519581840615, 31.25360233104706]}, "properties": {"name": "\u7f51\u9c7c\u7f51\u5496(\u5ce8\u7709\u8def\u5e97)", "biz": "080308 \u4f53\u80b2\u4f11\u95f2\u670d\u52a1;\u5a31\u4e50\u573a\u6240;\u7f51\u5427", "pty": "0803"}}, {"type": "Feature", "geometry": {"type": "Point", "coordinates": [121.47299139264145, 31.28041765308391]}, "properties": {"name": "\u65b0\u6d8c\u6cc9\u7f51\u5427", "biz": "080308 \u4f53\u80b2\u4f11\u95f2\u670d\u52a1;\u5a31\u4e50\u573a\u6240;\u7f51\u5427", "pty": "0803"}}, {"type": "Feature", "geometry": {"type": "Point", "coordinates": [121.48651308216415, 31.293645319756095]}, "properties": {"name": "\u8c46\u8c46\u7f51\u5496(\u66f2\u9633\u8def\u5e97)", "biz": "080308 \u4f53\u80b2\u4f11\u95f2\u670d\u52a1;\u5a31\u4e50\u573a\u6240;\u7f51\u5427", "pty": "0803"}}, {"type": "Feature", "geometry": {"type": "Point", "coordinates": [121.48670078621743, 31.281482839744662]}, "properties": {"name": "\u7f51\u9c7c\u7f51\u5496(\u66f2\u9633\u5e97)", "biz": "080308 \u4f53\u80b2\u4f11\u95f2\u670d\u52a1;\u5a31\u4e50\u573a\u6240;\u7f51\u5427", "pty": "0803"}}, {"type": "Feature", "geometry": {"type": "Point", "coordinates": [121.47425338701872, 31.271527923080846]}, "properties": {"name": "\u7f51\u9c7c\u7f51\u5496(\u8679\u53e3\u9f99\u4e4b\u68a6\u5e97)", "biz": "080308 \u4f53\u80b2\u4f11\u95f2\u670d\u52a1;\u5a31\u4e50\u573a\u6240;\u7f51\u5427", "pty": "0803"}}, {"type": "Feature", "geometry": {"type": "Point", "coordinates": [121.47404789406947, 31.269208332730443]}, "properties": {"name": "\u7f51\u9c7c\u7f51\u5496(\u8679\u53e3\u897f\u6c5f\u6e7e\u5e97)", "biz": "080308 \u4f53\u80b2\u4f11\u95f2\u670d\u52a1;\u5a31\u4e50\u573a\u6240;\u7f51\u5427", "pty": "0803"}}, {"type": "Feature", "geometry": {"type": "Point", "coordinates": [121.46537827881907, 31.284879140216994]}, "properties": {"name": "\u7533\u601d\u7f51\u7edc", "biz": "080308 \u4f53\u80b2\u4f11\u95f2\u670d\u52a1;\u5a31\u4e50\u573a\u6240;\u7f51\u5427", "pty": "0803"}}, {"type": "Feature", "geometry": {"type": "Point", "coordinates": [121.50766596913898, 31.258096321759254]}, "properties": {"name": "\u53e4\u6797\u7f51\u5427", "biz": "080308 \u4f53\u80b2\u4f11\u95f2\u670d\u52a1;\u5a31\u4e50\u573a\u6240;\u7f51\u5427", "pty": "0803"}}, {"type": "Feature", "geometry": {"type": "Point", "coordinates": [121.4772455413708, 31.25996338983017]}, "properties": {"name": "\u7f51\u9c7c\u7f51\u5496(\u5b9d\u5174\u5e97)", "biz": "080308 \u4f53\u80b2\u4f11\u95f2\u670d\u52a1;\u5a31\u4e50\u573a\u6240;\u7f51\u5427", "pty": "0803"}}, {"type": "Feature", "geometry": {"type": "Point", "coordinates": [121.49236284484834, 31.27217862291344]}, "properties": {"name": "\u6676\u8302\u7f51\u5427", "biz": "080308 \u4f53\u80b2\u4f11\u95f2\u670d\u52a1;\u5a31\u4e50\u573a\u6240;\u7f51\u5427", "pty": "0803"}}, {"type": "Feature", "geometry": {"type": "Point", "coordinates": [121.46562776652019, 31.288352376927833]}, "properties": {"name": "\u59da\u6c5f\u7f18\u7f51\u5496", "biz": "080308 \u4f53\u80b2\u4f11\u95f2\u670d\u52a1;\u5a31\u4e50\u573a\u6240;\u7f51\u5427", "pty": "0803"}}, {"type": "Feature", "geometry": {"type": "Point", "coordinates": [121.4936549202664, 31.290710812224567]}, "properties": {"name": "\u7f51\u9c7c\u7f51\u5496(\u8f89\u6cb3\u8def\u5e97)", "biz": "080308 \u4f53\u80b2\u4f11\u95f2\u670d\u52a1;\u5a31\u4e50\u573a\u6240;\u7f51\u5427", "pty": "0803"}}, {"type": "Feature", "geometry": {"type": "Point", "coordinates": [121.45782860052677, 31.28234503659793]}, "properties": {"name": "\u7f51\u9c7c\u7f51\u5496(\u5e7f\u4e2d\u8def\u5e97)", "biz": "080308 \u4f53\u80b2\u4f11\u95f2\u670d\u52a1;\u5a31\u4e50\u573a\u6240;\u7f51\u5427", "pty": "0803"}}, {"type": "Feature", "geometry": {"type": "Point", "coordinates": [121.47503766009501, 31.264216265212735]}, "properties": {"name": "\u7f51\u9c7c\u7f51\u5496(\u4e1c\u5b9d\u5174\u8def\u5e97)", "biz": "080308 \u4f53\u80b2\u4f11\u95f2\u670d\u52a1;\u5a31\u4e50\u573a\u6240;\u7f51\u5427", "pty": "0803"}}, {"type": "Feature", "geometry": {"type": "Point", "coordinates": [121.46881484736943, 31.266384093501035]}, "properties": {"name": "\u65ed\u5f6c\u7f51\u5496", "biz": "080308 \u4f53\u80b2\u4f11\u95f2\u670d\u52a1;\u5a31\u4e50\u573a\u6240;\u7f51\u5427", "pty": "0803"}}, {"type": "Feature", "geometry": {"type": "Point", "coordinates": [121.47555034410125, 31.288207646935895]}, "properties": {"name": "\u6668\u6cdb\u7f51\u7edc", "biz": "080308 \u4f53\u80b2\u4f11\u95f2\u670d\u52a1;\u5a31\u4e50\u573a\u6240;\u7f51\u5427", "pty": "0803"}}, {"type": "Feature", "geometry": {"type": "Point", "coordinates": [121.4956505512281, 31.26194986309162]}, "properties": {"name": "\u7f51\u9c7c\u7f51\u5496(\u516c\u5e73\u5e97)", "biz": "080308 \u4f53\u80b2\u4f11\u95f2\u670d\u52a1;\u5a31\u4e50\u573a\u6240;\u7f51\u5427", "pty": "0803"}}, {"type": "Feature", "geometry": {"type": "Point", "coordinates": [121.5072869757386, 31.253932039825283]}, "properties": {"name": "\u65b0\u63d0\u84dd\u7f51\u5427", "biz": "080308 \u4f53\u80b2\u4f11\u95f2\u670d\u52a1;\u5a31\u4e50\u573a\u6240;\u7f51\u5427", "pty": "0803"}}, {"type": "Feature", "geometry": {"type": "Point", "coordinates": [121.48972649987476, 31.259028403014785]}, "properties": {"name": "\u5927\u672c\u8425\u7f51\u5496\u7535\u7ade(\u88c5\u4fee\u4e2d)", "biz": "080308 \u4f53\u80b2\u4f11\u95f2\u670d\u52a1;\u5a31\u4e50\u573a\u6240;\u7f51\u5427", "pty": "0803"}}, {"type": "Feature", "geometry": {"type": "Point", "coordinates": [121.48281584737488, 31.283796425515774]}, "properties": {"name": "\u571f\u661f\u7f51\u7edc\u751f\u6d3b\u9986", "biz": "080308 \u4f53\u80b2\u4f11\u95f2\u670d\u52a1;\u5a31\u4e50\u573a\u6240;\u7f51\u5427", "pty": "0803"}}, {"type": "Feature", "geometry": {"type": "Point", "coordinates": [121.48083668266501, 31.298272790755526]}, "properties": {"name": "\u57fa\u56e0\u7535\u7ade", "biz": "080308 \u4f53\u80b2\u4f11\u95f2\u670d\u52a1;\u5a31\u4e50\u573a\u6240;\u7f51\u5427", "pty": "0803"}}, {"type": "Feature", "geometry": {"type": "Point", "coordinates": [121.47575245683504, 31.306583912078374]}, "properties": {"name": "\u52a8\u6f2b\u7535\u73a9", "biz": "080308 \u4f53\u80b2\u4f11\u95f2\u670d\u52a1;\u5a31\u4e50\u573a\u6240;\u7f51\u5427", "pty": "0803"}}, {"type": "Feature", "geometry": {"type": "Point", "coordinates": [121.4940805492888, 31.266023396640485]}, "properties": {"name": "\u7ade\u754c\u7535\u5b50\u7ade\u6280\u4f53\u9a8c\u4e2d\u5fc3(\u745e\u8679\u5929\u5730\u6708\u4eae\u6e7e\u5e97)", "biz": "080308 \u4f53\u80b2\u4f11\u95f2\u670d\u52a1;\u5a31\u4e50\u573a\u6240;\u7f51\u5427", "pty": "0803"}}, {"type": "Feature", "geometry": {"type": "Point", "coordinates": [121.4781867195666, 31.260594813885717]}, "properties": {"name": "\u6770\u62c9\u7f51\u5496(\u591a\u4f26\u8def\u5e97)", "biz": "080308 \u4f53\u80b2\u4f11\u95f2\u670d\u52a1;\u5a31\u4e50\u573a\u6240;\u7f51\u5427", "pty": "0803"}}, {"type": "Feature", "geometry": {"type": "Point", "coordinates": [121.47805794155707, 31.287907926029785]}, "properties": {"name": "\u571f\u661f\u7f51\u7edc\u751f\u6d3b\u9986(\u5e7f\u7075\u5e97)", "biz": "080308 \u4f53\u80b2\u4f11\u95f2\u670d\u52a1;\u5a31\u4e50\u573a\u6240;\u7f51\u5427", "pty": "0803"}}, {"type": "Feature", "geometry": {"type": "Point", "coordinates": [121.47199174962473, 31.27242222665588]}, "properties": {"name": "\u98ce\u8776\u7f51\u5496", "biz": "080308 \u4f53\u80b2\u4f11\u95f2\u670d\u52a1;\u5a31\u4e50\u573a\u6240;\u7f51\u5427", "pty": "0803"}}, {"type": "Feature", "geometry": {"type": "Point", "coordinates": [121.47240666242023, 31.266187039368113]}, "properties": {"name": "Network club", "biz": "080308 \u4f53\u80b2\u4f11\u95f2\u670d\u52a1;\u5a31\u4e50\u573a\u6240;\u7f51\u5427", "pty": "0803"}}, {"type": "Feature", "geometry": {"type": "Point", "coordinates": [121.49225647368581, 31.272045360991335]}, "properties": {"name": "\u52a8\u6f2b\u7f51\u5496(\u4e1c\u6c99\u8679\u6e2f\u8def)", "biz": "080308 \u4f53\u80b2\u4f11\u95f2\u670d\u52a1;\u5a31\u4e50\u573a\u6240;\u7f51\u5427", "pty": "0803"}}, {"type": "Feature", "geometry": {"type": "Point", "coordinates": [121.4842175555568, 31.26303431794969]}, "properties": {"name": "\u7f51\u5496(\u6ea7\u9633\u8def)", "biz": "080308 \u4f53\u80b2\u4f11\u95f2\u670d\u52a1;\u5a31\u4e50\u573a\u6240;\u7f51\u5427", "pty": "0803"}}, {"type": "Feature", "geometry": {"type": "Point", "coordinates": [121.4829262081137, 31.28411461802365]}, "properties": {"name": "\u52a8\u6f2b\u7f51\u5427", "biz": "080308 \u4f53\u80b2\u4f11\u95f2\u670d\u52a1;\u5a31\u4e50\u573a\u6240;\u7f51\u5427", "pty": "0803"}}, {"type": "Feature", "geometry": {"type": "Point", "coordinates": [121.48517673841332, 31.25374821019035]}, "properties": {"name": "\u864e\u732b\u7535\u7ade(\u5ce8\u5d4b\u8def\u5e97)", "biz": "080308 \u4f53\u80b2\u4f11\u95f2\u670d\u52a1;\u5a31\u4e50\u573a\u6240;\u7f51\u5427", "pty": "0803"}}, {"type": "Feature", "geometry": {"type": "Point", "coordinates": [121.46844840913603, 31.269326842238883]}, "properties": {"name": "\u9c7c\u667a\u7f51\u7edc", "biz": "080308 \u4f53\u80b2\u4f11\u95f2\u670d\u52a1;\u5a31\u4e50\u573a\u6240;\u7f51\u5427", "pty": "0803"}}, {"type": "Feature", "geometry": {"type": "Point", "coordinates": [121.49566661530378, 31.26187694290893]}, "properties": {"name": "\u864e\u732b\u7f51\u5496", "biz": "080308 \u4f53\u80b2\u4f11\u95f2\u670d\u52a1;\u5a31\u4e50\u573a\u6240;\u7f51\u5427", "pty": "0803"}}, {"type": "Feature", "geometry": {"type": "Point", "coordinates": [121.46151317631386, 31.275072228999232]}, "properties": {"name": "\u4f73\u62c9\u7f51\u5496", "biz": "080308 \u4f53\u80b2\u4f11\u95f2\u670d\u52a1;\u5a31\u4e50\u573a\u6240;\u7f51\u5427", "pty": "0803"}}, {"type": "Feature", "geometry": {"type": "Point", "coordinates": [121.50027543356322, 31.259340849706565]}, "properties": {"name": "\u6c38\u70e8\u7f51\u5427", "biz": "080308 \u4f53\u80b2\u4f11\u95f2\u670d\u52a1;\u5a31\u4e50\u573a\u6240;\u7f51\u5427", "pty": "0803"}}, {"type": "Feature", "geometry": {"type": "Point", "coordinates": [121.47275524842459, 31.272901146170845]}, "properties": {"name": "\u52c7\u6562\u8005\u6e38\u620f\u51b3\u6218\u4e1b\u6797", "biz": "080308 \u4f53\u80b2\u4f11\u95f2\u670d\u52a1;\u5a31\u4e50\u573a\u6240;\u7f51\u5427", "pty": "0803"}}, {"type": "Feature", "geometry": {"type": "Point", "coordinates": [121.47609685915448, 31.268843280691364]}, "properties": {"name": "\u55e3\u5cf0\u7f51\u7edc", "biz": "080308 \u4f53\u80b2\u4f11\u95f2\u670d\u52a1;\u5a31\u4e50\u573a\u6240;\u7f51\u5427", "pty": "0803"}}, {"type": "Feature", "geometry": {"type": "Point", "coordinates": [121.48956463120815, 31.274187409874646]}, "properties": {"name": "\u4e1c\u65b9\u6709\u7ebf\u7f51\u7edc", "biz": "080308 \u4f53\u80b2\u4f11\u95f2\u670d\u52a1;\u5a31\u4e50\u573a\u6240;\u7f51\u5427", "pty": "0803"}}, {"type": "Feature", "geometry": {"type": "Point", "coordinates": [121.5002212387571, 31.259338688668585]}, "properties": {"name": "\u963f\u6839\u7f51\u5427", "biz": "080308 \u4f53\u80b2\u4f11\u95f2\u670d\u52a1;\u5a31\u4e50\u573a\u6240;\u7f51\u5427", "pty": "0803"}}, {"type": "Feature", "geometry": {"type": "Point", "coordinates": [121.5279575442991, 31.31724368437919]}, "properties": {"name": "\u9e25\u514b\u62c9\u7f51\u5496\u52a8\u6f2b\u57ce", "biz": "080308|080305 \u4f53\u80b2\u4f11\u95f2\u670d\u52a1;\u5a31\u4e50\u573a\u6240;\u7f51\u5427|\u4f53\u80b2\u4f11\u95f2\u670d\u52a1;\u5a31\u4e50\u573a\u6240;\u6e38\u620f\u5385", "pty": "0803"}}, {"type": "Feature", "geometry": {"type": "Point", "coordinates": [121.5279575442991, 31.31724368437919]}, "properties": {"name": "\u9e25\u514b\u62c9\u7f51\u5496\u52a8\u6f2b\u57ce", "biz": "080308|080305 \u4f53\u80b2\u4f11\u95f2\u670d\u52a1;\u5a31\u4e50\u573a\u6240;\u7f51\u5427|\u4f53\u80b2\u4f11\u95f2\u670d\u52a1;\u5a31\u4e50\u573a\u6240;\u6e38\u620f\u5385", "pty": "0803"}}, {"type": "Feature", "geometry": {"type": "Point", "coordinates": [121.52743055423679, 31.3211318668952]}, "properties": {"name": "\u7f51\u9c7c\u7f51\u5496(\u4e2d\u539f\u5e97)", "biz": "080308 \u4f53\u80b2\u4f11\u95f2\u670d\u52a1;\u5a31\u4e50\u573a\u6240;\u7f51\u5427", "pty": "0803"}}, {"type": "Feature", "geometry": {"type": "Point", "coordinates": [121.53498307174809, 31.26771409611413]}, "properties": {"name": "\u7f51\u9c7c\u7f51\u5496(\u5b81\u56fd\u8def\u5e97)", "biz": "080308 \u4f53\u80b2\u4f11\u95f2\u670d\u52a1;\u5a31\u4e50\u573a\u6240;\u7f51\u5427", "pty": "0803"}}, {"type": "Feature", "geometry": {"type": "Point", "coordinates": [121.5348719206775, 31.313478295546172]}, "properties": {"name": "\u5c0f\u5c9b\u7f51\u5496", "biz": "080308 \u4f53\u80b2\u4f11\u95f2\u670d\u52a1;\u5a31\u4e50\u573a\u6240;\u7f51\u5427", "pty": "0803"}}, {"type": "Feature", "geometry": {"type": "Point", "coordinates": [121.51697137627963, 31.317681837172884]}, "properties": {"name": "\u4e50\u7a7a\u95f4\u7f51\u5496(\u4e2d\u539f\u57ce\u5e02\u5e7f\u573a\u5e97)", "biz": "080308 \u4f53\u80b2\u4f11\u95f2\u670d\u52a1;\u5a31\u4e50\u573a\u6240;\u7f51\u5427", "pty": "0803"}}, {"type": "Feature", "geometry": {"type": "Point", "coordinates": [121.50199379174268, 31.30446130542857]}, "properties": {"name": "\u7f51\u9c7c\u7f51\u5496(\u5927\u5b66\u8def\u5e97)", "biz": "080308 \u4f53\u80b2\u4f11\u95f2\u670d\u52a1;\u5a31\u4e50\u573a\u6240;\u7f51\u5427", "pty": "0803"}}, {"type": "Feature", "geometry": {"type": "Point", "coordinates": [121.50337651452723, 31.28364477599934]}, "properties": {"name": "\u7f51\u9c7c\u7f51\u5496(\u540c\u6d4e\u5e7f\u573a\u5e97)", "biz": "080308 \u4f53\u80b2\u4f11\u95f2\u670d\u52a1;\u5a31\u4e50\u573a\u6240;\u7f51\u5427", "pty": "0803"}}, {"type": "Feature", "geometry": {"type": "Point", "coordinates": [121.5277075268978, 31.2841830765519]}, "properties": {"name": "\u571f\u661f\u7f51\u5496", "biz": "080308|050400 \u4f53\u80b2\u4f11\u95f2\u670d\u52a1;\u5a31\u4e50\u573a\u6240;\u7f51\u5427|\u9910\u996e\u670d\u52a1;\u4f11\u95f2\u9910\u996e\u573a\u6240;\u4f11\u95f2\u9910\u996e\u573a\u6240", "pty": "0803"}}, {"type": "Feature", "geometry": {"type": "Point", "coordinates": [121.4918435800797, 31.312142956007545]}, "properties": {"name": "\u65b0\u6c5f\u6e7e\u52a8\u6f2b\u7f51\u5496", "biz": "080308 \u4f53\u80b2\u4f11\u95f2\u670d\u52a1;\u5a31\u4e50\u573a\u6240;\u7f51\u5427", "pty": "0803"}}, {"type": "Feature", "geometry": {"type": "Point", "coordinates": [121.49647620285411, 31.277566680110613]}, "properties": {"name": "\u7f51\u9c7c\u7f51\u5496(\u56db\u5e73\u5e97)", "biz": "080308 \u4f53\u80b2\u4f11\u95f2\u670d\u52a1;\u5a31\u4e50\u573a\u6240;\u7f51\u5427", "pty": "0803"}}, {"type": "Feature", "geometry": {"type": "Point", "coordinates": [121.51031234747147, 31.30513157798982]}, "properties": {"name": "\u7ade\u7eaa\u7535\u7ade\u9986(\u5e73\u76db\u5927\u53a6\u5e97)", "biz": "080308 \u4f53\u80b2\u4f11\u95f2\u670d\u52a1;\u5a31\u4e50\u573a\u6240;\u7f51\u5427", "pty": "0803"}}, {"type": "Feature", "geometry": {"type": "Point", "coordinates": [121.53830173295405, 31.278215397682946]}, "properties": {"name": "\u5076\u9047\u7f51\u5496(\u9686\u660c\u8def)", "biz": "080308 \u4f53\u80b2\u4f11\u95f2\u670d\u52a1;\u5a31\u4e50\u573a\u6240;\u7f51\u5427", "pty": "0803"}}, {"type": "Feature", "geometry": {"type": "Point", "coordinates": [121.51073121344928, 31.312311026072486]}, "properties": {"name": "\u4e8c\u65fa\u7f51\u5427(\u653f\u6cbb\u8def)", "biz": "080308 \u4f53\u80b2\u4f11\u95f2\u670d\u52a1;\u5a31\u4e50\u573a\u6240;\u7f51\u5427", "pty": "0803"}}, {"type": "Feature", "geometry": {"type": "Point", "coordinates": [121.53706055300846, 31.29806244734456]}, "properties": {"name": "\u653b\u7565\u7f51\u5496(\u677e\u82b1\u6c5f\u5e97)", "biz": "080308 \u4f53\u80b2\u4f11\u95f2\u670d\u52a1;\u5a31\u4e50\u573a\u6240;\u7f51\u5427", "pty": "0803"}}, {"type": "Feature", "geometry": {"type": "Point", "coordinates": [121.51195757656133, 31.299658494901855]}, "properties": {"name": "\u7f51\u9c7c\u7f51\u5496(\u4e1c\u65b9\u5546\u53a6\u5e97)(\u88c5\u4fee\u4e2d)", "biz": "080308 \u4f53\u80b2\u4f11\u95f2\u670d\u52a1;\u5a31\u4e50\u573a\u6240;\u7f51\u5427", "pty": "0803"}}, {"type": "Feature", "geometry": {"type": "Point", "coordinates": [121.53223809498381, 31.265409429946736]}, "properties": {"name": "\u8c6a\u9633\u7f51\u5496", "biz": "080308 \u4f53\u80b2\u4f11\u95f2\u670d\u52a1;\u5a31\u4e50\u573a\u6240;\u7f51\u5427", "pty": "0803"}}, {"type": "Feature", "geometry": {"type": "Point", "coordinates": [121.51495352887133, 31.293083706677418]}, "properties": {"name": "\u6210\u4e1a\u7f51\u5427(\u4e5d\u9686\u574a)", "biz": "080308|071200 \u4f53\u80b2\u4f11\u95f2\u670d\u52a1;\u5a31\u4e50\u573a\u6240;\u7f51\u5427|\u751f\u6d3b\u670d\u52a1;\u7ef4\u4fee\u7ad9\u70b9;\u7ef4\u4fee\u7ad9\u70b9", "pty": "0803"}}, {"type": "Feature", "geometry": {"type": "Point", "coordinates": [121.51366513179187, 31.304274591768856]}, "properties": {"name": "\u7f51\u9c7c\u7f51\u5496(\u56fd\u5ea0\u8def\u5e97)", "biz": "080308 \u4f53\u80b2\u4f11\u95f2\u670d\u52a1;\u5a31\u4e50\u573a\u6240;\u7f51\u5427", "pty": "0803"}}, {"type": "Feature", "geometry": {"type": "Point", "coordinates": [121.50364615005498, 31.299372222808053]}, "properties": {"name": "KS\u7f51\u5496", "biz": "080308 \u4f53\u80b2\u4f11\u95f2\u670d\u52a1;\u5a31\u4e50\u573a\u6240;\u7f51\u5427", "pty": "0803"}}, {"type": "Feature", "geometry": {"type": "Point", "coordinates": [121.52100212341473, 31.268112971154967]}, "properties": {"name": "\u4ebf\u4e30\u946b\u667a\u7f51\u5427", "biz": "080308 \u4f53\u80b2\u4f11\u95f2\u670d\u52a1;\u5a31\u4e50\u573a\u6240;\u7f51\u5427", "pty": "0803"}}, {"type": "Feature", "geometry": {"type": "Point", "coordinates": [121.51718142062013, 31.290015243566597]}, "properties": {"name": "\u7f51\u9c7c\u7f51\u5496(\u9ec4\u5174\u8def\u5e97)", "biz": "080308 \u4f53\u80b2\u4f11\u95f2\u670d\u52a1;\u5a31\u4e50\u573a\u6240;\u7f51\u5427", "pty": "0803"}}, {"type": "Feature", "geometry": {"type": "Point", "coordinates": [121.54451206989822, 31.271382820463966]}, "properties": {"name": "\u8212\u60a6\u7f51\u5496(\u9686\u660c\u8def)", "biz": "080308 \u4f53\u80b2\u4f11\u95f2\u670d\u52a1;\u5a31\u4e50\u573a\u6240;\u7f51\u5427", "pty": "0803"}}, {"type": "Feature", "geometry": {"type": "Point", "coordinates": [121.5433078800477, 31.27203601913115]}, "properties": {"name": "\u7f51\u732b\u7f51\u5496(\u9686\u660c\u8def)", "biz": "080308 \u4f53\u80b2\u4f11\u95f2\u670d\u52a1;\u5a31\u4e50\u573a\u6240;\u7f51\u5427", "pty": "0803"}}, {"type": "Feature", "geometry": {"type": "Point", "coordinates": [121.51548862713338, 31.313785123656874]}, "properties": {"name": "\u5b87\u80dc\u7f51\u5496", "biz": "080308 \u4f53\u80b2\u4f11\u95f2\u670d\u52a1;\u5a31\u4e50\u573a\u6240;\u7f51\u5427", "pty": "0803"}}, {"type": "Feature", "geometry": {"type": "Point", "coordinates": [121.54385762938868, 31.29230678599053]}, "properties": {"name": "\u571f\u661f\u7f51\u5496(\u56fe\u95e8\u5e97)", "biz": "080308 \u4f53\u80b2\u4f11\u95f2\u670d\u52a1;\u5a31\u4e50\u573a\u6240;\u7f51\u5427", "pty": "0803"}}, {"type": "Feature", "geometry": {"type": "Point", "coordinates": [121.50180781195931, 31.296332958641386]}, "properties": {"name": "\u6676\u6676\u7f51\u5427(\u653f\u8083\u8def)", "biz": "080308 \u4f53\u80b2\u4f11\u95f2\u670d\u52a1;\u5a31\u4e50\u573a\u6240;\u7f51\u5427", "pty": "0803"}}, {"type": "Feature", "geometry": {"type": "Point", "coordinates": [121.5017670479715, 31.303624956222503]}, "properties": {"name": "\u91d1\u6d77\u5cb8\u7f51\u5496", "biz": "080308 \u4f53\u80b2\u4f11\u95f2\u670d\u52a1;\u5a31\u4e50\u573a\u6240;\u7f51\u5427", "pty": "0803"}}, {"type": "Feature", "geometry": {"type": "Point", "coordinates": [121.50320723756933, 31.267919881744483]}, "properties": {"name": "\u6d77\u4e0a\u6d77\u7f51\u5496\u52a8\u6f2b", "biz": "080308 \u4f53\u80b2\u4f11\u95f2\u670d\u52a1;\u5a31\u4e50\u573a\u6240;\u7f51\u5427", "pty": "0803"}}, {"type": "Feature", "geometry": {"type": "Point", "coordinates": [121.52443032837793, 31.26879193686048]}, "properties": {"name": "\u7f51\u9038\u7f51\u5496(\u957f\u9633\u8def)", "biz": "080308 \u4f53\u80b2\u4f11\u95f2\u670d\u52a1;\u5a31\u4e50\u573a\u6240;\u7f51\u5427", "pty": "0803"}}, {"type": "Feature", "geometry": {"type": "Point", "coordinates": [121.51368303058652, 31.306211888466382]}, "properties": {"name": "\u73af\u5c9b\u8fc5\u9a70\u7f51\u5427(\u653f\u901a\u8def\u5e97)", "biz": "080308 \u4f53\u80b2\u4f11\u95f2\u670d\u52a1;\u5a31\u4e50\u573a\u6240;\u7f51\u5427", "pty": "0803"}}, {"type": "Feature", "geometry": {"type": "Point", "coordinates": [121.51098973267835, 31.305059573497637]}, "properties": {"name": "\u56fd\u6d4e\u7f51\u5427\u53f0\u7403", "biz": "080308 \u4f53\u80b2\u4f11\u95f2\u670d\u52a1;\u5a31\u4e50\u573a\u6240;\u7f51\u5427", "pty": "0803"}}, {"type": "Feature", "geometry": {"type": "Point", "coordinates": [121.50823693418192, 31.270638582031722]}, "properties": {"name": "\u4e1c\u65b9\u7f51\u70b9(\u5929\u5c71\u5e97)", "biz": "080308 \u4f53\u80b2\u4f11\u95f2\u670d\u52a1;\u5a31\u4e50\u573a\u6240;\u7f51\u5427", "pty": "0803"}}, {"type": "Feature", "geometry": {"type": "Point", "coordinates": [121.53827449975121, 31.292069642901495]}, "properties": {"name": "\u571f\u661f\u7f51\u5496(\u5ef6\u5409\u5e97)", "biz": "080308 \u4f53\u80b2\u4f11\u95f2\u670d\u52a1;\u5a31\u4e50\u573a\u6240;\u7f51\u5427", "pty": "0803"}}, {"type": "Feature", "geometry": {"type": "Point", "coordinates": [121.52798693080766, 31.313738086726428]}, "properties": {"name": "\u4e2d\u539f\u8def50\u53f72\u697c\u6469\u57df\u7f51\u5496", "biz": "080308 \u4f53\u80b2\u4f11\u95f2\u670d\u52a1;\u5a31\u4e50\u573a\u6240;\u7f51\u5427", "pty": "0803"}}, {"type": "Feature", "geometry": {"type": "Point", "coordinates": [121.53031318417274, 31.301726659211138]}, "properties": {"name": "\u4e07\u5ba2\u7535\u7ade\u7f51\u5496", "biz": "080308 \u4f53\u80b2\u4f11\u95f2\u670d\u52a1;\u5a31\u4e50\u573a\u6240;\u7f51\u5427", "pty": "0803"}}, {"type": "Feature", "geometry": {"type": "Point", "coordinates": [121.50354678811705, 31.299442899619397]}, "properties": {"name": "\u67ef\u68ee\u7f51\u5496(\u4e94\u89d2\u573a\u5e97)", "biz": "080308 \u4f53\u80b2\u4f11\u95f2\u670d\u52a1;\u5a31\u4e50\u573a\u6240;\u7f51\u5427", "pty": "0803"}}, {"type": "Feature", "geometry": {"type": "Point", "coordinates": [121.51017931330021, 31.27628087156573]}, "properties": {"name": "MINI\u98ce\u8776\u7f51\u5496(\u63a7\u6c5f\u8def\u5e97)", "biz": "080308 \u4f53\u80b2\u4f11\u95f2\u670d\u52a1;\u5a31\u4e50\u573a\u6240;\u7f51\u5427", "pty": "0803"}}, {"type": "Feature", "geometry": {"type": "Point", "coordinates": [121.50353711634841, 31.283332382172343]}, "properties": {"name": "W.Y.W.K", "biz": "080308 \u4f53\u80b2\u4f11\u95f2\u670d\u52a1;\u5a31\u4e50\u573a\u6240;\u7f51\u5427", "pty": "0803"}}, {"type": "Feature", "geometry": {"type": "Point", "coordinates": [121.5416183848345, 31.27204339068292]}, "properties": {"name": "\u571f\u661f\u7f51\u5496(\u5e73\u51c9\u5e97)", "biz": "080308 \u4f53\u80b2\u4f11\u95f2\u670d\u52a1;\u5a31\u4e50\u573a\u6240;\u7f51\u5427", "pty": "0803"}}, {"type": "Feature", "geometry": {"type": "Point", "coordinates": [121.53047353098317, 31.279587030447466]}, "properties": {"name": "\u7f51\u5427\u52a8\u6f2b", "biz": "080308 \u4f53\u80b2\u4f11\u95f2\u670d\u52a1;\u5a31\u4e50\u573a\u6240;\u7f51\u5427", "pty": "0803"}}, {"type": "Feature", "geometry": {"type": "Point", "coordinates": [121.51766684560756, 31.292701518406645]}, "properties": {"name": "\u7f51\u9c7c\u7f51\u5496(\u5173\u5c71\u8def\u5e97)", "biz": "080308 \u4f53\u80b2\u4f11\u95f2\u670d\u52a1;\u5a31\u4e50\u573a\u6240;\u7f51\u5427", "pty": "0803"}}, {"type": "Feature", "geometry": {"type": "Point", "coordinates": [121.50955641423579, 31.296497779512194]}, "properties": {"name": "\u571f\u661f\u7f51\u5496(\u5f00\u5fc3\u5e97)", "biz": "080308 \u4f53\u80b2\u4f11\u95f2\u670d\u52a1;\u5a31\u4e50\u573a\u6240;\u7f51\u5427", "pty": "0803"}}, {"type": "Feature", "geometry": {"type": "Point", "coordinates": [121.53447487855563, 31.311969920522465]}, "properties": {"name": "\u4e50\u7a7a\u95f4\u7f51\u5496", "biz": "080308 \u4f53\u80b2\u4f11\u95f2\u670d\u52a1;\u5a31\u4e50\u573a\u6240;\u7f51\u5427", "pty": "0803"}}, {"type": "Feature", "geometry": {"type": "Point", "coordinates": [121.51016826990707, 31.27633481677768]}, "properties": {"name": "\u98ce\u8776\u7f51\u5496(\u63a7\u6c5f\u8def\u5e97)", "biz": "080308 \u4f53\u80b2\u4f11\u95f2\u670d\u52a1;\u5a31\u4e50\u573a\u6240;\u7f51\u5427", "pty": "0803"}}, {"type": "Feature", "geometry": {"type": "Point", "coordinates": [121.50819366525047, 31.295705109898268]}, "properties": {"name": "\u4e1c\u65b9\u7f51\u70b9(\u56db\u5e73\u5e97)", "biz": "080308 \u4f53\u80b2\u4f11\u95f2\u670d\u52a1;\u5a31\u4e50\u573a\u6240;\u7f51\u5427", "pty": "0803"}}, {"type": "Feature", "geometry": {"type": "Point", "coordinates": [121.51554784108711, 31.31366133862608]}, "properties": {"name": "\u5b87\u987a\u7f51\u5427", "biz": "080308 \u4f53\u80b2\u4f11\u95f2\u670d\u52a1;\u5a31\u4e50\u573a\u6240;\u7f51\u5427", "pty": "0803"}}, {"type": "Feature", "geometry": {"type": "Point", "coordinates": [121.53044645146471, 31.279541981166034]}, "properties": {"name": "\u8d35\u4e30\u7f51\u5427", "biz": "080308 \u4f53\u80b2\u4f11\u95f2\u670d\u52a1;\u5a31\u4e50\u573a\u6240;\u7f51\u5427", "pty": "0803"}}, {"type": "Feature", "geometry": {"type": "Point", "coordinates": [121.5103143677363, 31.30497564462964]}, "properties": {"name": "\u541b\u6021\u7f51\u5427", "biz": "080308 \u4f53\u80b2\u4f11\u95f2\u670d\u52a1;\u5a31\u4e50\u573a\u6240;\u7f51\u5427", "pty": "0803"}}, {"type": "Feature", "geometry": {"type": "Point", "coordinates": [121.52073945529908, 31.2656573061513]}, "properties": {"name": "\u9646\u5b9d\u7f51\u7edc", "biz": "080308 \u4f53\u80b2\u4f11\u95f2\u670d\u52a1;\u5a31\u4e50\u573a\u6240;\u7f51\u5427", "pty": "0803"}}, {"type": "Feature", "geometry": {"type": "Point", "coordinates": [121.50896730933162, 31.29680193758938]}, "properties": {"name": "\u571f\u661f\u7f51\u7edc\u751f\u6d3b\u9986(\u56db\u5e73\u8def)", "biz": "080308 \u4f53\u80b2\u4f11\u95f2\u670d\u52a1;\u5a31\u4e50\u573a\u6240;\u7f51\u5427", "pty": "0803"}}, {"type": "Feature", "geometry": {"type": "Point", "coordinates": [121.54019559251405, 31.271116656763407]}, "properties": {"name": "\u5174\u7f18\u7f51\u5496(\u5e73\u51c9\u8def\u5e97)", "biz": "080308 \u4f53\u80b2\u4f11\u95f2\u670d\u52a1;\u5a31\u4e50\u573a\u6240;\u7f51\u5427", "pty": "0803"}}, {"type": "Feature", "geometry": {"type": "Point", "coordinates": [121.53067514197006, 31.27968749461843]}, "properties": {"name": "\u65b0\u4e16\u7eaa\u6218\u795e\u7f51\u5427", "biz": "080308 \u4f53\u80b2\u4f11\u95f2\u670d\u52a1;\u5a31\u4e50\u573a\u6240;\u7f51\u5427", "pty": "0803"}}, {"type": "Feature", "geometry": {"type": "Point", "coordinates": [121.51872076208154, 31.324226291313263]}, "properties": {"name": "\u4e9a\u9a6c\u900a\u7a7a\u6c14\u8d1f\u79bb\u5b50\u68ee\u6797\u6c27\u5427", "biz": "080308 \u4f53\u80b2\u4f11\u95f2\u670d\u52a1;\u5a31\u4e50\u573a\u6240;\u7f51\u5427", "pty": "0803"}}, {"type": "Feature", "geometry": {"type": "Point", "coordinates": [121.52798392065851, 31.313746075930304]}, "properties": {"name": "\u9b54\u57df\u7f51\u5496", "biz": "080308 \u4f53\u80b2\u4f11\u95f2\u670d\u52a1;\u5a31\u4e50\u573a\u6240;\u7f51\u5427", "pty": "0803"}}, {"type": "Feature", "geometry": {"type": "Point", "coordinates": [121.50739058912853, 31.262874430950784]}, "properties": {"name": "\u65b0\u6570\u7f51\u7edc", "biz": "080308 \u4f53\u80b2\u4f11\u95f2\u670d\u52a1;\u5a31\u4e50\u573a\u6240;\u7f51\u5427", "pty": "0803"}}, {"type": "Feature", "geometry": {"type": "Point", "coordinates": [121.51115074669964, 31.276011806052086]}, "properties": {"name": "\u897f\u8054\u6c47\u6b3e\u4e1a\u52a1\u529e\u7406\u7f51\u70b9", "biz": "080308 \u4f53\u80b2\u4f11\u95f2\u670d\u52a1;\u5a31\u4e50\u573a\u6240;\u7f51\u5427", "pty": "0803"}}, {"type": "Feature", "geometry": {"type": "Point", "coordinates": [121.53295467586027, 31.272293245937234]}, "properties": {"name": "\u514d\u8d39\u5145\u7535\u4e0a\u7f51\u533a", "biz": "080308 \u4f53\u80b2\u4f11\u95f2\u670d\u52a1;\u5a31\u4e50\u573a\u6240;\u7f51\u5427", "pty": "0803"}}, {"type": "Feature", "geometry": {"type": "Point", "coordinates": [121.5430169789183, 31.273657715045186]}, "properties": {"name": "\u5f8b\u77e5\u7f51\u7edc", "biz": "080308 \u4f53\u80b2\u4f11\u95f2\u670d\u52a1;\u5a31\u4e50\u573a\u6240;\u7f51\u5427", "pty": "0803"}}, {"type": "Feature", "geometry": {"type": "Point", "coordinates": [121.53837778826461, 31.292096867615808]}, "properties": {"name": "\u4f55\u66e6\u516c\u4f17\u7535\u8111\u5c4b", "biz": "080308 \u4f53\u80b2\u4f11\u95f2\u670d\u52a1;\u5a31\u4e50\u573a\u6240;\u7f51\u5427", "pty": "0803"}}, {"type": "Feature", "geometry": {"type": "Point", "coordinates": [121.52728366974586, 31.290352457972308]}, "properties": {"name": "\u4e0a\u6d77\u4e2d\u5f55\u65f6\u7a7a", "biz": "080308 \u4f53\u80b2\u4f11\u95f2\u670d\u52a1;\u5a31\u4e50\u573a\u6240;\u7f51\u5427", "pty": "0803"}}, {"type": "Feature", "geometry": {"type": "Point", "coordinates": [121.51959311223418, 31.259821680152093]}, "properties": {"name": "\u4e1c\u65b9\u7f51\u667a\u6167\u5c4b", "biz": "080308 \u4f53\u80b2\u4f11\u95f2\u670d\u52a1;\u5a31\u4e50\u573a\u6240;\u7f51\u5427", "pty": "0803"}}, {"type": "Feature", "geometry": {"type": "Point", "coordinates": [121.5084154031074, 31.308104886254068]}, "properties": {"name": "\u897f\u8054\u6c47\u6b3e\u4e1a\u52a1\u529e\u7406\u7f51\u70b9", "biz": "080308 \u4f53\u80b2\u4f11\u95f2\u670d\u52a1;\u5a31\u4e50\u573a\u6240;\u7f51\u5427", "pty": "0803"}}, {"type": "Feature", "geometry": {"type": "Point", "coordinates": [121.48927621989317, 31.302137162225527]}, "properties": {"name": "\u4f0a\u4e50\u7f51\u5496", "biz": "080308 \u4f53\u80b2\u4f11\u95f2\u670d\u52a1;\u5a31\u4e50\u573a\u6240;\u7f51\u5427", "pty": "0803"}}, {"type": "Feature", "geometry": {"type": "Point", "coordinates": [121.53745530665188, 31.278576303295722]}, "properties": {"name": "\u82f1\u96c4\u8054\u76df\u4e3b\u9898\u7f51\u5427", "biz": "080308 \u4f53\u80b2\u4f11\u95f2\u670d\u52a1;\u5a31\u4e50\u573a\u6240;\u7f51\u5427", "pty": "0803"}}, {"type": "Feature", "geometry": {"type": "Point", "coordinates": [121.52811987810568, 31.27161739606112]}, "properties": {"name": "\u4e0a\u6d77\u730e\u7c73\u7f51\u7edc", "biz": "080308 \u4f53\u80b2\u4f11\u95f2\u670d\u52a1;\u5a31\u4e50\u573a\u6240;\u7f51\u5427", "pty": "0803"}}, {"type": "Feature", "geometry": {"type": "Point", "coordinates": [121.53909594742875, 31.27834114814095]}, "properties": {"name": "\u52a9\u8dd1\u7f51", "biz": "080308 \u4f53\u80b2\u4f11\u95f2\u670d\u52a1;\u5a31\u4e50\u573a\u6240;\u7f51\u5427", "pty": "0803"}}, {"type": "Feature", "geometry": {"type": "Point", "coordinates": [121.53424297736373, 31.27867868375381]}, "properties": {"name": "\u5168\u7a0b\u7f51\u7edc", "biz": "080308 \u4f53\u80b2\u4f11\u95f2\u670d\u52a1;\u5a31\u4e50\u573a\u6240;\u7f51\u5427", "pty": "0803"}}, {"type": "Feature", "geometry": {"type": "Point", "coordinates": [121.52129090811482, 31.258276020023875]}, "properties": {"name": "\u70df\u8349\u7f51\u7edc", "biz": "080308 \u4f53\u80b2\u4f11\u95f2\u670d\u52a1;\u5a31\u4e50\u573a\u6240;\u7f51\u5427", "pty": "0803"}}, {"type": "Feature", "geometry": {"type": "Point", "coordinates": [121.52740104893151, 31.290262798725106]}, "properties": {"name": "MC\u5e73\u65b9\u7f51\u5496", "biz": "080308 \u4f53\u80b2\u4f11\u95f2\u670d\u52a1;\u5a31\u4e50\u573a\u6240;\u7f51\u5427", "pty": "0803"}}, {"type": "Feature", "geometry": {"type": "Point", "coordinates": [121.51116832039223, 31.305515913541385]}, "properties": {"name": "\u4e8c\u697c\u68cb\u724c\u5ba4", "biz": "080308 \u4f53\u80b2\u4f11\u95f2\u670d\u52a1;\u5a31\u4e50\u573a\u6240;\u7f51\u5427", "pty": "0803"}}, {"type": "Feature", "geometry": {"type": "Point", "coordinates": [121.51392509390296, 31.303549619195184]}, "properties": {"name": "\u6562\u7231", "biz": "080308 \u4f53\u80b2\u4f11\u95f2\u670d\u52a1;\u5a31\u4e50\u573a\u6240;\u7f51\u5427", "pty": "0803"}}, {"type": "Feature", "geometry": {"type": "Point", "coordinates": [121.5160748772315, 31.299084490217957]}, "properties": {"name": "\u8c46\u4e01\u7f51\u5496", "biz": "080308 \u4f53\u80b2\u4f11\u95f2\u670d\u52a1;\u5a31\u4e50\u573a\u6240;\u7f51\u5427", "pty": "0803"}}, {"type": "Feature", "geometry": {"type": "Point", "coordinates": [121.53888964397044, 31.29903925380998]}, "properties": {"name": "\u7f51\u9c7c\u7f51\u5496(\u677e\u82b1\u6c5f\u8def\u5e97)", "biz": "080308 \u4f53\u80b2\u4f11\u95f2\u670d\u52a1;\u5a31\u4e50\u573a\u6240;\u7f51\u5427", "pty": "0803"}}, {"type": "Feature", "geometry": {"type": "Point", "coordinates": [121.52732078369597, 31.290395536793298]}, "properties": {"name": "\u6770\u62c9\u7f51\u5496(\u6c38\u5409\u5e97)", "biz": "080308 \u4f53\u80b2\u4f11\u95f2\u670d\u52a1;\u5a31\u4e50\u573a\u6240;\u7f51\u5427", "pty": "0803"}}, {"type": "Feature", "geometry": {"type": "Point", "coordinates": [121.53308147343543, 31.2912187139661]}, "properties": {"name": "\u7f51\u9c7c\u7f51\u5496(\u6c34\u4e30\u8def\u5e97)", "biz": "080308 \u4f53\u80b2\u4f11\u95f2\u670d\u52a1;\u5a31\u4e50\u573a\u6240;\u7f51\u5427", "pty": "0803"}}, {"type": "Feature", "geometry": {"type": "Point", "coordinates": [121.53845297698558, 31.292368929204642]}, "properties": {"name": "e\u7f51\u7edc\u751f\u6d3b\u9986", "biz": "080308 \u4f53\u80b2\u4f11\u95f2\u670d\u52a1;\u5a31\u4e50\u573a\u6240;\u7f51\u5427", "pty": "0803"}}, {"type": "Feature", "geometry": {"type": "Point", "coordinates": [121.5023068036064, 31.305786721825886]}, "properties": {"name": "\u4e16\u7eaa\u8054\u76df", "biz": "080308 \u4f53\u80b2\u4f11\u95f2\u670d\u52a1;\u5a31\u4e50\u573a\u6240;\u7f51\u5427", "pty": "0803"}}, {"type": "Feature", "geometry": {"type": "Point", "coordinates": [121.51459762476705, 31.30111549500534]}, "properties": {"name": "SEOMENS\u8d5b\u68a6\u7f51\u7edc", "biz": "080308 \u4f53\u80b2\u4f11\u95f2\u670d\u52a1;\u5a31\u4e50\u573a\u6240;\u7f51\u5427", "pty": "0803"}}, {"type": "Feature", "geometry": {"type": "Point", "coordinates": [121.52754186995074, 31.32156599367485]}, "properties": {"name": "\u4e8c\u697c\u68cb\u724c", "biz": "080308 \u4f53\u80b2\u4f11\u95f2\u670d\u52a1;\u5a31\u4e50\u573a\u6240;\u7f51\u5427", "pty": "0803"}}, {"type": "Feature", "geometry": {"type": "Point", "coordinates": [121.52739198977277, 31.290626627779428]}, "properties": {"name": "21\u65b0\u4e16\u8bb0\u7f51\u5427", "biz": "080308 \u4f53\u80b2\u4f11\u95f2\u670d\u52a1;\u5a31\u4e50\u573a\u6240;\u7f51\u5427", "pty": "0803"}}, {"type": "Feature", "geometry": {"type": "Point", "coordinates": [121.36018469645728, 31.18255639111043]}, "properties": {"name": "\u7f51\u9c7c\u7f51\u5496(\u9f99\u67cf\u5e97)", "biz": "080308 \u4f53\u80b2\u4f11\u95f2\u670d\u52a1;\u5a31\u4e50\u573a\u6240;\u7f51\u5427", "pty": "0803"}}, {"type": "Feature", "geometry": {"type": "Point", "coordinates": [121.39853522518541, 31.07552395104971]}, "properties": {"name": "\u738b\u8005\u7535\u7ade\u9986", "biz": "080308 \u4f53\u80b2\u4f11\u95f2\u670d\u52a1;\u5a31\u4e50\u573a\u6240;\u7f51\u5427", "pty": "0803"}}, {"type": "Feature", "geometry": {"type": "Point", "coordinates": [121.30441428981408, 31.20261514976301]}, "properties": {"name": "\u7f51\u9c7c\u7f51\u5496(\u8679\u6865\u5e97)", "biz": "080308 \u4f53\u80b2\u4f11\u95f2\u670d\u52a1;\u5a31\u4e50\u573a\u6240;\u7f51\u5427", "pty": "0803"}}, {"type": "Feature", "geometry": {"type": "Point", "coordinates": [121.40715910680447, 31.012912183219658]}, "properties": {"name": "\u7f51\u9c7c\u7f51\u5496(\u91d1\u5e73\u8def\u5e97)", "biz": "080308 \u4f53\u80b2\u4f11\u95f2\u670d\u52a1;\u5a31\u4e50\u573a\u6240;\u7f51\u5427", "pty": "0803"}}, {"type": "Feature", "geometry": {"type": "Point", "coordinates": [121.45291646384437, 31.04129983615718]}, "properties": {"name": "\u7f51\u9c7c\u7f51\u5496(\u5251\u5ddd\u8def\u5e97)", "biz": "080308 \u4f53\u80b2\u4f11\u95f2\u670d\u52a1;\u5a31\u4e50\u573a\u6240;\u7f51\u5427", "pty": "0803"}}, {"type": "Feature", "geometry": {"type": "Point", "coordinates": [121.37155780000073, 31.107845033294996]}, "properties": {"name": "\u7f51\u9c7c\u7f51\u5496(\u8398\u5efa\u5e97)", "biz": "080308 \u4f53\u80b2\u4f11\u95f2\u670d\u52a1;\u5a31\u4e50\u573a\u6240;\u7f51\u5427", "pty": "0803"}}, {"type": "Feature", "geometry": {"type": "Point", "coordinates": [121.35187209208159, 31.140262884726344]}, "properties": {"name": "\u6770\u62c9\u7f51\u5496(\u95f5\u884c\u5e97)", "biz": "080308 \u4f53\u80b2\u4f11\u95f2\u670d\u52a1;\u5a31\u4e50\u573a\u6240;\u7f51\u5427", "pty": "0803"}}, {"type": "Feature", "geometry": {"type": "Point", "coordinates": [121.34340249433326, 31.15725920397702]}, "properties": {"name": "\u7f51\u9c7c\u7f51\u5496(\u4e03\u8398\u8def\u5e97)", "biz": "080308 \u4f53\u80b2\u4f11\u95f2\u670d\u52a1;\u5a31\u4e50\u573a\u6240;\u7f51\u5427", "pty": "0803"}}, {"type": "Feature", "geometry": {"type": "Point", "coordinates": [121.40701191519926, 31.10661339288249]}, "properties": {"name": "\u7f51\u9c7c\u7f51\u5496(\u83b2\u82b1\u5357\u8def\u5e97)", "biz": "080308 \u4f53\u80b2\u4f11\u95f2\u670d\u52a1;\u5a31\u4e50\u573a\u6240;\u7f51\u5427", "pty": "0803"}}, {"type": "Feature", "geometry": {"type": "Point", "coordinates": [121.42702524683048, 31.01876292191608]}, "properties": {"name": "\u660e\u57fa\u7535\u7ade\u9986(\u95f5\u884c\u4ea4\u5927\u5e97)", "biz": "080308 \u4f53\u80b2\u4f11\u95f2\u670d\u52a1;\u5a31\u4e50\u573a\u6240;\u7f51\u5427", "pty": "0803"}}, {"type": "Feature", "geometry": {"type": "Point", "coordinates": [121.38982113027676, 31.070213322902493]}, "properties": {"name": "\u9876\u5174\u7f51\u5496", "biz": "080308 \u4f53\u80b2\u4f11\u95f2\u670d\u52a1;\u5a31\u4e50\u573a\u6240;\u7f51\u5427", "pty": "0803"}}, {"type": "Feature", "geometry": {"type": "Point", "coordinates": [121.48883021322155, 31.094846647002754]}, "properties": {"name": "\u6d66\u9526\u7f51\u5427", "biz": "080308 \u4f53\u80b2\u4f11\u95f2\u670d\u52a1;\u5a31\u4e50\u573a\u6240;\u7f51\u5427", "pty": "0803"}}, {"type": "Feature", "geometry": {"type": "Point", "coordinates": [121.37172811881776, 31.09024367131965]}, "properties": {"name": "\u5eb7\u8679\u7f51\u5496", "biz": "080308 \u4f53\u80b2\u4f11\u95f2\u670d\u52a1;\u5a31\u4e50\u573a\u6240;\u7f51\u5427", "pty": "0803"}}, {"type": "Feature", "geometry": {"type": "Point", "coordinates": [121.4055586627505, 31.044005401489244]}, "properties": {"name": "\u9686\u5ba2\u7f51\u5496", "biz": "080308 \u4f53\u80b2\u4f11\u95f2\u670d\u52a1;\u5a31\u4e50\u573a\u6240;\u7f51\u5427", "pty": "0803"}}, {"type": "Feature", "geometry": {"type": "Point", "coordinates": [121.36709336197934, 30.99560565885407]}, "properties": {"name": "\u4e1c\u65b9\u7f51\u70b9(\u6c5f\u859b\u8def)", "biz": "080308 \u4f53\u80b2\u4f11\u95f2\u670d\u52a1;\u5a31\u4e50\u573a\u6240;\u7f51\u5427", "pty": "0803"}}, {"type": "Feature", "geometry": {"type": "Point", "coordinates": [121.41331878973818, 31.006996104852384]}, "properties": {"name": "\u5361\u5723\u5c14\u7f51\u7edc\u516c\u9986", "biz": "080308 \u4f53\u80b2\u4f11\u95f2\u670d\u52a1;\u5a31\u4e50\u573a\u6240;\u7f51\u5427", "pty": "0803"}}, {"type": "Feature", "geometry": {"type": "Point", "coordinates": [121.33486903902781, 31.166936718754055]}, "properties": {"name": "\u98ce\u8776\u7f51\u5496(\u6682\u505c\u8425\u4e1a)", "biz": "080308 \u4f53\u80b2\u4f11\u95f2\u670d\u52a1;\u5a31\u4e50\u573a\u6240;\u7f51\u5427", "pty": "0803"}}, {"type": "Feature", "geometry": {"type": "Point", "coordinates": [121.40918583100593, 31.098666814246677]}, "properties": {"name": "\u68ee\u53e4\u7f51\u5496", "biz": "080308 \u4f53\u80b2\u4f11\u95f2\u670d\u52a1;\u5a31\u4e50\u573a\u6240;\u7f51\u5427", "pty": "0803"}}, {"type": "Feature", "geometry": {"type": "Point", "coordinates": [121.36856930347814, 30.996060663762698]}, "properties": {"name": "\u4e2d\u6570\u7f51\u7edc", "biz": "080308 \u4f53\u80b2\u4f11\u95f2\u670d\u52a1;\u5a31\u4e50\u573a\u6240;\u7f51\u5427", "pty": "0803"}}, {"type": "Feature", "geometry": {"type": "Point", "coordinates": [121.3815495975204, 31.178375896785948]}, "properties": {"name": "W.Y.W.K", "biz": "080308 \u4f53\u80b2\u4f11\u95f2\u670d\u52a1;\u5a31\u4e50\u573a\u6240;\u7f51\u5427", "pty": "0803"}}, {"type": "Feature", "geometry": {"type": "Point", "coordinates": [121.40283766078737, 31.04437940406903]}, "properties": {"name": "\u6b23\u5b87\u7f51\u5496", "biz": "080308 \u4f53\u80b2\u4f11\u95f2\u670d\u52a1;\u5a31\u4e50\u573a\u6240;\u7f51\u5427", "pty": "0803"}}, {"type": "Feature", "geometry": {"type": "Point", "coordinates": [121.38094593973622, 31.145501384809325]}, "properties": {"name": "\u7f51\u9c7c\u7f51\u5496(\u9f99\u8317\u8def\u5e97)", "biz": "080308 \u4f53\u80b2\u4f11\u95f2\u670d\u52a1;\u5a31\u4e50\u573a\u6240;\u7f51\u5427", "pty": "0803"}}, {"type": "Feature", "geometry": {"type": "Point", "coordinates": [121.50004838864866, 31.072336945834422]}, "properties": {"name": "\u7f51\u9c7c\u7f51\u5496(\u7af9\u56ed\u897f\u8def\u5e97)", "biz": "080308 \u4f53\u80b2\u4f11\u95f2\u670d\u52a1;\u5a31\u4e50\u573a\u6240;\u7f51\u5427", "pty": "0803"}}, {"type": "Feature", "geometry": {"type": "Point", "coordinates": [121.37676757616282, 31.15880964259692]}, "properties": {"name": "\u7f51\u9c7c\u7f51\u5496(\u6f15\u5b9d\u5e97)", "biz": "080308 \u4f53\u80b2\u4f11\u95f2\u670d\u52a1;\u5a31\u4e50\u573a\u6240;\u7f51\u5427", "pty": "0803"}}, {"type": "Feature", "geometry": {"type": "Point", "coordinates": [121.50058224350236, 31.08497337551634]}, "properties": {"name": "\u7f51\u9c7c\u7f51\u5496(\u6c5f\u6708\u5e97)", "biz": "080308 \u4f53\u80b2\u4f11\u95f2\u670d\u52a1;\u5a31\u4e50\u573a\u6240;\u7f51\u5427", "pty": "0803"}}, {"type": "Feature", "geometry": {"type": "Point", "coordinates": [121.49795786268004, 31.09623619530645]}, "properties": {"name": "\u7f51\u9c7c\u7f51\u5496(\u6d66\u6c5f\u534e\u4fa8\u57ce\u5e97)", "biz": "080308 \u4f53\u80b2\u4f11\u95f2\u670d\u52a1;\u5a31\u4e50\u573a\u6240;\u7f51\u5427", "pty": "0803"}}, {"type": "Feature", "geometry": {"type": "Point", "coordinates": [121.39024110804428, 31.057114692356556]}, "properties": {"name": "\u5f69\u68a6\u56ed\u7f51\u7edc", "biz": "080308 \u4f53\u80b2\u4f11\u95f2\u670d\u52a1;\u5a31\u4e50\u573a\u6240;\u7f51\u5427", "pty": "0803"}}, {"type": "Feature", "geometry": {"type": "Point", "coordinates": [121.38808320823748, 31.066392162661607]}, "properties": {"name": "\u9038\u7f51\u5f71\u5496(\u989b\u6865\u5e97)", "biz": "080308 \u4f53\u80b2\u4f11\u95f2\u670d\u52a1;\u5a31\u4e50\u573a\u6240;\u7f51\u5427", "pty": "0803"}}, {"type": "Feature", "geometry": {"type": "Point", "coordinates": [121.43540391485593, 31.055054190564693]}, "properties": {"name": "\u4e1c\u65b9\u7f51\u70b9(\u5317\u5434\u5e97)", "biz": "080308 \u4f53\u80b2\u4f11\u95f2\u670d\u52a1;\u5a31\u4e50\u573a\u6240;\u7f51\u5427", "pty": "0803"}}, {"type": "Feature", "geometry": {"type": "Point", "coordinates": [121.38155689332694, 31.117402123314996]}, "properties": {"name": "\u7f51\u9c7c\u7f51\u5496(\u8398\u5efa\u4e1c\u8def\u5e97)", "biz": "080308 \u4f53\u80b2\u4f11\u95f2\u670d\u52a1;\u5a31\u4e50\u573a\u6240;\u7f51\u5427", "pty": "0803"}}, {"type": "Feature", "geometry": {"type": "Point", "coordinates": [121.36480554188454, 31.031644289711505]}, "properties": {"name": "\u4e1c\u65b9\u7f51\u70b9(\u9f99\u67cf\u5e97)", "biz": "080308 \u4f53\u80b2\u4f11\u95f2\u670d\u52a1;\u5a31\u4e50\u573a\u6240;\u7f51\u5427", "pty": "0803"}}, {"type": "Feature", "geometry": {"type": "Point", "coordinates": [121.53418460919809, 31.06480191745617]}, "properties": {"name": "\u590f\u5a01\u5937\u7f51\u5496(\u53ec\u697c\u8def)", "biz": "080308 \u4f53\u80b2\u4f11\u95f2\u670d\u52a1;\u5a31\u4e50\u573a\u6240;\u7f51\u5427", "pty": "0803"}}, {"type": "Feature", "geometry": {"type": "Point", "coordinates": [121.4073240803034, 31.129601942102457]}, "properties": {"name": "\u4e1c\u65b9\u7f51\u70b9(\u7f57\u79c0\u5e97)", "biz": "080308 \u4f53\u80b2\u4f11\u95f2\u670d\u52a1;\u5a31\u4e50\u573a\u6240;\u7f51\u5427", "pty": "0803"}}, {"type": "Feature", "geometry": {"type": "Point", "coordinates": [121.36798505897002, 31.031173701151957]}, "properties": {"name": "\u9f99\u50b2\u7f51\u5496", "biz": "080308 \u4f53\u80b2\u4f11\u95f2\u670d\u52a1;\u5a31\u4e50\u573a\u6240;\u7f51\u5427", "pty": "0803"}}, {"type": "Feature", "geometry": {"type": "Point", "coordinates": [121.26608599025562, 31.239844969275563]}, "properties": {"name": "\u946b\u946b\u7f51\u5496", "biz": "080308 \u4f53\u80b2\u4f11\u95f2\u670d\u52a1;\u5a31\u4e50\u573a\u6240;\u7f51\u5427", "pty": "0803"}}, {"type": "Feature", "geometry": {"type": "Point", "coordinates": [121.35113341516684, 31.17583550327134]}, "properties": {"name": "\u73e0\u5cf0\u7f51\u5496", "biz": "080308 \u4f53\u80b2\u4f11\u95f2\u670d\u52a1;\u5a31\u4e50\u573a\u6240;\u7f51\u5427", "pty": "0803"}}, {"type": "Feature", "geometry": {"type": "Point", "coordinates": [121.28676405767247, 31.209778129380073]}, "properties": {"name": "\u6469\u7279\u7f51\u5496", "biz": "080308 \u4f53\u80b2\u4f11\u95f2\u670d\u52a1;\u5a31\u4e50\u573a\u6240;\u7f51\u5427", "pty": "0803"}}, {"type": "Feature", "geometry": {"type": "Point", "coordinates": [121.41924549367384, 31.125063694421502]}, "properties": {"name": "\u5fb7\u98ce\u7f51\u5427", "biz": "080308 \u4f53\u80b2\u4f11\u95f2\u670d\u52a1;\u5a31\u4e50\u573a\u6240;\u7f51\u5427", "pty": "0803"}}, {"type": "Feature", "geometry": {"type": "Point", "coordinates": [121.52097351003816, 31.07103622084044]}, "properties": {"name": "\u7f51\u5427\u52a8\u6f2b\u57ce(\u4e09\u9c81\u516c\u8def\u5e97)", "biz": "080308 \u4f53\u80b2\u4f11\u95f2\u670d\u52a1;\u5a31\u4e50\u573a\u6240;\u7f51\u5427", "pty": "0803"}}, {"type": "Feature", "geometry": {"type": "Point", "coordinates": [121.39618605735537, 31.135109985132917]}, "properties": {"name": "\u7f51\u9c7c\u7f51\u5496(\u5357\u65b9\u5546\u57ce\u5e97)", "biz": "080308 \u4f53\u80b2\u4f11\u95f2\u670d\u52a1;\u5a31\u4e50\u573a\u6240;\u7f51\u5427", "pty": "0803"}}, {"type": "Feature", "geometry": {"type": "Point", "coordinates": [121.36813576931976, 31.170589285602265]}, "properties": {"name": "\u7f51\u9c7c\u7f51\u5496(\u8679\u8398\u8def\u5e97)", "biz": "080308 \u4f53\u80b2\u4f11\u95f2\u670d\u52a1;\u5a31\u4e50\u573a\u6240;\u7f51\u5427", "pty": "0803"}}, {"type": "Feature", "geometry": {"type": "Point", "coordinates": [121.37267725743975, 31.19072018543664]}, "properties": {"name": "\u9a70\u901f\u7f51\u5427", "biz": "080308 \u4f53\u80b2\u4f11\u95f2\u670d\u52a1;\u5a31\u4e50\u573a\u6240;\u7f51\u5427", "pty": "0803"}}, {"type": "Feature", "geometry": {"type": "Point", "coordinates": [121.37775725493283, 31.174351789169044]}, "properties": {"name": "\u4e50\u9038\u8da3\u7f51\u5496", "biz": "080308 \u4f53\u80b2\u4f11\u95f2\u670d\u52a1;\u5a31\u4e50\u573a\u6240;\u7f51\u5427", "pty": "0803"}}, {"type": "Feature", "geometry": {"type": "Point", "coordinates": [121.37423844279502, 31.15656210637487]}, "properties": {"name": "\u946b\u8398\u7f51\u7edc", "biz": "080308 \u4f53\u80b2\u4f11\u95f2\u670d\u52a1;\u5a31\u4e50\u573a\u6240;\u7f51\u5427", "pty": "0803"}}, {"type": "Feature", "geometry": {"type": "Point", "coordinates": [121.39333247114324, 31.08878386123504]}, "properties": {"name": "\u67ef\u68ee\u7f51\u5496(\u90fd\u5e02\u8def\u5e97)", "biz": "080308 \u4f53\u80b2\u4f11\u95f2\u670d\u52a1;\u5a31\u4e50\u573a\u6240;\u7f51\u5427", "pty": "0803"}}, {"type": "Feature", "geometry": {"type": "Point", "coordinates": [121.39771437948735, 31.15398990319333]}, "properties": {"name": "\u6770\u68ee\u7f51\u5496", "biz": "080308 \u4f53\u80b2\u4f11\u95f2\u670d\u52a1;\u5a31\u4e50\u573a\u6240;\u7f51\u5427", "pty": "0803"}}, {"type": "Feature", "geometry": {"type": "Point", "coordinates": [121.40781244111402, 31.082358315525383]}, "properties": {"name": "\u90fd\u7f18\u4e92\u8054\u7f51\u7f51\u5427", "biz": "080308 \u4f53\u80b2\u4f11\u95f2\u670d\u52a1;\u5a31\u4e50\u573a\u6240;\u7f51\u5427", "pty": "0803"}}, {"type": "Feature", "geometry": {"type": "Point", "coordinates": [121.38337078381072, 31.126185170633082]}, "properties": {"name": "\u4e1c\u65b9\u7f51\u5496(\u62a5\u6625\u8def)", "biz": "080308 \u4f53\u80b2\u4f11\u95f2\u670d\u52a1;\u5a31\u4e50\u573a\u6240;\u7f51\u5427", "pty": "0803"}}, {"type": "Feature", "geometry": {"type": "Point", "coordinates": [121.39501508401804, 31.159059412784377]}, "properties": {"name": "\u6df1\u5170\u7f51\u5427", "biz": "080308 \u4f53\u80b2\u4f11\u95f2\u670d\u52a1;\u5a31\u4e50\u573a\u6240;\u7f51\u5427", "pty": "0803"}}, {"type": "Feature", "geometry": {"type": "Point", "coordinates": [121.4306437148055, 31.105643161928956]}, "properties": {"name": "80\u7f51\u5496", "biz": "080308 \u4f53\u80b2\u4f11\u95f2\u670d\u52a1;\u5a31\u4e50\u573a\u6240;\u7f51\u5427", "pty": "0803"}}, {"type": "Feature", "geometry": {"type": "Point", "coordinates": [121.46300135850456, 31.045849757283175]}, "properties": {"name": "\u6ca7\u6e90\u7f51\u5427", "biz": "080308 \u4f53\u80b2\u4f11\u95f2\u670d\u52a1;\u5a31\u4e50\u573a\u6240;\u7f51\u5427", "pty": "0803"}}, {"type": "Feature", "geometry": {"type": "Point", "coordinates": [121.38844041598932, 31.027460556692535]}, "properties": {"name": "\u5a31\u4e50\u57ce\u7f51\u5496", "biz": "080308 \u4f53\u80b2\u4f11\u95f2\u670d\u52a1;\u5a31\u4e50\u573a\u6240;\u7f51\u5427", "pty": "0803"}}, {"type": "Feature", "geometry": {"type": "Point", "coordinates": [121.34576875166367, 31.155732874302963]}, "properties": {"name": "\u73a9\u5bb6\u56fd\u5ea6(\u4e03\u5b9d\u4e07\u79d1\u5e7f\u573a)", "biz": "080308 \u4f53\u80b2\u4f11\u95f2\u670d\u52a1;\u5a31\u4e50\u573a\u6240;\u7f51\u5427", "pty": "0803"}}, {"type": "Feature", "geometry": {"type": "Point", "coordinates": [121.35281008332657, 31.131566058605674]}, "properties": {"name": "\u7535\u7ade\u7f51\u5496", "biz": "080308 \u4f53\u80b2\u4f11\u95f2\u670d\u52a1;\u5a31\u4e50\u573a\u6240;\u7f51\u5427", "pty": "0803"}}, {"type": "Feature", "geometry": {"type": "Point", "coordinates": [121.4173417169942, 31.08663922443424]}, "properties": {"name": "\u660e\u6c5f\u7f51\u5427", "biz": "080308 \u4f53\u80b2\u4f11\u95f2\u670d\u52a1;\u5a31\u4e50\u573a\u6240;\u7f51\u5427", "pty": "0803"}}, {"type": "Feature", "geometry": {"type": "Point", "coordinates": [121.52028611388991, 31.072343588888124]}, "properties": {"name": "\u8001\u59dc\u7f51\u5427", "biz": "080308 \u4f53\u80b2\u4f11\u95f2\u670d\u52a1;\u5a31\u4e50\u573a\u6240;\u7f51\u5427", "pty": "0803"}}, {"type": "Feature", "geometry": {"type": "Point", "coordinates": [121.51785005021287, 31.082851865010383]}, "properties": {"name": "\u98ce\u58f0\u7f51\u7edc", "biz": "080308 \u4f53\u80b2\u4f11\u95f2\u670d\u52a1;\u5a31\u4e50\u573a\u6240;\u7f51\u5427", "pty": "0803"}}, {"type": "Feature", "geometry": {"type": "Point", "coordinates": [121.3431578622551, 31.158905776010723]}, "properties": {"name": "\u4f73\u65b0\u7f51\u5427(\u65b0\u9f99\u8def)", "biz": "080308 \u4f53\u80b2\u4f11\u95f2\u670d\u52a1;\u5a31\u4e50\u573a\u6240;\u7f51\u5427", "pty": "0803"}}, {"type": "Feature", "geometry": {"type": "Point", "coordinates": [121.39850275536995, 31.13849812849189]}, "properties": {"name": "\u653b\u7565\u7f51\u5496(\u53e4\u7f8e\u5e97)", "biz": "080308 \u4f53\u80b2\u4f11\u95f2\u670d\u52a1;\u5a31\u4e50\u573a\u6240;\u7f51\u5427", "pty": "0803"}}, {"type": "Feature", "geometry": {"type": "Point", "coordinates": [121.2675741249065, 31.24384896287294]}, "properties": {"name": "\u963f\u91d1\u7f51\u5496", "biz": "080308 \u4f53\u80b2\u4f11\u95f2\u670d\u52a1;\u5a31\u4e50\u573a\u6240;\u7f51\u5427", "pty": "0803"}}, {"type": "Feature", "geometry": {"type": "Point", "coordinates": [121.41995612933266, 31.115824434351985]}, "properties": {"name": "\u4e2d\u6570\u7f51\u7edc(\u666e\u4e50\u8def\u5e97)", "biz": "080308 \u4f53\u80b2\u4f11\u95f2\u670d\u52a1;\u5a31\u4e50\u573a\u6240;\u7f51\u5427", "pty": "0803"}}, {"type": "Feature", "geometry": {"type": "Point", "coordinates": [121.34569805829638, 31.153851982876656]}, "properties": {"name": "\u6770\u62c9\u7f51\u5496(\u4e03\u5b9d\u5e97)", "biz": "080308 \u4f53\u80b2\u4f11\u95f2\u670d\u52a1;\u5a31\u4e50\u573a\u6240;\u7f51\u5427", "pty": "0803"}}, {"type": "Feature", "geometry": {"type": "Point", "coordinates": [121.46990020874814, 31.04593303111589]}, "properties": {"name": "\u5251\u5e73\u7f51\u5427", "biz": "080308 \u4f53\u80b2\u4f11\u95f2\u670d\u52a1;\u5a31\u4e50\u573a\u6240;\u7f51\u5427", "pty": "0803"}}, {"type": "Feature", "geometry": {"type": "Point", "coordinates": [121.36824146105347, 31.183990352464853]}, "properties": {"name": "\u9038\u7f51\u5f71\u5496(\u91d1\u6c47\u5e97)", "biz": "080308 \u4f53\u80b2\u4f11\u95f2\u670d\u52a1;\u5a31\u4e50\u573a\u6240;\u7f51\u5427", "pty": "0803"}}, {"type": "Feature", "geometry": {"type": "Point", "coordinates": [121.52019341521441, 31.06501851878463]}, "properties": {"name": "\u5b59\u82d1\u7f51\u5427", "biz": "080308 \u4f53\u80b2\u4f11\u95f2\u670d\u52a1;\u5a31\u4e50\u573a\u6240;\u7f51\u5427", "pty": "0803"}}, {"type": "Feature", "geometry": {"type": "Point", "coordinates": [121.39418704012986, 31.068846018997384]}, "properties": {"name": "\u5b9d\u8d62\u7f51\u5427", "biz": "080308 \u4f53\u80b2\u4f11\u95f2\u670d\u52a1;\u5a31\u4e50\u573a\u6240;\u7f51\u5427", "pty": "0803"}}, {"type": "Feature", "geometry": {"type": "Point", "coordinates": [121.53204335015565, 31.063159633168397]}, "properties": {"name": "\u4e1c\u65b9\u7f51\u70b9(\u6d66\u6c5f\u4e2d\u5fc3\u4f11\u95f2\u5e7f\u573a\u5e97)", "biz": "080308 \u4f53\u80b2\u4f11\u95f2\u670d\u52a1;\u5a31\u4e50\u573a\u6240;\u7f51\u5427", "pty": "0803"}}, {"type": "Feature", "geometry": {"type": "Point", "coordinates": [121.35012770025402, 31.148686240233392]}, "properties": {"name": "\u65f6\u4ee3\u4e50\u56ed\u4f11\u95f2\u7f51\u5496(\u6682\u505c\u8425\u4e1a)", "biz": "080308 \u4f53\u80b2\u4f11\u95f2\u670d\u52a1;\u5a31\u4e50\u573a\u6240;\u7f51\u5427", "pty": "0803"}}, {"type": "Feature", "geometry": {"type": "Point", "coordinates": [121.38094896898866, 31.14513657632949]}, "properties": {"name": "\u4e2d\u6570\u4f73\u7f18\u7f51\u7edc(\u53e4\u7f8e\u751f\u6d3b\u8d2d\u7269\u5e7f\u573a\u5e97)", "biz": "080308 \u4f53\u80b2\u4f11\u95f2\u670d\u52a1;\u5a31\u4e50\u573a\u6240;\u7f51\u5427", "pty": "0803"}}, {"type": "Feature", "geometry": {"type": "Point", "coordinates": [121.3572383559587, 31.140170656295947]}, "properties": {"name": "\u6d77\u6839\u7f51\u5496", "biz": "080308 \u4f53\u80b2\u4f11\u95f2\u670d\u52a1;\u5a31\u4e50\u573a\u6240;\u7f51\u5427", "pty": "0803"}}, {"type": "Feature", "geometry": {"type": "Point", "coordinates": [121.3971660007268, 31.13533381930907]}, "properties": {"name": "\u5370\u8a00\u7f51\u5496(\u53e4\u65b9\u5e97)", "biz": "080308 \u4f53\u80b2\u4f11\u95f2\u670d\u52a1;\u5a31\u4e50\u573a\u6240;\u7f51\u5427", "pty": "0803"}}, {"type": "Feature", "geometry": {"type": "Point", "coordinates": [121.39412094715794, 31.16213793438785]}, "properties": {"name": "\u7f51\u5496\u4e50\u56ed", "biz": "080308 \u4f53\u80b2\u4f11\u95f2\u670d\u52a1;\u5a31\u4e50\u573a\u6240;\u7f51\u5427", "pty": "0803"}}, {"type": "Feature", "geometry": {"type": "Point", "coordinates": [121.24485832788567, 31.244123228557527]}, "properties": {"name": "\u91d1\u97f5\u7f51\u5427", "biz": "080308 \u4f53\u80b2\u4f11\u95f2\u670d\u52a1;\u5a31\u4e50\u573a\u6240;\u7f51\u5427", "pty": "0803"}}, {"type": "Feature", "geometry": {"type": "Point", "coordinates": [121.50179458259242, 31.085099923602]}, "properties": {"name": "\u666f\u5cf0\u7f51\u7edc\u5bb6\u56ed(\u6c5f\u6708\u8def\u5e97)", "biz": "080308 \u4f53\u80b2\u4f11\u95f2\u670d\u52a1;\u5a31\u4e50\u573a\u6240;\u7f51\u5427", "pty": "0803"}}, {"type": "Feature", "geometry": {"type": "Point", "coordinates": [121.35927152843952, 31.121243928840965]}, "properties": {"name": "\u4e1c\u65b9\u7f51\u70b9(\u5409\u7965\u5e97)", "biz": "080308 \u4f53\u80b2\u4f11\u95f2\u670d\u52a1;\u5a31\u4e50\u573a\u6240;\u7f51\u5427", "pty": "0803"}}, {"type": "Feature", "geometry": {"type": "Point", "coordinates": [121.3928752233098, 31.09280569442579]}, "properties": {"name": "\u4e1c\u768b\u7f51\u5496", "biz": "080308 \u4f53\u80b2\u4f11\u95f2\u670d\u52a1;\u5a31\u4e50\u573a\u6240;\u7f51\u5427", "pty": "0803"}}, {"type": "Feature", "geometry": {"type": "Point", "coordinates": [121.39177047339929, 31.058661357177392]}, "properties": {"name": "\u7f51\u9c7c\u7f51\u5496(\u946b\u90fd\u5e7f\u573a\u5e97)", "biz": "080308 \u4f53\u80b2\u4f11\u95f2\u670d\u52a1;\u5a31\u4e50\u573a\u6240;\u7f51\u5427", "pty": "0803"}}, {"type": "Feature", "geometry": {"type": "Point", "coordinates": [121.40283065537561, 31.021315853443003]}, "properties": {"name": "\u7f51\u9c7c\u7f51\u5496(\u51e4\u5e86\u8def\u5e97)", "biz": "080308 \u4f53\u80b2\u4f11\u95f2\u670d\u52a1;\u5a31\u4e50\u573a\u6240;\u7f51\u5427", "pty": "0803"}}, {"type": "Feature", "geometry": {"type": "Point", "coordinates": [121.37754646028992, 31.17432297800749]}, "properties": {"name": "\u661f\u6668\u7f51\u5427", "biz": "080308 \u4f53\u80b2\u4f11\u95f2\u670d\u52a1;\u5a31\u4e50\u573a\u6240;\u7f51\u5427", "pty": "0803"}}, {"type": "Feature", "geometry": {"type": "Point", "coordinates": [121.41501141468464, 31.017124392807524]}, "properties": {"name": "\u65b0\u7eaa\u5143\u7f51\u5496", "biz": "080308 \u4f53\u80b2\u4f11\u95f2\u670d\u52a1;\u5a31\u4e50\u573a\u6240;\u7f51\u5427", "pty": "0803"}}, {"type": "Feature", "geometry": {"type": "Point", "coordinates": [121.37126006088441, 31.097521084392376]}, "properties": {"name": "\u6615\u65f7\u7f51\u5427", "biz": "080308 \u4f53\u80b2\u4f11\u95f2\u670d\u52a1;\u5a31\u4e50\u573a\u6240;\u7f51\u5427", "pty": "0803"}}, {"type": "Feature", "geometry": {"type": "Point", "coordinates": [121.35447504365395, 31.14279543332265]}, "properties": {"name": "\u5415\u5b9d\u7f51\u5496", "biz": "080308 \u4f53\u80b2\u4f11\u95f2\u670d\u52a1;\u5a31\u4e50\u573a\u6240;\u7f51\u5427", "pty": "0803"}}, {"type": "Feature", "geometry": {"type": "Point", "coordinates": [121.33711113657198, 31.166588731665072]}, "properties": {"name": "\u7f51\u9c7c\u7f51\u5496(\u51ef\u5fb7\u4e03\u5b9d\u8d2d\u7269\u5e7f\u573a\u5e97)", "biz": "080308 \u4f53\u80b2\u4f11\u95f2\u670d\u52a1;\u5a31\u4e50\u573a\u6240;\u7f51\u5427", "pty": "0803"}}, {"type": "Feature", "geometry": {"type": "Point", "coordinates": [121.48879572544706, 31.07549546125375]}, "properties": {"name": "\u666f\u5cf0\u7f51\u7edc\u5bb6\u56ed\u52a8\u6f2b(\u57ce\u6d66\u96ea\u5e97)", "biz": "080308 \u4f53\u80b2\u4f11\u95f2\u670d\u52a1;\u5a31\u4e50\u573a\u6240;\u7f51\u5427", "pty": "0803"}}, {"type": "Feature", "geometry": {"type": "Point", "coordinates": [121.38495504048552, 31.111153485923303]}, "properties": {"name": "\u5fd7\u5e06\u7f51\u5496", "biz": "080308 \u4f53\u80b2\u4f11\u95f2\u670d\u52a1;\u5a31\u4e50\u573a\u6240;\u7f51\u5427", "pty": "0803"}}, {"type": "Feature", "geometry": {"type": "Point", "coordinates": [121.34531325444834, 31.16066708522057]}, "properties": {"name": "\u7f57\u5fb7\u7f51\u5496", "biz": "080308 \u4f53\u80b2\u4f11\u95f2\u670d\u52a1;\u5a31\u4e50\u573a\u6240;\u7f51\u5427", "pty": "0803"}}, {"type": "Feature", "geometry": {"type": "Point", "coordinates": [121.38127170306745, 31.145205315803988]}, "properties": {"name": "\u4e2d\u6570\u7f51\u5496(\u9f99\u8317\u5e97)", "biz": "080308 \u4f53\u80b2\u4f11\u95f2\u670d\u52a1;\u5a31\u4e50\u573a\u6240;\u7f51\u5427", "pty": "0803"}}, {"type": "Feature", "geometry": {"type": "Point", "coordinates": [121.4072860738028, 31.060269679242783]},