{"type": "FeatureCollection", "features": [{"type": "Feature", "geometry": {"type": "Point", "coordinates": [121.47089248726815, 31.221396065647063]}, "properties": {"name": "EL LUCHADOR(\u4e0a\u6d77\u65b0\u5929\u5730\u5357\u91cc)", "biz": "050216 \u9910\u996e\u670d\u52a1;\u5916\u56fd\u9910\u5385;\u58a8\u897f\u54e5\u83dc", "pty": "0502"}}, {"type": "Feature", "geometry": {"type": "Point", "coordinates": [121.43581532222014, 31.19873037534304]}, "properties": {"name": "pistolera\u58a8\u897f\u54e5\u9910\u5385", "biz": "050216 \u9910\u996e\u670d\u52a1;\u5916\u56fd\u9910\u5385;\u58a8\u897f\u54e5\u83dc", "pty": "0502"}}, {"type": "Feature", "geometry": {"type": "Point", "coordinates": [121.45158467835276, 31.206461593196238]}, "properties": {"name": "La Coyota\u58a8\u897f\u54e5\u98ce\u5473\u7f8e\u98df", "biz": "050216 \u9910\u996e\u670d\u52a1;\u5916\u56fd\u9910\u5385;\u58a8\u897f\u54e5\u83dc", "pty": "0502"}}, {"type": "Feature", "geometry": {"type": "Point", "coordinates": [121.45401675315725, 31.212893043001035]}, "properties": {"name": "ELLUCHITO TRCOS&TEOUILR", "biz": "050216 \u9910\u996e\u670d\u52a1;\u5916\u56fd\u9910\u5385;\u58a8\u897f\u54e5\u83dc", "pty": "0502"}}, {"type": "Feature", "geometry": {"type": "Point", "coordinates": [121.44784985509007, 31.21913337242633]}, "properties": {"name": "Cantina Agave", "biz": "050216 \u9910\u996e\u670d\u52a1;\u5916\u56fd\u9910\u5385;\u58a8\u897f\u54e5\u83dc", "pty": "0502"}}, {"type": "Feature", "geometry": {"type": "Point", "coordinates": [121.37874051554002, 31.195252498434666]}, "properties": {"name": "\u4e0a\u6d77\u7075\u5f97\u58a8\u897f\u54e5\u9910\u5385", "biz": "050216 \u9910\u996e\u670d\u52a1;\u5916\u56fd\u9910\u5385;\u58a8\u897f\u54e5\u83dc", "pty": "0502"}}, {"type": "Feature", "geometry": {"type": "Point", "coordinates": [121.45119913366817, 31.22403034623541]}, "properties": {"name": "MAYA\u739b\u96c5\u58a8\u897f\u54e5\u9910\u5385(\u56db\u65b9\u65b0\u57ce\u5e97)", "biz": "050216 \u9910\u996e\u670d\u52a1;\u5916\u56fd\u9910\u5385;\u58a8\u897f\u54e5\u83dc", "pty": "0502"}}, {"type": "Feature", "geometry": {"type": "Point", "coordinates": [121.43492638613016, 31.23545644475693]}, "properties": {"name": "\u4ed9\u4eba\u638c\u58a8\u897f\u54e5\u9910\u5385", "biz": "050216 \u9910\u996e\u670d\u52a1;\u5916\u56fd\u9910\u5385;\u58a8\u897f\u54e5\u83dc", "pty": "0502"}}, {"type": "Feature", "geometry": {"type": "Point", "coordinates": [121.50430858181144, 31.29865847202821]}, "properties": {"name": "LaBamba\u58a8\u897f\u54e5\u897f\u9910\u5385", "biz": "050216 \u9910\u996e\u670d\u52a1;\u5916\u56fd\u9910\u5385;\u58a8\u897f\u54e5\u83dc", "pty": "0502"}}, {"type": "Feature", "geometry": {"type": "Point", "coordinates": [121.43014225599049, 31.019789585316392]}, "properties": {"name": "La Bamba(\u4e1c\u5ddd\u8def)", "biz": "050216|080304 \u9910\u996e\u670d\u52a1;\u5916\u56fd\u9910\u5385;\u58a8\u897f\u54e5\u83dc|\u4f53\u80b2\u4f11\u95f2\u670d\u52a1;\u5a31\u4e50\u573a\u6240;\u9152\u5427", "pty": "0502"}}, {"type": "Feature", "geometry": {"type": "Point", "coordinates": [121.44030743078393, 31.04006343743185]}, "properties": {"name": "Mexican Restaurant", "biz": "050216 \u9910\u996e\u670d\u52a1;\u5916\u56fd\u9910\u5385;\u58a8\u897f\u54e5\u83dc", "pty": "0502"}}, {"type": "Feature", "geometry": {"type": "Point", "coordinates": [121.55704589587347, 31.213424157319423]}, "properties": {"name": "Dali's Mexican Food", "biz": "050216 \u9910\u996e\u670d\u52a1;\u5916\u56fd\u9910\u5385;\u58a8\u897f\u54e5\u83dc", "pty": "0502"}}, {"type": "Feature", "geometry": {"type": "Point", "coordinates": [121.58757482911707, 31.313714495856082]}, "properties": {"name": "\u62ff\u5de7", "biz": "050216 \u9910\u996e\u670d\u52a1;\u5916\u56fd\u9910\u5385;\u58a8\u897f\u54e5\u83dc", "pty": "0502"}}, {"type": "Feature", "geometry": {"type": "Point", "coordinates": [121.5824283189784, 31.243779754110978]}, "properties": {"name": "Pistolera(\u78a7\u4e91\u8def\u5e97)", "biz": "050216 \u9910\u996e\u670d\u52a1;\u5916\u56fd\u9910\u5385;\u58a8\u897f\u54e5\u83dc", "pty": "0502"}}, {"type": "Feature", "geometry": {"type": "Point", "coordinates": [121.38084304165456, 31.31729445499108]}, "properties": {"name": "\u58a8\u897f\u54e5\u9910\u5385", "biz": "050216 \u9910\u996e\u670d\u52a1;\u5916\u56fd\u9910\u5385;\u58a8\u897f\u54e5\u83dc", "pty": "0502"}}, {"type": "Feature", "geometry": {"type": "Point", "coordinates": [121.43014225599049, 31.019789585316392]}, "properties": {"name": "La Bamba(\u4e1c\u5ddd\u8def)", "biz": "050216|080304 \u9910\u996e\u670d\u52a1;\u5916\u56fd\u9910\u5385;\u58a8\u897f\u54e5\u83dc|\u4f53\u80b2\u4f11\u95f2\u670d\u52a1;\u5a31\u4e50\u573a\u6240;\u9152\u5427", "pty": "0502"}}]}