{"type": "FeatureCollection", "features": [{"type": "Feature", "geometry": {"type": "Point", "coordinates": [121.47242548065765, 31.23400042887106]}, "properties": {"name": "\u98df\u4e4b\u79d8(\u6765\u798f\u58eb\u5e7f\u573a)(\u88c5\u4fee\u4e2d)", "biz": "050800|050200 \u9910\u996e\u670d\u52a1;\u7cd5\u997c\u5e97;\u7cd5\u997c\u5e97|\u9910\u996e\u670d\u52a1;\u5916\u56fd\u9910\u5385;\u5916\u56fd\u9910\u5385", "pty": "0508"}}, {"type": "Feature", "geometry": {"type": "Point", "coordinates": [121.43455921748577, 31.19455337135317]}, "properties": {"name": "Secert Recipe\u98df\u4e4b\u79d8(\u7f8e\u7f57\u57ce)", "biz": "050800|050200 \u9910\u996e\u670d\u52a1;\u7cd5\u997c\u5e97;\u7cd5\u997c\u5e97|\u9910\u996e\u670d\u52a1;\u5916\u56fd\u9910\u5385;\u5916\u56fd\u9910\u5385", "pty": "0508"}}, {"type": "Feature", "geometry": {"type": "Point", "coordinates": [121.46995032670054, 31.222228089741193]}, "properties": {"name": "La Moda(\u65d7\u8230\u5e97)", "biz": "050500|050400|050200 \u9910\u996e\u670d\u52a1;\u5496\u5561\u5385;\u5496\u5561\u5385|\u9910\u996e\u670d\u52a1;\u4f11\u95f2\u9910\u996e\u573a\u6240;\u4f11\u95f2\u9910\u996e\u573a\u6240|\u9910\u996e\u670d\u52a1;\u5916\u56fd\u9910\u5385;\u5916\u56fd\u9910\u5385", "pty": "0505"}}, {"type": "Feature", "geometry": {"type": "Point", "coordinates": [121.43984357110693, 31.22372439917144]}, "properties": {"name": "10 Corso Como Cafe", "biz": "050200|050500 \u9910\u996e\u670d\u52a1;\u5916\u56fd\u9910\u5385;\u5916\u56fd\u9910\u5385|\u9910\u996e\u670d\u52a1;\u5496\u5561\u5385;\u5496\u5561\u5385", "pty": "0502"}}, {"type": "Feature", "geometry": {"type": "Point", "coordinates": [121.50403001499882, 31.305394998706657]}, "properties": {"name": "KANES COFFEE", "biz": "050200|050500 \u9910\u996e\u670d\u52a1;\u5916\u56fd\u9910\u5385;\u5916\u56fd\u9910\u5385|\u9910\u996e\u670d\u52a1;\u5496\u5561\u5385;\u5496\u5561\u5385", "pty": "0502"}}, {"type": "Feature", "geometry": {"type": "Point", "coordinates": [121.4688440600917, 31.21834191705994]}, "properties": {"name": "MR.SHAKER", "biz": "080304|050200 \u4f53\u80b2\u4f11\u95f2\u670d\u52a1;\u5a31\u4e50\u573a\u6240;\u9152\u5427|\u9910\u996e\u670d\u52a1;\u5916\u56fd\u9910\u5385;\u5916\u56fd\u9910\u5385", "pty": "0803"}}, {"type": "Feature", "geometry": {"type": "Point", "coordinates": [121.46995032670054, 31.222228089741193]}, "properties": {"name": "La Moda(\u65d7\u8230\u5e97)", "biz": "050500|050400|050200 \u9910\u996e\u670d\u52a1;\u5496\u5561\u5385;\u5496\u5561\u5385|\u9910\u996e\u670d\u52a1;\u4f11\u95f2\u9910\u996e\u573a\u6240;\u4f11\u95f2\u9910\u996e\u573a\u6240|\u9910\u996e\u670d\u52a1;\u5916\u56fd\u9910\u5385;\u5916\u56fd\u9910\u5385", "pty": "0505"}}, {"type": "Feature", "geometry": {"type": "Point", "coordinates": [121.46817694447226, 31.194520661418426]}, "properties": {"name": "Pizzeria Alla Hungry(\u6d77\u5916\u6ee9)", "biz": "050200|050400 \u9910\u996e\u670d\u52a1;\u5916\u56fd\u9910\u5385;\u5916\u56fd\u9910\u5385|\u9910\u996e\u670d\u52a1;\u4f11\u95f2\u9910\u996e\u573a\u6240;\u4f11\u95f2\u9910\u996e\u573a\u6240", "pty": "0502"}}, {"type": "Feature", "geometry": {"type": "Point", "coordinates": [121.4688440600917, 31.21834191705994]}, "properties": {"name": "MR.SHAKER", "biz": "080304|050200 \u4f53\u80b2\u4f11\u95f2\u670d\u52a1;\u5a31\u4e50\u573a\u6240;\u9152\u5427|\u9910\u996e\u670d\u52a1;\u5916\u56fd\u9910\u5385;\u5916\u56fd\u9910\u5385", "pty": "0803"}}, {"type": "Feature", "geometry": {"type": "Point", "coordinates": [121.47281965269583, 31.223956198569358]}, "properties": {"name": "ifuku\u4e95\u798f\u65e5\u6599(\u592a\u4ed3\u8def\u5e97)", "biz": "050200 \u9910\u996e\u670d\u52a1;\u5916\u56fd\u9910\u5385;\u5916\u56fd\u9910\u5385", "pty": "0502"}}, {"type": "Feature", "geometry": {"type": "Point", "coordinates": [121.47282261733812, 31.20108917368231]}, "properties": {"name": "\u9c91\u9c7c\u5de5\u574a(\u9c81\u73ed\u8def\u5e97)", "biz": "050200 \u9910\u996e\u670d\u52a1;\u5916\u56fd\u9910\u5385;\u5916\u56fd\u9910\u5385", "pty": "0502"}}, {"type": "Feature", "geometry": {"type": "Point", "coordinates": [121.50293934186811, 31.219802801299515]}, "properties": {"name": "CYK CLUB\u4e3b\u9898\u7b80\u5427", "biz": "050200 \u9910\u996e\u670d\u52a1;\u5916\u56fd\u9910\u5385;\u5916\u56fd\u9910\u5385", "pty": "0502"}}, {"type": "Feature", "geometry": {"type": "Point", "coordinates": [121.47161435198782, 31.215745737516013]}, "properties": {"name": "Meka", "biz": "050200 \u9910\u996e\u670d\u52a1;\u5916\u56fd\u9910\u5385;\u5916\u56fd\u9910\u5385", "pty": "0502"}}, {"type": "Feature", "geometry": {"type": "Point", "coordinates": [121.46126169869079, 31.225262767270337]}, "properties": {"name": "Zapfler(158\u574a\u5e97)", "biz": "050200 \u9910\u996e\u670d\u52a1;\u5916\u56fd\u9910\u5385;\u5916\u56fd\u9910\u5385", "pty": "0502"}}, {"type": "Feature", "geometry": {"type": "Point", "coordinates": [121.47349181540885, 31.236630196313783]}, "properties": {"name": "\u5343\u827e\u94db\u94db\u8f66\u5c45\u9152\u5c4b(\u4eba\u6c11\u5e7f\u573a\u5e97)", "biz": "050200 \u9910\u996e\u670d\u52a1;\u5916\u56fd\u9910\u5385;\u5916\u56fd\u9910\u5385", "pty": "0502"}}, {"type": "Feature", "geometry": {"type": "Point", "coordinates": [121.50297052031958, 31.219012268620745]}, "properties": {"name": "\u8001\u7c73\u86c7\u5320\u5364\u6c34\u6599\u7406", "biz": "050200 \u9910\u996e\u670d\u52a1;\u5916\u56fd\u9910\u5385;\u5916\u56fd\u9910\u5385", "pty": "0502"}}, {"type": "Feature", "geometry": {"type": "Point", "coordinates": [121.46413297229783, 31.208140285183287]}, "properties": {"name": "\u89d2\u5c4b\u5317\u6d77\u9053\u70e7\u8089\u4e13\u95e8\u5e97(\u65e5\u6708\u5149\u5e97)", "biz": "050200 \u9910\u996e\u670d\u52a1;\u5916\u56fd\u9910\u5385;\u5916\u56fd\u9910\u5385", "pty": "0502"}}, {"type": "Feature", "geometry": {"type": "Point", "coordinates": [121.49385281305314, 31.229664989101114]}, "properties": {"name": "\u98e3-\u65e5\u5f0f\u6599\u7406(\u5916\u6ee9\u5e97)", "biz": "050200 \u9910\u996e\u670d\u52a1;\u5916\u56fd\u9910\u5385;\u5916\u56fd\u9910\u5385", "pty": "0502"}}, {"type": "Feature", "geometry": {"type": "Point", "coordinates": [121.48246133087613, 31.24007835597342]}, "properties": {"name": "Light&SaltBackstage\u5149\u4e0e\u76d0(\u5357\u4eac\u4e1c\u8def\u5e97)", "biz": "050200 \u9910\u996e\u670d\u52a1;\u5916\u56fd\u9910\u5385;\u5916\u56fd\u9910\u5385", "pty": "0502"}}, {"type": "Feature", "geometry": {"type": "Point", "coordinates": [121.47287195080142, 31.222510024551838]}, "properties": {"name": "\u5927\u962a\u70e7\u8089(\u65e0\u9650\u6781\u835f\u5e97)", "biz": "050200 \u9910\u996e\u670d\u52a1;\u5916\u56fd\u9910\u5385;\u5916\u56fd\u9910\u5385", "pty": "0502"}}, {"type": "Feature", "geometry": {"type": "Point", "coordinates": [121.49274675093292, 31.23064122232163]}, "properties": {"name": "\u8239\u957f8\u53f7", "biz": "050200 \u9910\u996e\u670d\u52a1;\u5916\u56fd\u9910\u5385;\u5916\u56fd\u9910\u5385", "pty": "0502"}}, {"type": "Feature", "geometry": {"type": "Point", "coordinates": [121.46181439193474, 31.225050268599883]}, "properties": {"name": "BOTECO(158\u574a\u5e97)", "biz": "050200 \u9910\u996e\u670d\u52a1;\u5916\u56fd\u9910\u5385;\u5916\u56fd\u9910\u5385", "pty": "0502"}}, {"type": "Feature", "geometry": {"type": "Point", "coordinates": [121.46997584871072, 31.217104585199554]}, "properties": {"name": "\u6885\u5320(Soho\u590d\u5174\u5e7f\u573a)", "biz": "050200 \u9910\u996e\u670d\u52a1;\u5916\u56fd\u9910\u5385;\u5916\u56fd\u9910\u5385", "pty": "0502"}}, {"type": "Feature", "geometry": {"type": "Point", "coordinates": [121.45994816429885, 31.220525697670183]}, "properties": {"name": "\u725b\u5c0f\u65b0\u70e7\u8089\u5c4b(\u6dee\u6d77\u4e2d\u8def\u5e97)", "biz": "050200 \u9910\u996e\u670d\u52a1;\u5916\u56fd\u9910\u5385;\u5916\u56fd\u9910\u5385", "pty": "0502"}}, {"type": "Feature", "geometry": {"type": "Point", "coordinates": [121.47557570674805, 31.238213344316488]}, "properties": {"name": "\u4e00\u9505\u5165\u9b42\u65e5\u5f0f\u706b\u9505(\u5357\u4eac\u4e1c\u8def\u5e97)", "biz": "050200 \u9910\u996e\u670d\u52a1;\u5916\u56fd\u9910\u5385;\u5916\u56fd\u9910\u5385", "pty": "0502"}}, {"type": "Feature", "geometry": {"type": "Point", "coordinates": [121.46995032670054, 31.222228089741193]}, "properties": {"name": "La Moda(\u65d7\u8230\u5e97)", "biz": "050500|050400|050200 \u9910\u996e\u670d\u52a1;\u5496\u5561\u5385;\u5496\u5561\u5385|\u9910\u996e\u670d\u52a1;\u4f11\u95f2\u9910\u996e\u573a\u6240;\u4f11\u95f2\u9910\u996e\u573a\u6240|\u9910\u996e\u670d\u52a1;\u5916\u56fd\u9910\u5385;\u5916\u56fd\u9910\u5385", "pty": "0505"}}, {"type": "Feature", "geometry": {"type": "Point", "coordinates": [121.4827026795488, 31.23418975837528]}, "properties": {"name": "\u4e07\u5c9b\u65e5\u672c\u6599\u7406\u94c1\u677f\u70e7(\u5ef6\u5b89\u4e1c\u8def\u5e97)", "biz": "050200 \u9910\u996e\u670d\u52a1;\u5916\u56fd\u9910\u5385;\u5916\u56fd\u9910\u5385", "pty": "0502"}}, {"type": "Feature", "geometry": {"type": "Point", "coordinates": [121.47109214395384, 31.221404611365177]}, "properties": {"name": "\u5c45\u9152\u5c4b(\u65b0\u5929\u5730\u5e97)", "biz": "050200 \u9910\u996e\u670d\u52a1;\u5916\u56fd\u9910\u5385;\u5916\u56fd\u9910\u5385", "pty": "0502"}}, {"type": "Feature", "geometry": {"type": "Point", "coordinates": [121.46424204329541, 31.222923517278826]}, "properties": {"name": "\u539f\u7d20Essence\u897f\u9910(\u6dee\u6d77\u4e2d\u8def\u5e97)", "biz": "050200 \u9910\u996e\u670d\u52a1;\u5916\u56fd\u9910\u5385;\u5916\u56fd\u9910\u5385", "pty": "0502"}}, {"type": "Feature", "geometry": {"type": "Point", "coordinates": [121.49523808887783, 31.226270723784086]}, "properties": {"name": "\u6ee8\u6c5f\u6b23\u666f\u5927\u9152\u5e97-\u6587\u8f69\u5385", "biz": "050200 \u9910\u996e\u670d\u52a1;\u5916\u56fd\u9910\u5385;\u5916\u56fd\u9910\u5385", "pty": "0502"}}, {"type": "Feature", "geometry": {"type": "Point", "coordinates": [121.46975981758185, 31.220909191734147]}, "properties": {"name": "FUSEYA\u4fbf\u5f53", "biz": "050200 \u9910\u996e\u670d\u52a1;\u5916\u56fd\u9910\u5385;\u5916\u56fd\u9910\u5385", "pty": "0502"}}, {"type": "Feature", "geometry": {"type": "Point", "coordinates": [121.47642950354992, 31.239470197514912]}, "properties": {"name": "\u91d1\u5c0f\u59d0\u7684\u8f7b\u98df\u53a8\u623f(\u4eba\u6c11\u5e7f\u573a\u5e97)", "biz": "050200 \u9910\u996e\u670d\u52a1;\u5916\u56fd\u9910\u5385;\u5916\u56fd\u9910\u5385", "pty": "0502"}}, {"type": "Feature", "geometry": {"type": "Point", "coordinates": [121.4745643260598, 31.237735703426118]}, "properties": {"name": "\u58f9\u9505\u9c7b\u6d77\u9c9c\u81ea\u52a9\u9910", "biz": "050200 \u9910\u996e\u670d\u52a1;\u5916\u56fd\u9910\u5385;\u5916\u56fd\u9910\u5385", "pty": "0502"}}, {"type": "Feature", "geometry": {"type": "Point", "coordinates": [121.48529930333513, 31.240465528368297]}, "properties": {"name": "Ultraviolet by Paul Pairet(\u5916\u6ee9\u5e97)", "biz": "050200 \u9910\u996e\u670d\u52a1;\u5916\u56fd\u9910\u5385;\u5916\u56fd\u9910\u5385", "pty": "0502"}}, {"type": "Feature", "geometry": {"type": "Point", "coordinates": [121.47254656060413, 31.237775033631287]}, "properties": {"name": "\u4e45\u5566\u4e3c\u4e3c(\u5357\u4eac\u8def\u5e97)", "biz": "050200 \u9910\u996e\u670d\u52a1;\u5916\u56fd\u9910\u5385;\u5916\u56fd\u9910\u5385", "pty": "0502"}}, {"type": "Feature", "geometry": {"type": "Point", "coordinates": [121.45253768901216, 31.224564110495844]}, "properties": {"name": "\u7eb3\u8c46\u65e5\u672c\u6599\u7406(\u57ce\u5e02\u9152\u5e97\u5e97)", "biz": "050200 \u9910\u996e\u670d\u52a1;\u5916\u56fd\u9910\u5385;\u5916\u56fd\u9910\u5385", "pty": "0502"}}, {"type": "Feature", "geometry": {"type": "Point", "coordinates": [121.4866719295821, 31.24335228301768]}, "properties": {"name": "Le Rivage\u6cd5\u9910\u5385", "biz": "050200 \u9910\u996e\u670d\u52a1;\u5916\u56fd\u9910\u5385;\u5916\u56fd\u9910\u5385", "pty": "0502"}}, {"type": "Feature", "geometry": {"type": "Point", "coordinates": [121.46817694447226, 31.194520661418426]}, "properties": {"name": "Pizzeria Alla Hungry(\u6d77\u5916\u6ee9)", "biz": "050200|050400 \u9910\u996e\u670d\u52a1;\u5916\u56fd\u9910\u5385;\u5916\u56fd\u9910\u5385|\u9910\u996e\u670d\u52a1;\u4f11\u95f2\u9910\u996e\u573a\u6240;\u4f11\u95f2\u9910\u996e\u573a\u6240", "pty": "0502"}}, {"type": "Feature", "geometry": {"type": "Point", "coordinates": [121.45965829173272, 31.22064591916321]}, "properties": {"name": "Uncle5(\u4e0a\u6d77\u4e1c\u65b9\u5546\u53a6\u5e97)", "biz": "050200 \u9910\u996e\u670d\u52a1;\u5916\u56fd\u9910\u5385;\u5916\u56fd\u9910\u5385", "pty": "0502"}}, {"type": "Feature", "geometry": {"type": "Point", "coordinates": [121.4735043273031, 31.20773784389796]}, "properties": {"name": "Favorita\u610f\u5927\u5229\u9910\u5385(\u8499\u81ea\u8def\u5e97)", "biz": "050200 \u9910\u996e\u670d\u52a1;\u5916\u56fd\u9910\u5385;\u5916\u56fd\u9910\u5385", "pty": "0502"}}, {"type": "Feature", "geometry": {"type": "Point", "coordinates": [121.45820144102532, 31.21552575852526]}, "properties": {"name": "\u7eb9\u5175\u536b(\u745e\u91d1\u5927\u53a6\u5e97)", "biz": "050200 \u9910\u996e\u670d\u52a1;\u5916\u56fd\u9910\u5385;\u5916\u56fd\u9910\u5385", "pty": "0502"}}, {"type": "Feature", "geometry": {"type": "Point", "coordinates": [121.49218479640315, 31.229867898672914]}, "properties": {"name": "\u4e07\u8fbe\u745e\u534e\u548c\u65e5\u6599\u9910\u5385", "biz": "050200 \u9910\u996e\u670d\u52a1;\u5916\u56fd\u9910\u5385;\u5916\u56fd\u9910\u5385", "pty": "0502"}}, {"type": "Feature", "geometry": {"type": "Point", "coordinates": [121.47242548065765, 31.23400042887106]}, "properties": {"name": "\u98df\u4e4b\u79d8(\u6765\u798f\u58eb\u5e7f\u573a)(\u88c5\u4fee\u4e2d)", "biz": "050800|050200 \u9910\u996e\u670d\u52a1;\u7cd5\u997c\u5e97;\u7cd5\u997c\u5e97|\u9910\u996e\u670d\u52a1;\u5916\u56fd\u9910\u5385;\u5916\u56fd\u9910\u5385", "pty": "0508"}}, {"type": "Feature", "geometry": {"type": "Point", "coordinates": [121.49370667607405, 31.21327428604351]}, "properties": {"name": "\u739b\u683c\u841d\u59ae\u9910\u5385(\u9646\u5bb6\u6d5c\u8def\u5e97)", "biz": "050200 \u9910\u996e\u670d\u52a1;\u5916\u56fd\u9910\u5385;\u5916\u56fd\u9910\u5385", "pty": "0502"}}, {"type": "Feature", "geometry": {"type": "Point", "coordinates": [121.45929533029116, 31.219316647723417]}, "properties": {"name": "\u5e15\u590f\u571f\u8033\u5176\u9910\u5385", "biz": "050200 \u9910\u996e\u670d\u52a1;\u5916\u56fd\u9910\u5385;\u5916\u56fd\u9910\u5385", "pty": "0502"}}, {"type": "Feature", "geometry": {"type": "Point", "coordinates": [121.47562163717784, 31.22914865245955]}, "properties": {"name": "\u548c\u756a(\u4e9a\u9f99\u5e7f\u573a\u5e97)", "biz": "050200 \u9910\u996e\u670d\u52a1;\u5916\u56fd\u9910\u5385;\u5916\u56fd\u9910\u5385", "pty": "0502"}}, {"type": "Feature", "geometry": {"type": "Point", "coordinates": [121.46181439193474, 31.225050268599883]}, "properties": {"name": "CYCLO(158\u574a\u5e97)", "biz": "050200 \u9910\u996e\u670d\u52a1;\u5916\u56fd\u9910\u5385;\u5916\u56fd\u9910\u5385", "pty": "0502"}}, {"type": "Feature", "geometry": {"type": "Point", "coordinates": [121.46472484408665, 31.207832978170806]}, "properties": {"name": "CrazyOnes(\u65e5\u6708\u5149\u5e97)", "biz": "050200 \u9910\u996e\u670d\u52a1;\u5916\u56fd\u9910\u5385;\u5916\u56fd\u9910\u5385", "pty": "0502"}}, {"type": "Feature", "geometry": {"type": "Point", "coordinates": [121.47283064924032, 31.201029225409325]}, "properties": {"name": "\u7280\u53a8", "biz": "050200 \u9910\u996e\u670d\u52a1;\u5916\u56fd\u9910\u5385;\u5916\u56fd\u9910\u5385", "pty": "0502"}}, {"type": "Feature", "geometry": {"type": "Point", "coordinates": [121.48031893844468, 31.23902259061685]}, "properties": {"name": "MAKI HOUSE(\u5b8f\u4f0a\u56fd\u9645\u5e7f\u573a\u5e97)", "biz": "050200 \u9910\u996e\u670d\u52a1;\u5916\u56fd\u9910\u5385;\u5916\u56fd\u9910\u5385", "pty": "0502"}}, {"type": "Feature", "geometry": {"type": "Point", "coordinates": [121.45697048208687, 31.22005561868149]}, "properties": {"name": "\u70e7\u8089\u5947\u4fa0(\u8302\u540d\u8def\u5e97)", "biz": "050200 \u9910\u996e\u670d\u52a1;\u5916\u56fd\u9910\u5385;\u5916\u56fd\u9910\u5385", "pty": "0502"}}, {"type": "Feature", "geometry": {"type": "Point", "coordinates": [121.4639142253437, 31.208927336386]}, "properties": {"name": "\u5b89\u4e3d\u65af\u00b7\u5fb7\u56fd\u70e7\u70e4(\u65e5\u6708\u5149\u4e2d\u5fc3\u897f\u533a)", "biz": "050200 \u9910\u996e\u670d\u52a1;\u5916\u56fd\u9910\u5385;\u5916\u56fd\u9910\u5385", "pty": "0502"}}, {"type": "Feature", "geometry": {"type": "Point", "coordinates": [121.47965984213067, 31.236774707434034]}, "properties": {"name": "M1NT", "biz": "050200 \u9910\u996e\u670d\u52a1;\u5916\u56fd\u9910\u5385;\u5916\u56fd\u9910\u5385", "pty": "0502"}}, {"type": "Feature", "geometry": {"type": "Point", "coordinates": [121.47986602583404, 31.231279835450767]}, "properties": {"name": "NYC Deli", "biz": "050200 \u9910\u996e\u670d\u52a1;\u5916\u56fd\u9910\u5385;\u5916\u56fd\u9910\u5385", "pty": "0502"}}, {"type": "Feature", "geometry": {"type": "Point", "coordinates": [121.47231792409114, 31.23632506162832]}, "properties": {"name": "YOLO bar", "biz": "050200 \u9910\u996e\u670d\u52a1;\u5916\u56fd\u9910\u5385;\u5916\u56fd\u9910\u5385", "pty": "0502"}}, {"type": "Feature", "geometry": {"type": "Point", "coordinates": [121.48560073547208, 31.224433826583258]}, "properties": {"name": "\u597d\u70e7\u65e5\u97e9\u7b80\u9910(\u9999\u6e2f\u540d\u90fd)", "biz": "050200 \u9910\u996e\u670d\u52a1;\u5916\u56fd\u9910\u5385;\u5916\u56fd\u9910\u5385", "pty": "0502"}}, {"type": "Feature", "geometry": {"type": "Point", "coordinates": [121.50296643439589, 31.219856856326594]}, "properties": {"name": "\u5ead\u6ed41903", "biz": "050200 \u9910\u996e\u670d\u52a1;\u5916\u56fd\u9910\u5385;\u5916\u56fd\u9910\u5385", "pty": "0502"}}, {"type": "Feature", "geometry": {"type": "Point", "coordinates": [121.47081183424316, 31.23760631144183]}, "properties": {"name": "\u85aa\u706b\u70e7\u8089\u6e90\u4e4b\u5c4b(\u7b2c\u4e00\u767e\u8d27\u5e97)", "biz": "050200 \u9910\u996e\u670d\u52a1;\u5916\u56fd\u9910\u5385;\u5916\u56fd\u9910\u5385", "pty": "0502"}}, {"type": "Feature", "geometry": {"type": "Point", "coordinates": [121.4722267885779, 31.234369706696906]}, "properties": {"name": "Aza Aza!\u829d\u5fc3\u5e74\u7cd5\u6599\u7406(\u4e0a\u6d77\u6765\u798f\u58eb\u5e97)", "biz": "050200 \u9910\u996e\u670d\u52a1;\u5916\u56fd\u9910\u5385;\u5916\u56fd\u9910\u5385", "pty": "0502"}}, {"type": "Feature", "geometry": {"type": "Point", "coordinates": [121.47033191272662, 31.19490932700075]}, "properties": {"name": "\u6d77\u5bb4\u9910\u5385", "biz": "050200 \u9910\u996e\u670d\u52a1;\u5916\u56fd\u9910\u5385;\u5916\u56fd\u9910\u5385", "pty": "0502"}}, {"type": "Feature", "geometry": {"type": "Point", "coordinates": [121.48613357953768, 31.236734699056626]}, "properties": {"name": "\u60a6\u00b76", "biz": "050200 \u9910\u996e\u670d\u52a1;\u5916\u56fd\u9910\u5385;\u5916\u56fd\u9910\u5385", "pty": "0502"}}, {"type": "Feature", "geometry": {"type": "Point", "coordinates": [121.46399254611309, 31.208021977207796]}, "properties": {"name": "\u767e\u7279\u559c\u610f\u5f0f\u9910\u5385(\u65e5\u6708\u5149\u5e97)", "biz": "050200 \u9910\u996e\u670d\u52a1;\u5916\u56fd\u9910\u5385;\u5916\u56fd\u9910\u5385", "pty": "0502"}}, {"type": "Feature", "geometry": {"type": "Point", "coordinates": [121.501184842782, 31.222206436382212]}, "properties": {"name": "Table No1", "biz": "050200 \u9910\u996e\u670d\u52a1;\u5916\u56fd\u9910\u5385;\u5916\u56fd\u9910\u5385", "pty": "0502"}}, {"type": "Feature", "geometry": {"type": "Point", "coordinates": [121.49214167196716, 31.229507936825033]}, "properties": {"name": "\u7f8e\u98df\u6c47", "biz": "050200 \u9910\u996e\u670d\u52a1;\u5916\u56fd\u9910\u5385;\u5916\u56fd\u9910\u5385", "pty": "0502"}}, {"type": "Feature", "geometry": {"type": "Point", "coordinates": [121.48586971611606, 31.22411877022059]}, "properties": {"name": "\u7acb\u65b9\u94c1\u94c1\u677f\u70e7(\u9999\u6e2f\u540d\u90fd\u5e97)", "biz": "050200 \u9910\u996e\u670d\u52a1;\u5916\u56fd\u9910\u5385;\u5916\u56fd\u9910\u5385", "pty": "0502"}}, {"type": "Feature", "geometry": {"type": "Point", "coordinates": [121.48532138503688, 31.240424612219982]}, "properties": {"name": "Ginza Onodera(\u5916\u6ee9\u5e97)", "biz": "050200 \u9910\u996e\u670d\u52a1;\u5916\u56fd\u9910\u5385;\u5916\u56fd\u9910\u5385", "pty": "0502"}}, {"type": "Feature", "geometry": {"type": "Point", "coordinates": [121.46439582009823, 31.20779613639684]}, "properties": {"name": "\u539a\u8c9e\u725b\u820c\u70e7\u8089(\u5f90\u6c47\u5e97)", "biz": "050200 \u9910\u996e\u670d\u52a1;\u5916\u56fd\u9910\u5385;\u5916\u56fd\u9910\u5385", "pty": "0502"}}, {"type": "Feature", "geometry": {"type": "Point", "coordinates": [121.46440366393121, 31.233210145385904]}, "properties": {"name": "\u7075\u683c\u897f\u9910\u5385", "biz": "050200 \u9910\u996e\u670d\u52a1;\u5916\u56fd\u9910\u5385;\u5916\u56fd\u9910\u5385", "pty": "0502"}}, {"type": "Feature", "geometry": {"type": "Point", "coordinates": [121.4644519449253, 31.20838100011012]}, "properties": {"name": "\u5229\u518d\u71c3(\u65e5\u6708\u5149\u4e2d\u5fc3\u897f\u533a)", "biz": "050200 \u9910\u996e\u670d\u52a1;\u5916\u56fd\u9910\u5385;\u5916\u56fd\u9910\u5385", "pty": "0502"}}, {"type": "Feature", "geometry": {"type": "Point", "coordinates": [121.48538687469863, 31.237397186619773]}, "properties": {"name": "Olive Western Food", "biz": "050200 \u9910\u996e\u670d\u52a1;\u5916\u56fd\u9910\u5385;\u5916\u56fd\u9910\u5385", "pty": "0502"}}, {"type": "Feature", "geometry": {"type": "Point", "coordinates": [121.47968563571611, 31.240242199282413]}, "properties": {"name": "\u878d\u5408\u9a6c\u6765\u897f\u4e9a\u9910\u5385(\u6052\u57fa\u540d\u4eba\u8d2d\u7269\u4e2d\u5fc3)", "biz": "050200 \u9910\u996e\u670d\u52a1;\u5916\u56fd\u9910\u5385;\u5916\u56fd\u9910\u5385", "pty": "0502"}}, {"type": "Feature", "geometry": {"type": "Point", "coordinates": [121.47040148332692, 31.22596656931784]}, "properties": {"name": "\u7af9\u82e5\u91d1\u67aa\u9c7c(\u9999\u6e2f\u5e7f\u573a\u5e97)", "biz": "050200 \u9910\u996e\u670d\u52a1;\u5916\u56fd\u9910\u5385;\u5916\u56fd\u9910\u5385", "pty": "0502"}}, {"type": "Feature", "geometry": {"type": "Point", "coordinates": [121.47723879644933, 31.20986339205577]}, "properties": {"name": "\u5929\u5929\u6d77\u5357\u9e21(\u4e3d\u56ed\u8def\u5e97)", "biz": "050200 \u9910\u996e\u670d\u52a1;\u5916\u56fd\u9910\u5385;\u5916\u56fd\u9910\u5385", "pty": "0502"}}, {"type": "Feature", "geometry": {"type": "Point", "coordinates": [121.47078436982859, 31.218613085052585]}, "properties": {"name": "Bacco vino&Viandes", "biz": "050200 \u9910\u996e\u670d\u52a1;\u5916\u56fd\u9910\u5385;\u5916\u56fd\u9910\u5385", "pty": "0502"}}, {"type": "Feature", "geometry": {"type": "Point", "coordinates": [121.4726553023683, 31.23333837358068]}, "properties": {"name": "\u521d\u9716\u548c\u725b\u70e7\u8089(\u4eba\u6c11\u5e7f\u573a\u5e97)", "biz": "050200 \u9910\u996e\u670d\u52a1;\u5916\u56fd\u9910\u5385;\u5916\u56fd\u9910\u5385", "pty": "0502"}}, {"type": "Feature", "geometry": {"type": "Point", "coordinates": [121.46439664487245, 31.209869137740938]}, "properties": {"name": "ANDALUS\u6469\u6d1b\u54e5\u9910\u5385(\u7530\u5b50\u574a\u5e97)", "biz": "050200 \u9910\u996e\u670d\u52a1;\u5916\u56fd\u9910\u5385;\u5916\u56fd\u9910\u5385", "pty": "0502"}}, {"type": "Feature", "geometry": {"type": "Point", "coordinates": [121.47021230594822, 31.220798480869703]}, "properties": {"name": "\u4e00\u5fc3\u8c5a(\u65b0\u5929\u5730\u5e97)", "biz": "050200 \u9910\u996e\u670d\u52a1;\u5916\u56fd\u9910\u5385;\u5916\u56fd\u9910\u5385", "pty": "0502"}}, {"type": "Feature", "geometry": {"type": "Point", "coordinates": [121.48957820336987, 31.23273078227704]}, "properties": {"name": "SHEWN BUND 22", "biz": "050200 \u9910\u996e\u670d\u52a1;\u5916\u56fd\u9910\u5385;\u5916\u56fd\u9910\u5385", "pty": "0502"}}, {"type": "Feature", "geometry": {"type": "Point", "coordinates": [121.48498615209154, 31.240965376358105]}, "properties": {"name": "\u548c\u5e73\u996d\u5e97\u534e\u61cb\u9601", "biz": "050200 \u9910\u996e\u670d\u52a1;\u5916\u56fd\u9910\u5385;\u5916\u56fd\u9910\u5385", "pty": "0502"}}, {"type": "Feature", "geometry": {"type": "Point", "coordinates": [121.48308528913968, 31.242812943913023]}, "properties": {"name": "VANILLA(\u5916\u6ee9\u5e97)", "biz": "050200 \u9910\u996e\u670d\u52a1;\u5916\u56fd\u9910\u5385;\u5916\u56fd\u9910\u5385", "pty": "0502"}}, {"type": "Feature", "geometry": {"type": "Point", "coordinates": [121.47580326187203, 31.229055211270698]}, "properties": {"name": "\u6a31\u7cb2\u5bff\u53f8(\u91d1\u9675\u4e1c\u8def\u5e97)", "biz": "050200 \u9910\u996e\u670d\u52a1;\u5916\u56fd\u9910\u5385;\u5916\u56fd\u9910\u5385", "pty": "0502"}}, {"type": "Feature", "geometry": {"type": "Point", "coordinates": [121.47365960480609, 31.222280335051494]}, "properties": {"name": "\u4e1c\u7530\u8d8a\u5357\u7c89(\u65b0\u5929\u5730\u5e97)", "biz": "050200 \u9910\u996e\u670d\u52a1;\u5916\u56fd\u9910\u5385;\u5916\u56fd\u9910\u5385", "pty": "0502"}}, {"type": "Feature", "geometry": {"type": "Point", "coordinates": [121.476606136774, 31.227403265205886]}, "properties": {"name": "k9\u521b\u610f\u65e5\u6599(\u6dee\u6d77\u8def\u5e97)", "biz": "050200 \u9910\u996e\u670d\u52a1;\u5916\u56fd\u9910\u5385;\u5916\u56fd\u9910\u5385", "pty": "0502"}}, {"type": "Feature", "geometry": {"type": "Point", "coordinates": [121.50272255619223, 31.21990510763219]}, "properties": {"name": "L.SEVEN\u897f\u9910\u5385(\u5916\u9a6c\u8def\u5e97)", "biz": "050200 \u9910\u996e\u670d\u52a1;\u5916\u56fd\u9910\u5385;\u5916\u56fd\u9910\u5385", "pty": "0502"}}, {"type": "Feature", "geometry": {"type": "Point", "coordinates": [121.4640329077637, 31.21692381217611]}, "properties": {"name": "\u897f\u67cf\u4e3d", "biz": "050200 \u9910\u996e\u670d\u52a1;\u5916\u56fd\u9910\u5385;\u5916\u56fd\u9910\u5385", "pty": "0502"}}, {"type": "Feature", "geometry": {"type": "Point", "coordinates": [121.47393320759224, 31.237665959853384]}, "properties": {"name": "\u6fb3\u8fb0\u7267\u573a(\u4e09\u9633\u767e\u8d27\u5e97)", "biz": "050200 \u9910\u996e\u670d\u52a1;\u5916\u56fd\u9910\u5385;\u5916\u56fd\u9910\u5385", "pty": "0502"}}, {"type": "Feature", "geometry": {"type": "Point", "coordinates": [121.47479727569745, 31.235824236032006]}, "properties": {"name": "\u672c\u5bb6\u65e5\u5f0f\u6599\u7406(\u6d59\u6c5f\u4e2d\u8def\u5e97)", "biz": "050200 \u9910\u996e\u670d\u52a1;\u5916\u56fd\u9910\u5385;\u5916\u56fd\u9910\u5385", "pty": "0502"}}, {"type": "Feature", "geometry": {"type": "Point", "coordinates": [121.47007237262136, 31.23802809064118]}, "properties": {"name": "\u7fe1\u7fe0\u70b9(\u4e0a\u6d77\u5e02\u7b2c\u4e00\u767e\u8d27\u5546\u5e97)", "biz": "050200 \u9910\u996e\u670d\u52a1;\u5916\u56fd\u9910\u5385;\u5916\u56fd\u9910\u5385", "pty": "0502"}}, {"type": "Feature", "geometry": {"type": "Point", "coordinates": [121.4847761900031, 31.243541589703696]}, "properties": {"name": "Sir Elly\u516d\u661f\u6cd5\u56fd\u9910\u5385", "biz": "050200 \u9910\u996e\u670d\u52a1;\u5916\u56fd\u9910\u5385;\u5916\u56fd\u9910\u5385", "pty": "0502"}}, {"type": "Feature", "geometry": {"type": "Point", "coordinates": [121.47204878199241, 31.227540377209564]}, "properties": {"name": "\u6000\u7389\u65e5\u6599\u5bff\u53f8(\u4eba\u6c11\u5e7f\u573a\u5e97)", "biz": "050200 \u9910\u996e\u670d\u52a1;\u5916\u56fd\u9910\u5385;\u5916\u56fd\u9910\u5385", "pty": "0502"}}, {"type": "Feature", "geometry": {"type": "Point", "coordinates": [121.4728870008355, 31.222512065566512]}, "properties": {"name": "BANCO\u68d2\u5ba2(\u65e0\u9650\u6781\u835f\u8d2d\u7269\u5e7f\u573a\u5e97)", "biz": "050200 \u9910\u996e\u670d\u52a1;\u5916\u56fd\u9910\u5385;\u5916\u56fd\u9910\u5385", "pty": "0502"}}, {"type": "Feature", "geometry": {"type": "Point", "coordinates": [121.48238030547532, 31.213560504263196]}, "properties": {"name": "\u840c\u4ed4\u718a\u5496\u54e9\u732a\u6392", "biz": "050200 \u9910\u996e\u670d\u52a1;\u5916\u56fd\u9910\u5385;\u5916\u56fd\u9910\u5385", "pty": "0502"}}, {"type": "Feature", "geometry": {"type": "Point", "coordinates": [121.46662094323446, 31.20643765751753]}, "properties": {"name": "\u9e70\u8054\u76df\u91d1\u878d\u6587\u5316\u4f1a\u6240\u9910\u5385", "biz": "050200 \u9910\u996e\u670d\u52a1;\u5916\u56fd\u9910\u5385;\u5916\u56fd\u9910\u5385", "pty": "0502"}}, {"type": "Feature", "geometry": {"type": "Point", "coordinates": [121.46885451431919, 31.23678034568712]}, "properties": {"name": "\u98df\u4e4b\u79d8(\u65b0\u4e16\u754c\u5e97)", "biz": "050200 \u9910\u996e\u670d\u52a1;\u5916\u56fd\u9910\u5385;\u5916\u56fd\u9910\u5385", "pty": "0502"}}, {"type": "Feature", "geometry": {"type": "Point", "coordinates": [121.47373673572956, 31.23547041465266]}, "properties": {"name": "koi", "biz": "050200 \u9910\u996e\u670d\u52a1;\u5916\u56fd\u9910\u5385;\u5916\u56fd\u9910\u5385", "pty": "0502"}}, {"type": "Feature", "geometry": {"type": "Point", "coordinates": [121.46374700136546, 31.217149962330517]}, "properties": {"name": "Hitachino Brewing Lab", "biz": "050200 \u9910\u996e\u670d\u52a1;\u5916\u56fd\u9910\u5385;\u5916\u56fd\u9910\u5385", "pty": "0502"}}, {"type": "Feature", "geometry": {"type": "Point", "coordinates": [121.47492882624915, 31.22288162346448]}, "properties": {"name": "IN&OUT", "biz": "050200 \u9910\u996e\u670d\u52a1;\u5916\u56fd\u9910\u5385;\u5916\u56fd\u9910\u5385", "pty": "0502"}}, {"type": "Feature", "geometry": {"type": "Point", "coordinates": [121.46099591940367, 31.224998220030386]}, "properties": {"name": "\u624e\u592b\u5fb7\u56fd\u897f\u9910\u5385", "biz": "050200 \u9910\u996e\u670d\u52a1;\u5916\u56fd\u9910\u5385;\u5916\u56fd\u9910\u5385", "pty": "0502"}}, {"type": "Feature", "geometry": {"type": "Point", "coordinates": [121.4680931104508, 31.236127587712353]}, "properties": {"name": "\u897f\u897f\u91cc\u5385", "biz": "050200 \u9910\u996e\u670d\u52a1;\u5916\u56fd\u9910\u5385;\u5916\u56fd\u9910\u5385", "pty": "0502"}}, {"type": "Feature", "geometry": {"type": "Point", "coordinates": [121.47060570647733, 31.219505171316566]}, "properties": {"name": "XUN Bar&Bistro", "biz": "050200 \u9910\u996e\u670d\u52a1;\u5916\u56fd\u9910\u5385;\u5916\u56fd\u9910\u5385", "pty": "0502"}}, {"type": "Feature", "geometry": {"type": "Point", "coordinates": [121.45496995077005, 31.218246715108208]}, "properties": {"name": "\u7827\u725b", "biz": "050200 \u9910\u996e\u670d\u52a1;\u5916\u56fd\u9910\u5385;\u5916\u56fd\u9910\u5385", "pty": "0502"}}, {"type": "Feature", "geometry": {"type": "Point", "coordinates": [121.45336311220062, 31.222611915623407]}, "properties": {"name": "lavender", "biz": "050200 \u9910\u996e\u670d\u52a1;\u5916\u56fd\u9910\u5385;\u5916\u56fd\u9910\u5385", "pty": "0502"}}, {"type": "Feature", "geometry": {"type": "Point", "coordinates": [121.46626942974054, 31.23439850663014]}, "properties": {"name": "\u9999\u6e2f\u65fa\u89d2\u9910\u5385", "biz": "050200 \u9910\u996e\u670d\u52a1;\u5916\u56fd\u9910\u5385;\u5916\u56fd\u9910\u5385", "pty": "0502"}}, {"type": "Feature", "geometry": {"type": "Point", "coordinates": [121.47559153392119, 31.22916156109078]}, "properties": {"name": "\u8f9b\u9738(\u9ec4\u6d66\u5e97)", "biz": "050200 \u9910\u996e\u670d\u52a1;\u5916\u56fd\u9910\u5385;\u5916\u56fd\u9910\u5385", "pty": "0502"}}, {"type": "Feature", "geometry": {"type": "Point", "coordinates": [121.47044112994053, 31.219931517846483]}, "properties": {"name": "W Bistio&Bar", "biz": "050200 \u9910\u996e\u670d\u52a1;\u5916\u56fd\u9910\u5385;\u5916\u56fd\u9910\u5385", "pty": "0502"}}, {"type": "Feature", "geometry": {"type": "Point", "coordinates": [121.45549700765774, 31.223211611867853]}, "properties": {"name": "iDarts Side", "biz": "050200 \u9910\u996e\u670d\u52a1;\u5916\u56fd\u9910\u5385;\u5916\u56fd\u9910\u5385", "pty": "0502"}}, {"type": "Feature", "geometry": {"type": "Point", "coordinates": [121.50080045202493, 31.22231723639432]}, "properties": {"name": "\u6c34\u820d(\u4e0a\u6d77\u5357\u5916\u6ee9\u9152\u5e97)", "biz": "050200 \u9910\u996e\u670d\u52a1;\u5916\u56fd\u9910\u5385;\u5916\u56fd\u9910\u5385", "pty": "0502"}}, {"type": "Feature", "geometry": {"type": "Point", "coordinates": [121.46527445059111, 31.232505751333875]}, "properties": {"name": "\u7ea2\u6252\u623f", "biz": "050200 \u9910\u996e\u670d\u52a1;\u5916\u56fd\u9910\u5385;\u5916\u56fd\u9910\u5385", "pty": "0502"}}, {"type": "Feature", "geometry": {"type": "Point", "coordinates": [121.47816958278106, 31.202923426329303]}, "properties": {"name": "\u661f\u6854\u97e9\u9910", "biz": "050200 \u9910\u996e\u670d\u52a1;\u5916\u56fd\u9910\u5385;\u5916\u56fd\u9910\u5385", "pty": "0502"}}, {"type": "Feature", "geometry": {"type": "Point", "coordinates": [121.4354248629474, 31.19508652256462]}, "properties": {"name": "milosophy\u725b\u5976\u54f2\u5b66(\u7f8e\u7f57\u57ce\u5e97)", "biz": "050200 \u9910\u996e\u670d\u52a1;\u5916\u56fd\u9910\u5385;\u5916\u56fd\u9910\u5385", "pty": "0502"}}, {"type": "Feature", "geometry": {"type": "Point", "coordinates": [121.45593471487734, 31.206168792043393]}, "properties": {"name": "Bistro Sola", "biz": "050200 \u9910\u996e\u670d\u52a1;\u5916\u56fd\u9910\u5385;\u5916\u56fd\u9910\u5385", "pty": "0502"}}, {"type": "Feature", "geometry": {"type": "Point", "coordinates": [121.45080840190009, 31.220478150789482]}, "properties": {"name": "\u8309\u8389\u897f\u9910\u5385(\u8944\u9633\u5e97)", "biz": "050200 \u9910\u996e\u670d\u52a1;\u5916\u56fd\u9910\u5385;\u5916\u56fd\u9910\u5385", "pty": "0502"}}, {"type": "Feature", "geometry": {"type": "Point", "coordinates": [121.45200848338231, 31.210335675042472]}, "properties": {"name": "\u71a0\u76db\u6599\u7406", "biz": "050200 \u9910\u996e\u670d\u52a1;\u5916\u56fd\u9910\u5385;\u5916\u56fd\u9910\u5385", "pty": "0502"}}, {"type": "Feature", "geometry": {"type": "Point", "coordinates": [121.44067873068643, 31.196886857661674]}, "properties": {"name": "\u5c71\u5c4b\u65e5\u672c\u6599\u7406(\u5b9b\u5e7388\u5e97)", "biz": "050200 \u9910\u996e\u670d\u52a1;\u5916\u56fd\u9910\u5385;\u5916\u56fd\u9910\u5385", "pty": "0502"}}, {"type": "Feature", "geometry": {"type": "Point", "coordinates": [121.43087840245015, 31.18333329658909]}, "properties": {"name": "\u534e\u4ead\u5bbe\u9986-\u835f\u8403\u5385", "biz": "050200 \u9910\u996e\u670d\u52a1;\u5916\u56fd\u9910\u5385;\u5916\u56fd\u9910\u5385", "pty": "0502"}}, {"type": "Feature", "geometry": {"type": "Point", "coordinates": [121.43912971286143, 31.21577986632762]}, "properties": {"name": "Mr.Willis", "biz": "050200 \u9910\u996e\u670d\u52a1;\u5916\u56fd\u9910\u5385;\u5916\u56fd\u9910\u5385", "pty": "0502"}}, {"type": "Feature", "geometry": {"type": "Point", "coordinates": [121.43858873828312, 31.190571187209425]}, "properties": {"name": "\u4fe1\u5dde\u585a\u7530\u65e5\u6599(\u5609\u6c47\u56fd\u9645\u5e7f\u573a\u5e97)", "biz": "050200 \u9910\u996e\u670d\u52a1;\u5916\u56fd\u9910\u5385;\u5916\u56fd\u9910\u5385", "pty": "0502"}}, {"type": "Feature", "geometry": {"type": "Point", "coordinates": [121.40606123634453, 31.1782129336588]}, "properties": {"name": "\u6d77\u60a6\u9152\u5e97\u81ea\u52a9\u9910", "biz": "050200 \u9910\u996e\u670d\u52a1;\u5916\u56fd\u9910\u5385;\u5916\u56fd\u9910\u5385", "pty": "0502"}}, {"type": "Feature", "geometry": {"type": "Point", "coordinates": [121.44913422359605, 31.21814558947799]}, "properties": {"name": "STONESAL", "biz": "050200 \u9910\u996e\u670d\u52a1;\u5916\u56fd\u9910\u5385;\u5916\u56fd\u9910\u5385", "pty": "0502"}}, {"type": "Feature", "geometry": {"type": "Point", "coordinates": [121.4530251016146, 31.211982194295956]}, "properties": {"name": "\u559c\u5c4b\u65e5\u672c\u6599\u7406", "biz": "050200 \u9910\u996e\u670d\u52a1;\u5916\u56fd\u9910\u5385;\u5916\u56fd\u9910\u5385", "pty": "0502"}}, {"type": "Feature", "geometry": {"type": "Point", "coordinates": [121.45724753003722, 31.20553324891813]}, "properties": {"name": "\u548c\u60a6\u5ef7\u65e5\u5f0f\u94c1\u677f\u70e7", "biz": "050200 \u9910\u996e\u670d\u52a1;\u5916\u56fd\u9910\u5385;\u5916\u56fd\u9910\u5385", "pty": "0502"}}, {"type": "Feature", "geometry": {"type": "Point", "coordinates": [121.39438045532307, 31.16730422178989]}, "properties": {"name": "\u4e03\u5206\u536b\u00b7\u65b0\u8272\u62c9(\u57ce\u5e02\u96c6\u5e02\u5e97)", "biz": "050200 \u9910\u996e\u670d\u52a1;\u5916\u56fd\u9910\u5385;\u5916\u56fd\u9910\u5385", "pty": "0502"}}, {"type": "Feature", "geometry": {"type": "Point", "coordinates": [121.45317379607214, 31.185415582691416]}, "properties": {"name": "Vigours&BaBBo(\u7eff\u5730\u7f24\u7eb7\u57ce\u5e97)", "biz": "050200 \u9910\u996e\u670d\u52a1;\u5916\u56fd\u9910\u5385;\u5916\u56fd\u9910\u5385", "pty": "0502"}}, {"type": "Feature", "geometry": {"type": "Point", "coordinates": [121.43558420391199, 31.194789932872617]}, "properties": {"name": "CrazyOnes\u897f\u73ed\u7259\u6d77\u9c9c\u996d(\u7f8e\u7f57\u57ce)", "biz": "050200 \u9910\u996e\u670d\u52a1;\u5916\u56fd\u9910\u5385;\u5916\u56fd\u9910\u5385", "pty": "0502"}}, {"type": "Feature", "geometry": {"type": "Point", "coordinates": [121.45037032990723, 31.21949564729256]}, "properties": {"name": "dot", "biz": "050200 \u9910\u996e\u670d\u52a1;\u5916\u56fd\u9910\u5385;\u5916\u56fd\u9910\u5385", "pty": "0502"}}, {"type": "Feature", "geometry": {"type": "Point", "coordinates": [121.44647039364273, 31.207676969775523]}, "properties": {"name": "\u6d25\u820d\u548c\u98df", "biz": "050200 \u9910\u996e\u670d\u52a1;\u5916\u56fd\u9910\u5385;\u5916\u56fd\u9910\u5385", "pty": "0502"}}, {"type": "Feature", "geometry": {"type": "Point", "coordinates": [121.45151945822514, 31.218590629832743]}, "properties": {"name": "\u5c1a\u725b\u793e\u4f1aBeef&Liberty(\u5609\u534e\u4e2d\u5fc3\u5e97)", "biz": "050200 \u9910\u996e\u670d\u52a1;\u5916\u56fd\u9910\u5385;\u5916\u56fd\u9910\u5385", "pty": "0502"}}, {"type": "Feature", "geometry": {"type": "Point", "coordinates": [121.44253205471989, 31.20690846864217]}, "properties": {"name": "CRAFTED By Bistro Burger", "biz": "050200 \u9910\u996e\u670d\u52a1;\u5916\u56fd\u9910\u5385;\u5916\u56fd\u9910\u5385", "pty": "0502"}}, {"type": "Feature", "geometry": {"type": "Point", "coordinates": [121.43372277900016, 31.19268495862794]}, "properties": {"name": "BETWEENS\u7f8e\u5f0f\u9910\u5385(\u767e\u8111\u6c47\u5e97)", "biz": "050200 \u9910\u996e\u670d\u52a1;\u5916\u56fd\u9910\u5385;\u5916\u56fd\u9910\u5385", "pty": "0502"}}, {"type": "Feature", "geometry": {"type": "Point", "coordinates": [121.4512105848068, 31.21915267272431]}, "properties": {"name": "Jstone\u6770\u610f\u5927\u5229\u9910\u5385(\u8944\u9633\u516c\u56ed\u5e97)", "biz": "050200 \u9910\u996e\u670d\u52a1;\u5916\u56fd\u9910\u5385;\u5916\u56fd\u9910\u5385", "pty": "0502"}}, {"type": "Feature", "geometry": {"type": "Point", "coordinates": [121.4353668641086, 31.193751087463866]}, "properties": {"name": "MAKAN", "biz": "050200 \u9910\u996e\u670d\u52a1;\u5916\u56fd\u9910\u5385;\u5916\u56fd\u9910\u5385", "pty": "0502"}}, {"type": "Feature", "geometry": {"type": "Point", "coordinates": [121.45313993653403, 31.217545799705345]}, "properties": {"name": "\u571f\u53f8\u65b0\u8bed(iapm\u5e97)", "biz": "050200 \u9910\u996e\u670d\u52a1;\u5916\u56fd\u9910\u5385;\u5916\u56fd\u9910\u5385", "pty": "0502"}}, {"type": "Feature", "geometry": {"type": "Point", "coordinates": [121.46113200825967, 31.205457889257655]}, "properties": {"name": "\u5d6f\u5ce8\u91ce", "biz": "050200 \u9910\u996e\u670d\u52a1;\u5916\u56fd\u9910\u5385;\u5916\u56fd\u9910\u5385", "pty": "0502"}}, {"type": "Feature", "geometry": {"type": "Point", "coordinates": [121.43767654311166, 31.193777990342785]}, "properties": {"name": "\u7f18\u5bb6\u97e9\u56fd\u6599\u7406(\u5929\u94a5\u6865\u8def\u5e97)", "biz": "050200 \u9910\u996e\u670d\u52a1;\u5916\u56fd\u9910\u5385;\u5916\u56fd\u9910\u5385", "pty": "0502"}}, {"type": "Feature", "geometry": {"type": "Point", "coordinates": [121.45291380910119, 31.188623381598877]}, "properties": {"name": "\u8d39\u5c3c\u9910\u5385(\u6b63\u5927\u4e50\u57ce)", "biz": "050200 \u9910\u996e\u670d\u52a1;\u5916\u56fd\u9910\u5385;\u5916\u56fd\u9910\u5385", "pty": "0502"}}, {"type": "Feature", "geometry": {"type": "Point", "coordinates": [121.42797259447066, 31.170912527827934]}, "properties": {"name": "\u5bff\u53f8\u6cbc\u6d25\u6e2f(\u5f90\u6c47\u65e5\u6708\u5149\u5e97)", "biz": "050200 \u9910\u996e\u670d\u52a1;\u5916\u56fd\u9910\u5385;\u5916\u56fd\u9910\u5385", "pty": "0502"}}, {"type": "Feature", "geometry": {"type": "Point", "coordinates": [121.45145628636885, 31.218623472750487]}, "properties": {"name": "Moka Bros\u6469\u5361\u7ad9(\u5609\u534e\u5e97)", "biz": "050200 \u9910\u996e\u670d\u52a1;\u5916\u56fd\u9910\u5385;\u5916\u56fd\u9910\u5385", "pty": "0502"}}, {"type": "Feature", "geometry": {"type": "Point", "coordinates": [121.43780365829296, 31.207063704917296]}, "properties": {"name": "\u5272\u70f9\u6e38", "biz": "050200 \u9910\u996e\u670d\u52a1;\u5916\u56fd\u9910\u5385;\u5916\u56fd\u9910\u5385", "pty": "0502"}}, {"type": "Feature", "geometry": {"type": "Point", "coordinates": [121.44954427677155, 31.218251428550847]}, "properties": {"name": "The Monkey", "biz": "050200 \u9910\u996e\u670d\u52a1;\u5916\u56fd\u9910\u5385;\u5916\u56fd\u9910\u5385", "pty": "0502"}}, {"type": "Feature", "geometry": {"type": "Point", "coordinates": [121.44287290862854, 31.20613850088285]}, "properties": {"name": "garlic", "biz": "050200 \u9910\u996e\u670d\u52a1;\u5916\u56fd\u9910\u5385;\u5916\u56fd\u9910\u5385", "pty": "0502"}}, {"type": "Feature", "geometry": {"type": "Point", "coordinates": [121.44271362911864, 31.21667612836567]}, "properties": {"name": "BOOM BOOM BAGELS", "biz": "050200 \u9910\u996e\u670d\u52a1;\u5916\u56fd\u9910\u5385;\u5916\u56fd\u9910\u5385", "pty": "0502"}}, {"type": "Feature", "geometry": {"type": "Point", "coordinates": [121.43510423648586, 31.195037019481564]}, "properties": {"name": "\u5f7c\u5f97\u5bb6\u53a8\u623f(\u7f8e\u7f57\u57ce\u5e97)", "biz": "050200 \u9910\u996e\u670d\u52a1;\u5916\u56fd\u9910\u5385;\u5916\u56fd\u9910\u5385", "pty": "0502"}}, {"type": "Feature", "geometry": {"type": "Point", "coordinates": [121.4409473196146, 31.196988307931928]}, "properties": {"name": "Wanna Feel\u81f3\u89c9", "biz": "050200 \u9910\u996e\u670d\u52a1;\u5916\u56fd\u9910\u5385;\u5916\u56fd\u9910\u5385", "pty": "0502"}}, {"type": "Feature", "geometry": {"type": "Point", "coordinates": [121.42549859451236, 31.16142523472495]}, "properties": {"name": "\u4e2d\u661f\u94c2\u5c14\u66fc\u9152\u5e97-\u5168\u65e5\u9910\u5385", "biz": "050200 \u9910\u996e\u670d\u52a1;\u5916\u56fd\u9910\u5385;\u5916\u56fd\u9910\u5385", "pty": "0502"}}, {"type": "Feature", "geometry": {"type": "Point", "coordinates": [121.45276069295578, 31.185122784700432]}, "properties": {"name": "PizzaMarzano\u739b\u5c1a\u8bfa(\u7eff\u5730\u7f24\u7eb7\u57ce\u5e97)", "biz": "050200 \u9910\u996e\u670d\u52a1;\u5916\u56fd\u9910\u5385;\u5916\u56fd\u9910\u5385", "pty": "0502"}}, {"type": "Feature", "geometry": {"type": "Point", "coordinates": [121.44464745793309, 31.21345447504589]}, "properties": {"name": "Kuta's Kitchen(\u6dee\u6d77\u4e2d\u8def\u5e97)", "biz": "050200 \u9910\u996e\u670d\u52a1;\u5916\u56fd\u9910\u5385;\u5916\u56fd\u9910\u5385", "pty": "0502"}}, {"type": "Feature", "geometry": {"type": "Point", "coordinates": [121.45674361148708, 31.17607868751602]}, "properties": {"name": "\u67ef\u91cc\u6602\u6377\u514b\u81ea\u917f\u5564\u9152\u9910\u5385", "biz": "050200 \u9910\u996e\u670d\u52a1;\u5916\u56fd\u9910\u5385;\u5916\u56fd\u9910\u5385", "pty": "0502"}}, {"type": "Feature", "geometry": {"type": "Point", "coordinates": [121.40715739551221, 31.171005044196637]}, "properties": {"name": "\u516b\u6ef7\u95e8\u725b\u6392\u9986(\u7530\u6797\u8def\u5e97)", "biz": "050200 \u9910\u996e\u670d\u52a1;\u5916\u56fd\u9910\u5385;\u5916\u56fd\u9910\u5385", "pty": "0502"}}, {"type": "Feature", "geometry": {"type": "Point", "coordinates": [121.43811203479486, 31.187062096162972]}, "properties": {"name": "\u5526\u5566\u6ee1\u6ee1(\u661f\u6e38\u57ce)", "biz": "050200 \u9910\u996e\u670d\u52a1;\u5916\u56fd\u9910\u5385;\u5916\u56fd\u9910\u5385", "pty": "0502"}}, {"type": "Feature", "geometry": {"type": "Point", "coordinates": [121.4272384493591, 31.17066268158253]}, "properties": {"name": "\u4e45\u7559\u7c73\u5bff\u53f8(\u5f90\u6c47\u65e5\u6708\u5149\u5e97)", "biz": "050200 \u9910\u996e\u670d\u52a1;\u5916\u56fd\u9910\u5385;\u5916\u56fd\u9910\u5385", "pty": "0502"}}, {"type": "Feature", "geometry": {"type": "Point", "coordinates": [121.45128178514493, 31.21903088936685]}, "properties": {"name": "\u4e00\u5bb6.\u5bff\u559c\u9505(\u8944\u9633\u574a\u5e97)", "biz": "050200 \u9910\u996e\u670d\u52a1;\u5916\u56fd\u9910\u5385;\u5916\u56fd\u9910\u5385", "pty": "0502"}}, {"type": "Feature", "geometry": {"type": "Point", "coordinates": [121.41564868476105, 31.182544366987162]}, "properties": {"name": "\u4f20\u5947\u70e4\u8089\u62cc\u996d(\u94a6\u5dde\u5317\u8def\u5e97)", "biz": "050200 \u9910\u996e\u670d\u52a1;\u5916\u56fd\u9910\u5385;\u5916\u56fd\u9910\u5385", "pty": "0502"}}, {"type": "Feature", "geometry": {"type": "Point", "coordinates": [121.42865468888327, 31.171074370724288]}, "properties": {"name": "\u548c\u98ce\u94c1\u677f\u6599\u7406(\u6f15\u5b9d\u8def\u65e5\u6708\u5149\u5e97)", "biz": "050200 \u9910\u996e\u670d\u52a1;\u5916\u56fd\u9910\u5385;\u5916\u56fd\u9910\u5385", "pty": "0502"}}, {"type": "Feature", "geometry": {"type": "Point", "coordinates": [121.44399091658507, 31.1900496031171]}, "properties": {"name": "\u65e5\u672c\u6599\u7406(\u5f90\u6c47\u5e97)", "biz": "050200 \u9910\u996e\u670d\u52a1;\u5916\u56fd\u9910\u5385;\u5916\u56fd\u9910\u5385", "pty": "0502"}}, {"type": "Feature", "geometry": {"type": "Point", "coordinates": [121.4528571644926, 31.217535157654833]}, "properties": {"name": "SALAD(\u73af\u8d38iapm)", "biz": "050200 \u9910\u996e\u670d\u52a1;\u5916\u56fd\u9910\u5385;\u5916\u56fd\u9910\u5385", "pty": "0502"}}, {"type": "Feature", "geometry": {"type": "Point", "coordinates": [121.44738141830864, 31.210516499795833]}, "properties": {"name": "\u5927\u53f6\u6599\u7406(\u5cb3\u9633\u5e97)", "biz": "050200 \u9910\u996e\u670d\u52a1;\u5916\u56fd\u9910\u5385;\u5916\u56fd\u9910\u5385", "pty": "0502"}}, {"type": "Feature", "geometry": {"type": "Point", "coordinates": [121.42871836296693, 31.17604291981142]}, "properties": {"name": "BUTCHER\u725b\u6392\u8089\u94fa(\u6c47\u9633\u5e7f\u573a\u76d2\u9a6c\u9c9c\u751f\u5e97)", "biz": "050200 \u9910\u996e\u670d\u52a1;\u5916\u56fd\u9910\u5385;\u5916\u56fd\u9910\u5385", "pty": "0502"}}, {"type": "Feature", "geometry": {"type": "Point", "coordinates": [121.39441459006999, 31.16569504739626]}, "properties": {"name": "ATAPAS", "biz": "050200 \u9910\u996e\u670d\u52a1;\u5916\u56fd\u9910\u5385;\u5916\u56fd\u9910\u5385", "pty": "0502"}}, {"type": "Feature", "geometry": {"type": "Point", "coordinates": [121.44714228514755, 31.20511760923912]}, "properties": {"name": "Chateau Dionne\u7ea2\u9152\u897f\u9910\u5385(\u5efa\u56fd\u897f\u8def\u5e97)", "biz": "050200 \u9910\u996e\u670d\u52a1;\u5916\u56fd\u9910\u5385;\u5916\u56fd\u9910\u5385", "pty": "0502"}}, {"type": "Feature", "geometry": {"type": "Point", "coordinates": [121.41872457268596, 31.19793737951266]}, "properties": {"name": "\u5168\u5dde\u5370\u8c61(\u6c47\u4eac\u5e7f\u573a\u5e97)", "biz": "050200 \u9910\u996e\u670d\u52a1;\u5916\u56fd\u9910\u5385;\u5916\u56fd\u9910\u5385", "pty": "0502"}}, {"type": "Feature", "geometry": {"type": "Point", "coordinates": [121.43493990553041, 31.195147696011563]}, "properties": {"name": "\u70ed\u554a\u9910\u9986(\u7f8e\u7f57\u57ce)", "biz": "050200 \u9910\u996e\u670d\u52a1;\u5916\u56fd\u9910\u5385;\u5916\u56fd\u9910\u5385", "pty": "0502"}}, {"type": "Feature", "geometry": {"type": "Point", "coordinates": [121.43861562421937, 31.192550251431534]}, "properties": {"name": "\u6d2a\u5ba2\u52d2\u745e\u58eb\u9910\u5385", "biz": "050200 \u9910\u996e\u670d\u52a1;\u5916\u56fd\u9910\u5385;\u5916\u56fd\u9910\u5385", "pty": "0502"}}, {"type": "Feature", "geometry": {"type": "Point", "coordinates": [121.41505205645886, 31.183242544605942]}, "properties": {"name": "JOHNNY PAUL(\u7530\u5c1a\u574a\u5e97)", "biz": "050200 \u9910\u996e\u670d\u52a1;\u5916\u56fd\u9910\u5385;\u5916\u56fd\u9910\u5385", "pty": "0502"}}, {"type": "Feature", "geometry": {"type": "Point", "coordinates": [121.43505110154177, 31.19539375620823]}, "properties": {"name": "\u827e\u6155\u6cd5\u5f0f\u94c1\u677f\u70e7", "biz": "050200 \u9910\u996e\u670d\u52a1;\u5916\u56fd\u9910\u5385;\u5916\u56fd\u9910\u5385", "pty": "0502"}}, {"type": "Feature", "geometry": {"type": "Point", "coordinates": [121.39481451573447, 31.16588689382733]}, "properties": {"name": "Talk Tan", "biz": "050200 \u9910\u996e\u670d\u52a1;\u5916\u56fd\u9910\u5385;\u5916\u56fd\u9910\u5385", "pty": "0502"}}, {"type": "Feature", "geometry": {"type": "Point", "coordinates": [121.45124292713652, 31.216182156406262]}, "properties": {"name": "\u5171\u79be\u4eac\u54c1(\u6c7e\u9633\u8def\u5e97)", "biz": "050200 \u9910\u996e\u670d\u52a1;\u5916\u56fd\u9910\u5385;\u5916\u56fd\u9910\u5385", "pty": "0502"}}, {"type": "Feature", "geometry": {"type": "Point", "coordinates": [121.41070631356686, 31.162309305503825]}, "properties": {"name": "\u597d\u5feb\u5427\u97e9\u56fd\u6599\u7406", "biz": "050200 \u9910\u996e\u670d\u52a1;\u5916\u56fd\u9910\u5385;\u5916\u56fd\u9910\u5385", "pty": "0502"}}, {"type": "Feature", "geometry": {"type": "Point", "coordinates": [121.45115254207735, 31.217855158888167]}, "properties": {"name": "Liquid Laundry", "biz": "050200 \u9910\u996e\u670d\u52a1;\u5916\u56fd\u9910\u5385;\u5916\u56fd\u9910\u5385", "pty": "0502"}}, {"type": "Feature", "geometry": {"type": "Point", "coordinates": [121.43805031425006, 31.193893586693054]}, "properties": {"name": "SOTO\u6cd5\u5f0f\u65e5\u672c\u6599\u7406", "biz": "050200 \u9910\u996e\u670d\u52a1;\u5916\u56fd\u9910\u5385;\u5916\u56fd\u9910\u5385", "pty": "0502"}}, {"type": "Feature", "geometry": {"type": "Point", "coordinates": [121.4159122470868, 31.179028357128225]}, "properties": {"name": "\u6cf0\u5496\u55b1(\u67f3\u5dde\u8def\u5e97)", "biz": "050200 \u9910\u996e\u670d\u52a1;\u5916\u56fd\u9910\u5385;\u5916\u56fd\u9910\u5385", "pty": "0502"}}, {"type": "Feature", "geometry": {"type": "Point", "coordinates": [121.43313431902003, 31.19677601143423]}, "properties": {"name": "Green Passionate(\u6e2f\u6c47\u6052\u9686\u5e7f\u573a)", "biz": "050200 \u9910\u996e\u670d\u52a1;\u5916\u56fd\u9910\u5385;\u5916\u56fd\u9910\u5385", "pty": "0502"}}, {"type": "Feature", "geometry": {"type": "Point", "coordinates": [121.45388790091123, 31.218645001610287]}, "properties": {"name": "\u5927\u99a5\u70ad\u706b\u70e7\u8089\u5c4b(\u6dee\u6d77\u4e2d\u8def\u5e97)", "biz": "050200 \u9910\u996e\u670d\u52a1;\u5916\u56fd\u9910\u5385;\u5916\u56fd\u9910\u5385", "pty": "0502"}}, {"type": "Feature", "geometry": {"type": "Point", "coordinates": [121.45000687997192, 31.21365263069802]}, "properties": {"name": "Fresh Maple(\u590d\u5174\u4e2d\u8def\u5e97)", "biz": "050200 \u9910\u996e\u670d\u52a1;\u5916\u56fd\u9910\u5385;\u5916\u56fd\u9910\u5385", "pty": "0502"}}, {"type": "Feature", "geometry": {"type": "Point", "coordinates": [121.43488944530307, 31.199325556474196]}, "properties": {"name": "\u653f\u5272\u70f9", "biz": "050200 \u9910\u996e\u670d\u52a1;\u5916\u56fd\u9910\u5385;\u5916\u56fd\u9910\u5385", "pty": "0502"}}, {"type": "Feature", "geometry": {"type": "Point", "coordinates": [121.45084356057029, 31.21971858809144]}, "properties": {"name": "Le Champagne", "biz": "050200 \u9910\u996e\u670d\u52a1;\u5916\u56fd\u9910\u5385;\u5916\u56fd\u9910\u5385", "pty": "0502"}}, {"type": "Feature", "geometry": {"type": "Point", "coordinates": [121.39733364881913, 31.17385261895579]}, "properties": {"name": "\u97e9\u77f3\u8bb0(\u5b9c\u5c71\u8def\u5e97)", "biz": "050200 \u9910\u996e\u670d\u52a1;\u5916\u56fd\u9910\u5385;\u5916\u56fd\u9910\u5385", "pty": "0502"}}, {"type": "Feature", "geometry": {"type": "Point", "coordinates": [121.43541588927626, 31.19457775925706]}, "properties": {"name": "Crazy Ones", "biz": "050200 \u9910\u996e\u670d\u52a1;\u5916\u56fd\u9910\u5385;\u5916\u56fd\u9910\u5385", "pty": "0502"}}, {"type": "Feature", "geometry": {"type": "Point", "coordinates": [121.45328831479989, 31.217876982913992]}, "properties": {"name": "THE CUT STEAK&FRIES(\u73af\u8d38iapm)", "biz": "050200 \u9910\u996e\u670d\u52a1;\u5916\u56fd\u9910\u5385;\u5916\u56fd\u9910\u5385", "pty": "0502"}}, {"type": "Feature", "geometry": {"type": "Point", "coordinates": [121.44417477753224, 31.20828301915674]}, "properties": {"name": "\u4f2f\u886155", "biz": "050200 \u9910\u996e\u670d\u52a1;\u5916\u56fd\u9910\u5385;\u5916\u56fd\u9910\u5385", "pty": "0502"}}, {"type": "Feature", "geometry": {"type": "Point", "coordinates": [121.44952070148061, 31.212618065003372]}, "properties": {"name": "Bitter Soul", "biz": "050200 \u9910\u996e\u670d\u52a1;\u5916\u56fd\u9910\u5385;\u5916\u56fd\u9910\u5385", "pty": "0502"}}, {"type": "Feature", "geometry": {"type": "Point", "coordinates": [121.44665482528401, 31.207967211746524]}, "properties": {"name": "BROWNSTONE Tapas&Lounge", "biz": "050200 \u9910\u996e\u670d\u52a1;\u5916\u56fd\u9910\u5385;\u5916\u56fd\u9910\u5385", "pty": "0502"}}, {"type": "Feature", "geometry": {"type": "Point", "coordinates": [121.45308277574614, 31.21759564500252]}, "properties": {"name": "\u677e\u53d1(\u73af\u8d38iapm)", "biz": "050200 \u9910\u996e\u670d\u52a1;\u5916\u56fd\u9910\u5385;\u5916\u56fd\u9910\u5385", "pty": "0502"}}, {"type": "Feature", "geometry": {"type": "Point", "coordinates": [121.43990727734717, 31.217171613280062]}, "properties": {"name": "\u68a6\u66fc\u7279\u897f\u9910\u5385(\u957f\u4e50\u5e97)", "biz": "050200 \u9910\u996e\u670d\u52a1;\u5916\u56fd\u9910\u5385;\u5916\u56fd\u9910\u5385", "pty": "0502"}}, {"type": "Feature", "geometry": {"type": "Point", "coordinates": [121.4094853691346, 31.175246975498908]}, "properties": {"name": "\u6c34\u4e4b\u821e(\u5b9c\u5c71\u5e97)", "biz": "050200 \u9910\u996e\u670d\u52a1;\u5916\u56fd\u9910\u5385;\u5916\u56fd\u9910\u5385", "pty": "0502"}}, {"type": "Feature", "geometry": {"type": "Point", "coordinates": [121.43500709119387, 31.194519116514357]}, "properties": {"name": "PETER'S GOURMET(\u7f8e\u7f57\u57ce)", "biz": "050200 \u9910\u996e\u670d\u52a1;\u5916\u56fd\u9910\u5385;\u5916\u56fd\u9910\u5385", "pty": "0502"}}, {"type": "Feature", "geometry": {"type": "Point", "coordinates": [121.43377588218283, 31.192655057575976]}, "properties": {"name": "\u89d2\u5c4b\u5317\u6d77\u9053\u70e7\u8089\u4e13\u95e8\u5e97(\u767e\u8111\u6c47\u5e97)", "biz": "050200 \u9910\u996e\u670d\u52a1;\u5916\u56fd\u9910\u5385;\u5916\u56fd\u9910\u5385", "pty": "0502"}}, {"type": "Feature", "geometry": {"type": "Point", "coordinates": [121.4466267460883, 31.208078099849867]}, "properties": {"name": "ETOILE\u661f\u7a7a\u9910\u5385", "biz": "050200 \u9910\u996e\u670d\u52a1;\u5916\u56fd\u9910\u5385;\u5916\u56fd\u9910\u5385", "pty": "0502"}}, {"type": "Feature", "geometry": {"type": "Point", "coordinates": [121.43582334912685, 31.19860445058868]}, "properties": {"name": "Avenue", "biz": "050200 \u9910\u996e\u670d\u52a1;\u5916\u56fd\u9910\u5385;\u5916\u56fd\u9910\u5385", "pty": "0502"}}, {"type": "Feature", "geometry": {"type": "Point", "coordinates": [121.40682540851502, 31.168924975512514]}, "properties": {"name": "\u62cd\u62cd\u592a\u9633\u62ab\u8428", "biz": "050200 \u9910\u996e\u670d\u52a1;\u5916\u56fd\u9910\u5385;\u5916\u56fd\u9910\u5385", "pty": "0502"}}, {"type": "Feature", "geometry": {"type": "Point", "coordinates": [121.44520706797955, 31.210409064741356]}, "properties": {"name": "PIRATA\u6bd4\u62c9\u8fbe", "biz": "050200 \u9910\u996e\u670d\u52a1;\u5916\u56fd\u9910\u5385;\u5916\u56fd\u9910\u5385", "pty": "0502"}}, {"type": "Feature", "geometry": {"type": "Point", "coordinates": [121.42767512087258, 31.17088414478768]}, "properties": {"name": "PHOCAFE\u897f\u8d21\u5148\u751f(\u5f90\u6c47\u65e5\u6708\u5149\u4e2d\u5fc3\u5e97)", "biz": "050200 \u9910\u996e\u670d\u52a1;\u5916\u56fd\u9910\u5385;\u5916\u56fd\u9910\u5385", "pty": "0502"}}, {"type": "Feature", "geometry": {"type": "Point", "coordinates": [121.394074607934, 31.166126876053088]}, "properties": {"name": "\u97e9\u5c0f\u9986(\u53e4\u7f8e\u8def\u5e97)", "biz": "050200 \u9910\u996e\u670d\u52a1;\u5916\u56fd\u9910\u5385;\u5916\u56fd\u9910\u5385", "pty": "0502"}}, {"type": "Feature", "geometry": {"type": "Point", "coordinates": [121.43304818076892, 31.18497574818982]}, "properties": {"name": "PEZZO\u6d3e\u00b7\u6bd4\u8428(\u98de\u6d32\u56fd\u9645\u5e97)", "biz": "050200 \u9910\u996e\u670d\u52a1;\u5916\u56fd\u9910\u5385;\u5916\u56fd\u9910\u5385", "pty": "0502"}}, {"type": "Feature", "geometry": {"type": "Point", "coordinates": [121.40657023582068, 31.16947259203523]}, "properties": {"name": "\u548c\u98ce\u7f18\u00b7\u65e0\u56fd\u7c4d\u6599\u7406(\u6f15\u6cb3\u6cfe\u5e97)", "biz": "050200 \u9910\u996e\u670d\u52a1;\u5916\u56fd\u9910\u5385;\u5916\u56fd\u9910\u5385", "pty": "0502"}}, {"type": "Feature", "geometry": {"type": "Point", "coordinates": [121.44908358997264, 31.212384229707922]}, "properties": {"name": "The Bull Claw\u9ccc\u8db3\u6c47", "biz": "050200 \u9910\u996e\u670d\u52a1;\u5916\u56fd\u9910\u5385;\u5916\u56fd\u9910\u5385", "pty": "0502"}}, {"type": "Feature", "geometry": {"type": "Point", "coordinates": [121.43814381656622, 31.190357506835383]}, "properties": {"name": "\u74dc\u725b(\u5609\u6c47\u5927\u53a6\u5e97)", "biz": "050200 \u9910\u996e\u670d\u52a1;\u5916\u56fd\u9910\u5385;\u5916\u56fd\u9910\u5385", "pty": "0502"}}, {"type": "Feature", "geometry": {"type": "Point", "coordinates": [121.44315548885126, 31.207022621990472]}, "properties": {"name": "\u8861\u5c7199 Francis", "biz": "050200 \u9910\u996e\u670d\u52a1;\u5916\u56fd\u9910\u5385;\u5916\u56fd\u9910\u5385", "pty": "0502"}}, {"type": "Feature", "geometry": {"type": "Point", "coordinates": [121.45354129317893, 31.21459312965707]}, "properties": {"name": "\u548c\u76c8\u81ea\u9009\u9910(\u590d\u5174\u4e2d\u8def\u5e97)", "biz": "050200 \u9910\u996e\u670d\u52a1;\u5916\u56fd\u9910\u5385;\u5916\u56fd\u9910\u5385", "pty": "0502"}}, {"type": "Feature", "geometry": {"type": "Point", "coordinates": [121.42301795750843, 31.185849825131292]}, "properties": {"name": "\u548c\u756a(\u5b9c\u5c71\u8def\u5e97)", "biz": "050200 \u9910\u996e\u670d\u52a1;\u5916\u56fd\u9910\u5385;\u5916\u56fd\u9910\u5385", "pty": "0502"}}, {"type": "Feature", "geometry": {"type": "Point", "coordinates": [121.4290366706368, 31.190101279119265]}, "properties": {"name": "\u5496\u5561\u4e2d\u897f\u9910\u725b\u6392", "biz": "050200 \u9910\u996e\u670d\u52a1;\u5916\u56fd\u9910\u5385;\u5916\u56fd\u9910\u5385", "pty": "0502"}}, {"type": "Feature", "geometry": {"type": "Point", "coordinates": [121.39314476110476, 31.166455873127713]}, "properties": {"name": "\u4fe1\u5357\u5c71\u5e78\u798f\u6599\u7406", "biz": "050200 \u9910\u996e\u670d\u52a1;\u5916\u56fd\u9910\u5385;\u5916\u56fd\u9910\u5385", "pty": "0502"}}, {"type": "Feature", "geometry": {"type": "Point", "coordinates": [121.44810569142088, 31.205370519279388]}, "properties": {"name": "arashi\u5c9a\u5320", "biz": "050200 \u9910\u996e\u670d\u52a1;\u5916\u56fd\u9910\u5385;\u5916\u56fd\u9910\u5385", "pty": "0502"}}, {"type": "Feature", "geometry": {"type": "Point", "coordinates": [121.41423136788832, 31.182537278675422]}, "properties": {"name": "\u8c6a\u4eab\u6765(\u94a6\u5dde\u5317\u8def\u5e97)", "biz": "050200 \u9910\u996e\u670d\u52a1;\u5916\u56fd\u9910\u5385;\u5916\u56fd\u9910\u5385", "pty": "0502"}}, {"type": "Feature", "geometry": {"type": "Point", "coordinates": [121.4352501076991, 31.16516736796952]}, "properties": {"name": "\u725b\u8f6c\u4e7e\u5764\u725b\u6392\u996d", "biz": "050200 \u9910\u996e\u670d\u52a1;\u5916\u56fd\u9910\u5385;\u5916\u56fd\u9910\u5385", "pty": "0502"}}, {"type": "Feature", "geometry": {"type": "Point", "coordinates": [121.42399649399333, 31.160647830104363]}, "properties": {"name": "\u8428\u8389\u4e9a\u610f\u5f0f\u9910\u5385(\u4e2d\u661f\u57ce\u5e97)", "biz": "050200 \u9910\u996e\u670d\u52a1;\u5916\u56fd\u9910\u5385;\u5916\u56fd\u9910\u5385", "pty": "0502"}}, {"type": "Feature", "geometry": {"type": "Point", "coordinates": [121.45279067482657, 31.18628227149203]}, "properties": {"name": "\u97e9\u8e44(\u7eff\u5730\u7f24\u7eb7\u57ce\u5e97)", "biz": "050200 \u9910\u996e\u670d\u52a1;\u5916\u56fd\u9910\u5385;\u5916\u56fd\u9910\u5385", "pty": "0502"}}, {"type": "Feature", "geometry": {"type": "Point", "coordinates": [121.42142813232893, 31.136720608151823]}, "properties": {"name": "\u6c64\u59c6\u53d4\u53d4\u725b\u6392\u62ab\u8428", "biz": "050200 \u9910\u996e\u670d\u52a1;\u5916\u56fd\u9910\u5385;\u5916\u56fd\u9910\u5385", "pty": "0502"}}, {"type": "Feature", "geometry": {"type": "Point", "coordinates": [121.42777829048464, 31.170826311916606]}, "properties": {"name": "\u6e38\u9999\u98df\u4e50(\u5f90\u6c47\u65e5\u6708\u5149\u5e97)", "biz": "050200 \u9910\u996e\u670d\u52a1;\u5916\u56fd\u9910\u5385;\u5916\u56fd\u9910\u5385", "pty": "0502"}}, {"type": "Feature", "geometry": {"type": "Point", "coordinates": [121.42746379382508, 31.170786914495782]}, "properties": {"name": "\u5927\u6237\u5c4b(\u5f90\u6c47\u65e5\u6708\u5149\u5e97)", "biz": "050200 \u9910\u996e\u670d\u52a1;\u5916\u56fd\u9910\u5385;\u5916\u56fd\u9910\u5385", "pty": "0502"}}, {"type": "Feature", "geometry": {"type": "Point", "coordinates": [121.4476500609596, 31.21090188022531]}, "properties": {"name": "ReBar\u6bd4\u6211\u80d6", "biz": "050200 \u9910\u996e\u670d\u52a1;\u5916\u56fd\u9910\u5385;\u5916\u56fd\u9910\u5385", "pty": "0502"}}, {"type": "Feature", "geometry": {"type": "Point", "coordinates": [121.44633878870425, 31.21091913374965]}, "properties": {"name": "\u5929\u5929\u6b22\u4e50\u65f6\u5149", "biz": "050200 \u9910\u996e\u670d\u52a1;\u5916\u56fd\u9910\u5385;\u5916\u56fd\u9910\u5385", "pty": "0502"}}, {"type": "Feature", "geometry": {"type": "Point", "coordinates": [121.45332068800148, 31.21457662969079]}, "properties": {"name": "\u4e1c\u5357\u4e9a\u5496\u55b1", "biz": "050200 \u9910\u996e\u670d\u52a1;\u5916\u56fd\u9910\u5385;\u5916\u56fd\u9910\u5385", "pty": "0502"}}, {"type": "Feature", "geometry": {"type": "Point", "coordinates": [121.45189852901963, 31.206369343521278]}, "properties": {"name": "Quadrifoglio", "biz": "050200 \u9910\u996e\u670d\u52a1;\u5916\u56fd\u9910\u5385;\u5916\u56fd\u9910\u5385", "pty": "0502"}}, {"type": "Feature", "geometry": {"type": "Point", "coordinates": [121.43455921748577, 31.19455337135317]}, "properties": {"name": "Secert Recipe\u98df\u4e4b\u79d8(\u7f8e\u7f57\u57ce)", "biz": "050800|050200 \u9910\u996e\u670d\u52a1;\u7cd5\u997c\u5e97;\u7cd5\u997c\u5e97|\u9910\u996e\u670d\u52a1;\u5916\u56fd\u9910\u5385;\u5916\u56fd\u9910\u5385", "pty": "0508"}}, {"type": "Feature", "geometry": {"type": "Point", "coordinates": [121.42934032726897, 31.188374563932584]}, "properties": {"name": "\u77f3\u9505\u8303", "biz": "050200 \u9910\u996e\u670d\u52a1;\u5916\u56fd\u9910\u5385;\u5916\u56fd\u9910\u5385", "pty": "0502"}}, {"type": "Feature", "geometry": {"type": "Point", "coordinates": [121.44275386297932, 31.21504698288774]}, "properties": {"name": "NICOLSON'S", "biz": "050200 \u9910\u996e\u670d\u52a1;\u5916\u56fd\u9910\u5385;\u5916\u56fd\u9910\u5385", "pty": "0502"}}, {"type": "Feature", "geometry": {"type": "Point", "coordinates": [121.44586127056178, 31.214913237319678]}, "properties": {"name": "\u5c45\u9152\u5bff\u53f8", "biz": "050200 \u9910\u996e\u670d\u52a1;\u5916\u56fd\u9910\u5385;\u5916\u56fd\u9910\u5385", "pty": "0502"}}, {"type": "Feature", "geometry": {"type": "Point", "coordinates": [121.39447542698382, 31.167462126691444]}, "properties": {"name": "\u4e09\u5408\u9662(\u57ce\u5e02\u96c6\u5e02\u6f15\u6cb3\u6cfe\u5e97)", "biz": "050200 \u9910\u996e\u670d\u52a1;\u5916\u56fd\u9910\u5385;\u5916\u56fd\u9910\u5385", "pty": "0502"}}, {"type": "Feature", "geometry": {"type": "Point", "coordinates": [121.39139205919466, 31.16834031713893]}, "properties": {"name": "FreshRepublic\u6995\u4e50\u4e1a\u5929\u5730\u5e97(\u88c5\u4fee\u4e2d)", "biz": "050200 \u9910\u996e\u670d\u52a1;\u5916\u56fd\u9910\u5385;\u5916\u56fd\u9910\u5385", "pty": "0502"}}, {"type": "Feature", "geometry": {"type": "Point", "coordinates": [121.45355847817459, 31.212994934070306]}, "properties": {"name": "\u827e\u683c\u98de\u8377\u5170\u5c0f\u5403\u9910\u5427", "biz": "050200 \u9910\u996e\u670d\u52a1;\u5916\u56fd\u9910\u5385;\u5916\u56fd\u9910\u5385", "pty": "0502"}}, {"type": "Feature", "geometry": {"type": "Point", "coordinates": [121.4070113222174, 31.17098999103193]}, "properties": {"name": "WAS EAK\u725b\u6392", "biz": "050200 \u9910\u996e\u670d\u52a1;\u5916\u56fd\u9910\u5385;\u5916\u56fd\u9910\u5385", "pty": "0502"}}, {"type": "Feature", "geometry": {"type": "Point", "coordinates": [121.45228773936259, 31.216117536925246]}, "properties": {"name": "MIX cafe(\u8944\u9633\u5357\u8def\u5e97)", "biz": "050200 \u9910\u996e\u670d\u52a1;\u5916\u56fd\u9910\u5385;\u5916\u56fd\u9910\u5385", "pty": "0502"}}, {"type": "Feature", "geometry": {"type": "Point", "coordinates": [121.43799678482095, 31.18715584684738]}, "properties": {"name": "\u897f\u6811\u5de5\u623f(\u661f\u6e38\u57ce\u5e97)", "biz": "050200 \u9910\u996e\u670d\u52a1;\u5916\u56fd\u9910\u5385;\u5916\u56fd\u9910\u5385", "pty": "0502"}}, {"type": "Feature", "geometry": {"type": "Point", "coordinates": [121.45592887500577, 31.204114776158725]}, "properties": {"name": "\u5927\u6e14\u00b7\u91d1\u67aa\u9c7c\u6d77\u9c9c\u996d(\u8087\u5609\u6d5c\u8def\u5e97)", "biz": "050200 \u9910\u996e\u670d\u52a1;\u5916\u56fd\u9910\u5385;\u5916\u56fd\u9910\u5385", "pty": "0502"}}, {"type": "Feature", "geometry": {"type": "Point", "coordinates": [121.43692532540899, 31.189935602070854]}, "properties": {"name": "\u94c1\u677f\u70e7\u65e5\u672c\u6599\u7406", "biz": "050200 \u9910\u996e\u670d\u52a1;\u5916\u56fd\u9910\u5385;\u5916\u56fd\u9910\u5385", "pty": "0502"}}, {"type": "Feature", "geometry": {"type": "Point", "coordinates": [121.43529660504329, 31.195144282496553]}, "properties": {"name": "\u5927\u99a5\u70e7\u8089\u4e95\u996dDAFU DONG(\u7f8e\u7f57\u57ce)", "biz": "050200 \u9910\u996e\u670d\u52a1;\u5916\u56fd\u9910\u5385;\u5916\u56fd\u9910\u5385", "pty": "0502"}}, {"type": "Feature", "geometry": {"type": "Point", "coordinates": [121.44669118933969, 31.204794825363837]}, "properties": {"name": "The Picnic", "biz": "050200 \u9910\u996e\u670d\u52a1;\u5916\u56fd\u9910\u5385;\u5916\u56fd\u9910\u5385", "pty": "0502"}}, {"type": "Feature", "geometry": {"type": "Point", "coordinates": [121.41476883526366, 31.182763568072232]}, "properties": {"name": "\u5c0f\u94c1\u541b\u4e32\u70e7\u5c45\u9152\u5c4b(\u7530\u5c1a\u574a\u5e97)", "biz": "050200 \u9910\u996e\u670d\u52a1;\u5916\u56fd\u9910\u5385;\u5916\u56fd\u9910\u5385", "pty": "0502"}}, {"type": "Feature", "geometry": {"type": "Point", "coordinates": [121.42738966994239, 31.170864776743077]}, "properties": {"name": "\u82b1\u6021\u5a77", "biz": "050200 \u9910\u996e\u670d\u52a1;\u5916\u56fd\u9910\u5385;\u5916\u56fd\u9910\u5385", "pty": "0502"}}, {"type": "Feature", "geometry": {"type": "Point", "coordinates": [121.45577804919374, 31.20873717679296]}, "properties": {"name": "BURDIGALA\u5609\u5584\u8def\u5e97", "biz": "050200 \u9910\u996e\u670d\u52a1;\u5916\u56fd\u9910\u5385;\u5916\u56fd\u9910\u5385", "pty": "0502"}}, {"type": "Feature", "geometry": {"type": "Point", "coordinates": [121.46129448640724, 31.205603229381506]}, "properties": {"name": "\u4e0a\u6d77\u5f90\u6c47\u745e\u5cf0\u9152\u5e97-\u9f0e\u6c47\u5385", "biz": "050200 \u9910\u996e\u670d\u52a1;\u5916\u56fd\u9910\u5385;\u5916\u56fd\u9910\u5385", "pty": "0502"}}, {"type": "Feature", "geometry": {"type": "Point", "coordinates": [121.45375563017, 31.217543218626584]}, "properties": {"name": "Gaia 2 Ristorante&Bar", "biz": "050200 \u9910\u996e\u670d\u52a1;\u5916\u56fd\u9910\u5385;\u5916\u56fd\u9910\u5385", "pty": "0502"}}, {"type": "Feature", "geometry": {"type": "Point", "coordinates": [121.41340826789383, 31.22142969205335]}, "properties": {"name": "\u65e5\u97e9\u5f0f\u6599\u7406\u5e97(\u73ab\u7470\u574a)", "biz": "050200 \u9910\u996e\u670d\u52a1;\u5916\u56fd\u9910\u5385;\u5916\u56fd\u9910\u5385", "pty": "0502"}}, {"type": "Feature", "geometry": {"type": "Point", "coordinates": [121.40375561163833, 31.209380765536277]}, "properties": {"name": "\u83b2\u6c60\u5370\u5ea6\u9910\u5385(\u8679\u6865\u5357\u4e30\u57ce\u5e97)", "biz": "050200 \u9910\u996e\u670d\u52a1;\u5916\u56fd\u9910\u5385;\u5916\u56fd\u9910\u5385", "pty": "0502"}}, {"type": "Feature", "geometry": {"type": "Point", "coordinates": [121.39790644039543, 31.210761298068903]}, "properties": {"name": "saladbox(\u91d1\u8679\u6865\u5e97)", "biz": "050200 \u9910\u996e\u670d\u52a1;\u5916\u56fd\u9910\u5385;\u5916\u56fd\u9910\u5385", "pty": "0502"}}, {"type": "Feature", "geometry": {"type": "Point", "coordinates": [121.3880613873264, 31.202496325410863]}, "properties": {"name": "\u7af9\u82e5\u91d1\u67aa\u9c7c(\u661f\u7a7a\u5e7f\u573a\u5e97)", "biz": "050200 \u9910\u996e\u670d\u52a1;\u5916\u56fd\u9910\u5385;\u5916\u56fd\u9910\u5385", "pty": "0502"}}, {"type": "Feature", "geometry": {"type": "Point", "coordinates": [121.40292035446178, 31.209342576174013]}, "properties": {"name": "\u829d\u6e56\u53c2\u9e21\u6c64(\u8679\u6865\u5357\u4e30\u57ce\u5e97)", "biz": "050200 \u9910\u996e\u670d\u52a1;\u5916\u56fd\u9910\u5385;\u5916\u56fd\u9910\u5385", "pty": "0502"}}, {"type": "Feature", "geometry": {"type": "Point", "coordinates": [121.3975503818215, 31.211364008247553]}, "properties": {"name": "Sale pepe(\u91d1\u5149\u7eff\u5ead\u5e97)", "biz": "050200 \u9910\u996e\u670d\u52a1;\u5916\u56fd\u9910\u5385;\u5916\u56fd\u9910\u5385", "pty": "0502"}}, {"type": "Feature", "geometry": {"type": "Point", "coordinates": [121.40305184896508, 31.204109143006846]}, "properties": {"name": "\u897f\u73ed\u7259\u5c0f\u76c5\u6599\u7406", "biz": "050200 \u9910\u996e\u670d\u52a1;\u5916\u56fd\u9910\u5385;\u5916\u56fd\u9910\u5385", "pty": "0502"}}, {"type": "Feature", "geometry": {"type": "Point", "coordinates": [121.38044587644204, 31.20841478208986]}, "properties": {"name": "\u9e1f\u519b\u65e5\u5f0f\u70e7\u70e4\u6df1\u591c\u98df\u5802", "biz": "050200 \u9910\u996e\u670d\u52a1;\u5916\u56fd\u9910\u5385;\u5916\u56fd\u9910\u5385", "pty": "0502"}}, {"type": "Feature", "geometry": {"type": "Point", "coordinates": [121.38309983142575, 31.208281073916865]}, "properties": {"name": "\u7a57\u4e43\u9999", "biz": "050200 \u9910\u996e\u670d\u52a1;\u5916\u56fd\u9910\u5385;\u5916\u56fd\u9910\u5385", "pty": "0502"}}, {"type": "Feature", "geometry": {"type": "Point", "coordinates": [121.39710019194385, 31.213562961319923]}, "properties": {"name": "\u829d\u58eb\u9b54\u9b3cCheeseMonster\u65b0\u6982\u5ff5\u97e9\u56fd\u6599\u7406", "biz": "050200 \u9910\u996e\u670d\u52a1;\u5916\u56fd\u9910\u5385;\u5916\u56fd\u9910\u5385", "pty": "0502"}}, {"type": "Feature", "geometry": {"type": "Point", "coordinates": [121.37338419766186, 31.20494848185895]}, "properties": {"name": "\u897f\u90ca\u5bbe\u99861921\u897f\u9910\u5385", "biz": "050200 \u9910\u996e\u670d\u52a1;\u5916\u56fd\u9910\u5385;\u5916\u56fd\u9910\u5385", "pty": "0502"}}, {"type": "Feature", "geometry": {"type": "Point", "coordinates": [121.40938248908158, 31.219074345926963]}, "properties": {"name": "\u83ab\u5c14\u987f\u725b\u6392\u574a(\u957f\u5b81\u6765\u798f\u58eb\u5e97)", "biz": "050200 \u9910\u996e\u670d\u52a1;\u5916\u56fd\u9910\u5385;\u5916\u56fd\u9910\u5385", "pty": "0502"}}, {"type": "Feature", "geometry": {"type": "Point", "coordinates": [121.37933213969644, 31.193450932206765]}, "properties": {"name": "\u70ad\u9b42\u65e5\u5f0f\u70e7\u8089\u70e7\u70e4(\u5ef6\u5b89\u897f\u8def\u5e97)", "biz": "050200 \u9910\u996e\u670d\u52a1;\u5916\u56fd\u9910\u5385;\u5916\u56fd\u9910\u5385", "pty": "0502"}}, {"type": "Feature", "geometry": {"type": "Point", "coordinates": [121.39121366432585, 31.19648117896616]}, "properties": {"name": "\u4e0a\u96c5\u94c1\u677f\u70e7(\u53e4\u5317\u5e97)", "biz": "050200 \u9910\u996e\u670d\u52a1;\u5916\u56fd\u9910\u5385;\u5916\u56fd\u9910\u5385", "pty": "0502"}}, {"type": "Feature", "geometry": {"type": "Point", "coordinates": [121.38415645507469, 31.215731867802557]}, "properties": {"name": "Venexia(\u7f24\u8c37\u5e7f\u573a\u5e97)", "biz": "050200 \u9910\u996e\u670d\u52a1;\u5916\u56fd\u9910\u5385;\u5916\u56fd\u9910\u5385", "pty": "0502"}}, {"type": "Feature", "geometry": {"type": "Point", "coordinates": [121.40044811939846, 31.217146405028828]}, "properties": {"name": "\u9e1f\u5c4b(\u5a04\u5c71\u5173\u8def)", "biz": "050200 \u9910\u996e\u670d\u52a1;\u5916\u56fd\u9910\u5385;\u5916\u56fd\u9910\u5385", "pty": "0502"}}, {"type": "Feature", "geometry": {"type": "Point", "coordinates": [121.37958096486774, 31.192939996978623]}, "properties": {"name": "\u745e\u6e76\u5c0f\u9986", "biz": "050200 \u9910\u996e\u670d\u52a1;\u5916\u56fd\u9910\u5385;\u5916\u56fd\u9910\u5385", "pty": "0502"}}, {"type": "Feature", "geometry": {"type": "Point", "coordinates": [121.35205812195353, 31.205100440833853]}, "properties": {"name": "12seekies\u6b27\u9646\u9910\u5385(\u534f\u548c\u8def\u5e97)", "biz": "050200 \u9910\u996e\u670d\u52a1;\u5916\u56fd\u9910\u5385;\u5916\u56fd\u9910\u5385", "pty": "0502"}}, {"type": "Feature", "geometry": {"type": "Point", "coordinates": [121.39750742300876, 31.21088823742945]}, "properties": {"name": "nanak\u5a1c\u5a1c\u53ef", "biz": "050200 \u9910\u996e\u670d\u52a1;\u5916\u56fd\u9910\u5385;\u5916\u56fd\u9910\u5385", "pty": "0502"}}, {"type": "Feature", "geometry": {"type": "Point", "coordinates": [121.41058734595475, 31.218448302570685]}, "properties": {"name": "\u6c60\u6237\u6c34\u4ea7(\u957f\u5b81\u6765\u798f\u58eb\u4e1c\u533a)", "biz": "050200 \u9910\u996e\u670d\u52a1;\u5916\u56fd\u9910\u5385;\u5916\u56fd\u9910\u5385", "pty": "0502"}}, {"type": "Feature", "geometry": {"type": "Point", "coordinates": [121.37907341621818, 31.192928389858086]}, "properties": {"name": "\u3044\u3070\u6607(\u8679\u6885\u8def\u5e97)", "biz": "050200 \u9910\u996e\u670d\u52a1;\u5916\u56fd\u9910\u5385;\u5916\u56fd\u9910\u5385", "pty": "0502"}}, {"type": "Feature", "geometry": {"type": "Point", "coordinates": [121.38913547034517, 31.196030078532143]}, "properties": {"name": "\u6bd4\u5947\u96c5(\u53e4\u5317\u5e97)", "biz": "050200 \u9910\u996e\u670d\u52a1;\u5916\u56fd\u9910\u5385;\u5916\u56fd\u9910\u5385", "pty": "0502"}}, {"type": "Feature", "geometry": {"type": "Point", "coordinates": [121.41386979953887, 31.21988674987566]}, "properties": {"name": "\u677e\u4e43\u5bb6(\u65e5\u5f0f\u732a\u6392\u4e13\u95e8\u5e97)", "biz": "050200 \u9910\u996e\u670d\u52a1;\u5916\u56fd\u9910\u5385;\u5916\u56fd\u9910\u5385", "pty": "0502"}}, {"type": "Feature", "geometry": {"type": "Point", "coordinates": [121.37962387493597, 31.193541666405856]}, "properties": {"name": "\u7ef4\u8fbe\u65af\u5370\u5ea6\u9910\u5385(\u8679\u6865\u5e97)", "biz": "050200 \u9910\u996e\u670d\u52a1;\u5916\u56fd\u9910\u5385;\u5916\u56fd\u9910\u5385", "pty": "0502"}}, {"type": "Feature", "geometry": {"type": "Point", "coordinates": [121.34994810586684, 31.22878559246238]}, "properties": {"name": "\u9c7c\u9994(\u901a\u534f\u8def\u5e97)", "biz": "050200 \u9910\u996e\u670d\u52a1;\u5916\u56fd\u9910\u5385;\u5916\u56fd\u9910\u5385", "pty": "0502"}}, {"type": "Feature", "geometry": {"type": "Point", "coordinates": [121.41455945225476, 31.207960964558538]}, "properties": {"name": "Pine Tree House(\u6768\u5b85\u8def\u5e97)", "biz": "050200 \u9910\u996e\u670d\u52a1;\u5916\u56fd\u9910\u5385;\u5916\u56fd\u9910\u5385", "pty": "0502"}}, {"type": "Feature", "geometry": {"type": "Point", "coordinates": [121.39763341626899, 31.210978193260775]}, "properties": {"name": "\u6ee1\u6765\u65e5\u672c\u6599\u7406(\u91d1\u8679\u6865\u5e97)", "biz": "050200 \u9910\u996e\u670d\u52a1;\u5916\u56fd\u9910\u5385;\u5916\u56fd\u9910\u5385", "pty": "0502"}}, {"type": "Feature", "geometry": {"type": "Point", "coordinates": [121.35148003387314, 31.218735820066822]}, "properties": {"name": "\u548c\u756a(\u534f\u548c\u8def\u5e97)", "biz": "050200 \u9910\u996e\u670d\u52a1;\u5916\u56fd\u9910\u5385;\u5916\u56fd\u9910\u5385", "pty": "0502"}}, {"type": "Feature", "geometry": {"type": "Point", "coordinates": [121.40312186760329, 31.204135146978953]}, "properties": {"name": "\u725b\u95e8\u70e7\u8089", "biz": "050200 \u9910\u996e\u670d\u52a1;\u5916\u56fd\u9910\u5385;\u5916\u56fd\u9910\u5385", "pty": "0502"}}, {"type": "Feature", "geometry": {"type": "Point", "coordinates": [121.38766255944705, 31.202734377701365]}, "properties": {"name": "\u5929\u7fd4", "biz": "050200 \u9910\u996e\u670d\u52a1;\u5916\u56fd\u9910\u5385;\u5916\u56fd\u9910\u5385", "pty": "0502"}}, {"type": "Feature", "geometry": {"type": "Point", "coordinates": [121.41565868125149, 31.21719039332493]}, "properties": {"name": "HOME GARDEN", "biz": "050200 \u9910\u996e\u670d\u52a1;\u5916\u56fd\u9910\u5385;\u5916\u56fd\u9910\u5385", "pty": "0502"}}, {"type": "Feature", "geometry": {"type": "Point", "coordinates": [121.38874556785984, 31.196836827895023]}, "properties": {"name": "MIZUKI", "biz": "050200 \u9910\u996e\u670d\u52a1;\u5916\u56fd\u9910\u5385;\u5916\u56fd\u9910\u5385", "pty": "0502"}}, {"type": "Feature", "geometry": {"type": "Point", "coordinates": [121.41606859219145, 31.19983710844296]}, "properties": {"name": "\u7af9\u6708\u4ead", "biz": "050200 \u9910\u996e\u670d\u52a1;\u5916\u56fd\u9910\u5385;\u5916\u56fd\u9910\u5385", "pty": "0502"}}, {"type": "Feature", "geometry": {"type": "Point", "coordinates": [121.41030015195166, 31.218399162697764]}, "properties": {"name": "\u9ccd\u58eb\u9053(\u957f\u5b81\u6765\u798f\u58eb\u4e1c\u533a)", "biz": "050200 \u9910\u996e\u670d\u52a1;\u5916\u56fd\u9910\u5385;\u5916\u56fd\u9910\u5385", "pty": "0502"}}, {"type": "Feature", "geometry": {"type": "Point", "coordinates": [121.39719063300316, 31.19701299910104]}, "properties": {"name": "SITEWine&Dine\u9910\u5427(\u53e4\u5317\u9ec4\u91d1\u57ce\u5e97)", "biz": "050200 \u9910\u996e\u670d\u52a1;\u5916\u56fd\u9910\u5385;\u5916\u56fd\u9910\u5385", "pty": "0502"}}, {"type": "Feature", "geometry": {"type": "Point", "coordinates": [121.39777871492912, 31.20757783367635]}, "properties": {"name": "\u58f9\u5956\u94c1\u677f\u5c45\u9152\u5c4b(\u4ed9\u971e\u8def\u5e97)", "biz": "050200 \u9910\u996e\u670d\u52a1;\u5916\u56fd\u9910\u5385;\u5916\u56fd\u9910\u5385", "pty": "0502"}}, {"type": "Feature", "geometry": {"type": "Point", "coordinates": [121.41805185228978, 31.220613819233808]}, "properties": {"name": "\u94f6-Gin(\u611a\u56ed\u8def\u5e97)", "biz": "050200 \u9910\u996e\u670d\u52a1;\u5916\u56fd\u9910\u5385;\u5916\u56fd\u9910\u5385", "pty": "0502"}}, {"type": "Feature", "geometry": {"type": "Point", "coordinates": [121.38909050359354, 31.195866176084166]}, "properties": {"name": "\u85cf\u96ea\u65e5\u672c\u6599\u7406", "biz": "050200 \u9910\u996e\u670d\u52a1;\u5916\u56fd\u9910\u5385;\u5916\u56fd\u9910\u5385", "pty": "0502"}}, {"type": "Feature", "geometry": {"type": "Point", "coordinates": [121.43081949623802, 31.215663354285468]}, "properties": {"name": "\u52a0\u5dde\u996d\u9986", "biz": "050200 \u9910\u996e\u670d\u52a1;\u5916\u56fd\u9910\u5385;\u5916\u56fd\u9910\u5385", "pty": "0502"}}, {"type": "Feature", "geometry": {"type": "Point", "coordinates": [121.3825265557045, 31.21622262166352]}, "properties": {"name": "\u5e73\u58e4\u996d\u5e97(\u7f24\u8c37\u5e7f\u573a)", "biz": "050200 \u9910\u996e\u670d\u52a1;\u5916\u56fd\u9910\u5385;\u5916\u56fd\u9910\u5385", "pty": "0502"}}, {"type": "Feature", "geometry": {"type": "Point", "coordinates": [121.39197142382035, 31.208126290938864]}, "properties": {"name": "\u7f8e\u7235\u9152\u5e97\u81ea\u52a9\u9910\u5385", "biz": "050200 \u9910\u996e\u670d\u52a1;\u5916\u56fd\u9910\u5385;\u5916\u56fd\u9910\u5385", "pty": "0502"}}, {"type": "Feature", "geometry": {"type": "Point", "coordinates": [121.37853571753757, 31.195092738958568]}, "properties": {"name": "Little Huia(\u8679\u6885\u8def\u5e97)", "biz": "050200 \u9910\u996e\u670d\u52a1;\u5916\u56fd\u9910\u5385;\u5916\u56fd\u9910\u5385", "pty": "0502"}}, {"type": "Feature", "geometry": {"type": "Point", "coordinates": [121.3838236694132, 31.215834012173325]}, "properties": {"name": "\u5168\u5dde\u5370\u8c61(\u7f24\u8c37\u6587\u5316\u4f11\u95f2\u5e7f\u573a\u5e97)", "biz": "050200 \u9910\u996e\u670d\u52a1;\u5916\u56fd\u9910\u5385;\u5916\u56fd\u9910\u5385", "pty": "0502"}}, {"type": "Feature", "geometry": {"type": "Point", "coordinates": [121.39752339478815, 31.211213081038895]}, "properties": {"name": "Mister Donut(\u91d1\u8679\u6865\u96c5\u54c1\u5609\u5e97)", "biz": "050200 \u9910\u996e\u670d\u52a1;\u5916\u56fd\u9910\u5385;\u5916\u56fd\u9910\u5385", "pty": "0502"}}, {"type": "Feature", "geometry": {"type": "Point", "coordinates": [121.40033843591995, 31.21331821956285]}, "properties": {"name": "\u6770\u8d1d\u65af\u51b0\u9c9c\u725b\u6392(\u6c47\u91d1\u5e97)", "biz": "050200 \u9910\u996e\u670d\u52a1;\u5916\u56fd\u9910\u5385;\u5916\u56fd\u9910\u5385", "pty": "0502"}}, {"type": "Feature", "geometry": {"type": "Point", "coordinates": [121.41396888752931, 31.219872828269132]}, "properties": {"name": "\u5320\u9762\u4e00\u756a\u5c71", "biz": "050200 \u9910\u996e\u670d\u52a1;\u5916\u56fd\u9910\u5385;\u5916\u56fd\u9910\u5385", "pty": "0502"}}, {"type": "Feature", "geometry": {"type": "Point", "coordinates": [121.4225975921007, 31.229592204617514]}, "properties": {"name": "\u66e6\u725b\u65e5\u6599(KING88\u5546\u4e1a\u5e7f\u573a\u5e97)", "biz": "050200 \u9910\u996e\u670d\u52a1;\u5916\u56fd\u9910\u5385;\u5916\u56fd\u9910\u5385", "pty": "0502"}}, {"type": "Feature", "geometry": {"type": "Point", "coordinates": [121.40522827538372, 31.219546348829915]}, "properties": {"name": "\u7231\u83f2\u529b\u725b\u6392(\u4e2d\u5c71\u516c\u56ed\u5e97)", "biz": "050200 \u9910\u996e\u670d\u52a1;\u5916\u56fd\u9910\u5385;\u5916\u56fd\u9910\u5385", "pty": "0502"}}, {"type": "Feature", "geometry": {"type": "Point", "coordinates": [121.38840780489271, 31.195854445114833]}, "properties": {"name": "\u30d0\u30f3\u30b5\u30f3\u30ab\u30f3\u6669\u9910\u9986\u5496\u55b1\u996d", "biz": "050200 \u9910\u996e\u670d\u52a1;\u5916\u56fd\u9910\u5385;\u5916\u56fd\u9910\u5385", "pty": "0502"}}, {"type": "Feature", "geometry": {"type": "Point", "coordinates": [121.38347786866618, 31.193321168140614]}, "properties": {"name": "\u6bd4\u5229\u65f6\u5564\u9152\u9910\u5385", "biz": "050200 \u9910\u996e\u670d\u52a1;\u5916\u56fd\u9910\u5385;\u5916\u56fd\u9910\u5385", "pty": "0502"}}, {"type": "Feature", "geometry": {"type": "Point", "coordinates": [121.40949058279551, 31.218788537951248]}, "properties": {"name": "\u94f6\u674f\u5c4b(\u6765\u798f\u58eb\u5e7f\u573a\u5e97)", "biz": "050200 \u9910\u996e\u670d\u52a1;\u5916\u56fd\u9910\u5385;\u5916\u56fd\u9910\u5385", "pty": "0502"}}, {"type": "Feature", "geometry": {"type": "Point", "coordinates": [121.38935816261386, 31.19850078049322]}, "properties": {"name": "\u838e\u4e48\u725b\u6392(\u53e4\u5317\u5e97)", "biz": "050200 \u9910\u996e\u670d\u52a1;\u5916\u56fd\u9910\u5385;\u5916\u56fd\u9910\u5385", "pty": "0502"}}, {"type": "Feature", "geometry": {"type": "Point", "coordinates": [121.39040271912818, 31.198991186304916]}, "properties": {"name": "SATO\u9526", "biz": "050200 \u9910\u996e\u670d\u52a1;\u5916\u56fd\u9910\u5385;\u5916\u56fd\u9910\u5385", "pty": "0502"}}, {"type": "Feature", "geometry": {"type": "Point", "coordinates": [121.397786397372, 31.211223075343334]}, "properties": {"name": "\u805a\u9152\u9505(\u91d1\u8679\u6865\u56fd\u9645\u5e97)", "biz": "050200 \u9910\u996e\u670d\u52a1;\u5916\u56fd\u9910\u5385;\u5916\u56fd\u9910\u5385", "pty": "0502"}}, {"type": "Feature", "geometry": {"type": "Point", "coordinates": [121.41345043286287, 31.219946422624503]}, "properties": {"name": "\u59fb\u7f18\u70ad\u70e4", "biz": "050200 \u9910\u996e\u670d\u52a1;\u5916\u56fd\u9910\u5385;\u5916\u56fd\u9910\u5385", "pty": "0502"}}, {"type": "Feature", "geometry": {"type": "Point", "coordinates": [121.37864758750202, 31.19540349694129]}, "properties": {"name": "\u4e07\u706b\u9152\u573a", "biz": "050200 \u9910\u996e\u670d\u52a1;\u5916\u56fd\u9910\u5385;\u5916\u56fd\u9910\u5385", "pty": "0502"}}, {"type": "Feature", "geometry": {"type": "Point", "coordinates": [121.38393675903502, 31.21392885618333]}, "properties": {"name": "MOTOYA\u3082\u3068\u3084\u672c\u5e97(\u5929\u5c71\u5e97)", "biz": "050200 \u9910\u996e\u670d\u52a1;\u5916\u56fd\u9910\u5385;\u5916\u56fd\u9910\u5385", "pty": "0502"}}, {"type": "Feature", "geometry": {"type": "Point", "coordinates": [121.41419909287985, 31.21985300617311]}, "properties": {"name": "AJIYA(\u4e2d\u5c71\u516c\u56ed\u5e97)", "biz": "050200 \u9910\u996e\u670d\u52a1;\u5916\u56fd\u9910\u5385;\u5916\u56fd\u9910\u5385", "pty": "0502"}}, {"type": "Feature", "geometry": {"type": "Point", "coordinates": [121.39802443705841, 31.21083926176557]}, "properties": {"name": "\u53c1\u6587\u5b57\u70e7(\u91d1\u8679\u6865\u56fd\u9645\u4e2d\u5fc3\u5e97)", "biz": "050200 \u9910\u996e\u670d\u52a1;\u5916\u56fd\u9910\u5385;\u5916\u56fd\u9910\u5385", "pty": "0502"}}, {"type": "Feature", "geometry": {"type": "Point", "coordinates": [121.3964075655926, 31.209543922315753]}, "properties": {"name": "\u770b\u677f\u306a\u3044\u5bff\u53f8\u5e97", "biz": "050200 \u9910\u996e\u670d\u52a1;\u5916\u56fd\u9910\u5385;\u5916\u56fd\u9910\u5385", "pty": "0502"}}, {"type": "Feature", "geometry": {"type": "Point", "coordinates": [121.38759358949515, 31.202781384566766]}, "properties": {"name": "\u795e\u95e8\u70e7\u8089", "biz": "050200 \u9910\u996e\u670d\u52a1;\u5916\u56fd\u9910\u5385;\u5916\u56fd\u9910\u5385", "pty": "0502"}}, {"type": "Feature", "geometry": {"type": "Point", "coordinates": [121.4132561598093, 31.221195696290874]}, "properties": {"name": "\u3044\u3070\u6607(\u4e2d\u5c71\u516c\u56ed\u5e97)", "biz": "050200 \u9910\u996e\u670d\u52a1;\u5916\u56fd\u9910\u5385;\u5916\u56fd\u9910\u5385", "pty": "0502"}}, {"type": "Feature", "geometry": {"type": "Point", "coordinates": [121.38886054389785, 31.196534932644052]}, "properties": {"name": "H-Acca(\u53e4\u5317\u5e97)", "biz": "050200 \u9910\u996e\u670d\u52a1;\u5916\u56fd\u9910\u5385;\u5916\u56fd\u9910\u5385", "pty": "0502"}}, {"type": "Feature", "geometry": {"type": "Point", "coordinates": [121.38332391221518, 31.217007751304514]}, "properties": {"name": "BONNE STOCK", "biz": "050200 \u9910\u996e\u670d\u52a1;\u5916\u56fd\u9910\u5385;\u5916\u56fd\u9910\u5385", "pty": "0502"}}, {"type": "Feature", "geometry": {"type": "Point", "coordinates": [121.40438646413327, 31.20213446067586]}, "properties": {"name": "\u771f\u6728\u4e43", "biz": "050200 \u9910\u996e\u670d\u52a1;\u5916\u56fd\u9910\u5385;\u5916\u56fd\u9910\u5385", "pty": "0502"}}, {"type": "Feature", "geometry": {"type": "Point", "coordinates": [121.34746543246926, 31.223797072196415]}, "properties": {"name": "Salamy(\u51cc\u7a7aSOHO\u5e97)", "biz": "050200 \u9910\u996e\u670d\u52a1;\u5916\u56fd\u9910\u5385;\u5916\u56fd\u9910\u5385", "pty": "0502"}}, {"type": "Feature", "geometry": {"type": "Point", "coordinates": [121.38172614589043, 31.216418052164773]}, "properties": {"name": "Cataly Italian Pizza Cafe", "biz": "050200 \u9910\u996e\u670d\u52a1;\u5916\u56fd\u9910\u5385;\u5916\u56fd\u9910\u5385", "pty": "0502"}}, {"type": "Feature", "geometry": {"type": "Point", "coordinates": [121.35593224450749, 31.19098935442069]}, "properties": {"name": "\u6c99\u900a\u82b1\u56ed", "biz": "050200 \u9910\u996e\u670d\u52a1;\u5916\u56fd\u9910\u5385;\u5916\u56fd\u9910\u5385", "pty": "0502"}}, {"type": "Feature", "geometry": {"type": "Point", "coordinates": [121.41240367911337, 31.218710296418063]}, "properties": {"name": "\u8f70\u4e3c", "biz": "050200 \u9910\u996e\u670d\u52a1;\u5916\u56fd\u9910\u5385;\u5916\u56fd\u9910\u5385", "pty": "0502"}}, {"type": "Feature", "geometry": {"type": "Point", "coordinates": [121.41249358299746, 31.220637443193393]}, "properties": {"name": "\u7956\u84dd\u6b27\u5f0f\u9910\u5385", "biz": "050200 \u9910\u996e\u670d\u52a1;\u5916\u56fd\u9910\u5385;\u5916\u56fd\u9910\u5385", "pty": "0502"}}, {"type": "Feature", "geometry": {"type": "Point", "coordinates": [121.38761956293519, 31.20293829676314]}, "properties": {"name": "\u85ae\u516b(\u3084\u3076\u306f\u3061)\u835e\u9ea6\u9762\u65e5\u672c\u6599\u7406", "biz": "050200 \u9910\u996e\u670d\u52a1;\u5916\u56fd\u9910\u5385;\u5916\u56fd\u9910\u5385", "pty": "0502"}}, {"type": "Feature", "geometry": {"type": "Point", "coordinates": [121.39752842731677, 31.21084026031498]}, "properties": {"name": "Me Gusta", "biz": "050200 \u9910\u996e\u670d\u52a1;\u5916\u56fd\u9910\u5385;\u5916\u56fd\u9910\u5385", "pty": "0502"}}, {"type": "Feature", "geometry": {"type": "Point", "coordinates": [121.41059432967748, 31.218691191350974]}, "properties": {"name": "THEISLES\u5c0f\u5c9b\u9c7c\u85afFISH(\u6765\u798f\u58eb\u5e7f\u573a\u957f\u5b81\u5e97)", "biz": "050200 \u9910\u996e\u670d\u52a1;\u5916\u56fd\u9910\u5385;\u5916\u56fd\u9910\u5385", "pty": "0502"}}, {"type": "Feature", "geometry": {"type": "Point", "coordinates": [121.3881909043203, 31.195863528328257]}, "properties": {"name": "Green House", "biz": "050200 \u9910\u996e\u670d\u52a1;\u5916\u56fd\u9910\u5385;\u5916\u56fd\u9910\u5385", "pty": "0502"}}, {"type": "Feature", "geometry": {"type": "Point", "coordinates": [121.41535071998447, 31.201853543587468]}, "properties": {"name": "\u5473\u798f\u70e7\u70e4\u6599\u7406", "biz": "050200 \u9910\u996e\u670d\u52a1;\u5916\u56fd\u9910\u5385;\u5916\u56fd\u9910\u5385", "pty": "0502"}}, {"type": "Feature", "geometry": {"type": "Point", "coordinates": [121.41296096336177, 31.197649848033873]}, "properties": {"name": "\u86791088\u6fb3\u6d32\u8fdb\u53e3\u725b\u8089", "biz": "050200 \u9910\u996e\u670d\u52a1;\u5916\u56fd\u9910\u5385;\u5916\u56fd\u9910\u5385", "pty": "0502"}}, {"type": "Feature", "geometry": {"type": "Point", "coordinates": [121.40912772313798, 31.214553366632607]}, "properties": {"name": "hey\u8272\u62c9", "biz": "050200 \u9910\u996e\u670d\u52a1;\u5916\u56fd\u9910\u5385;\u5916\u56fd\u9910\u5385", "pty": "0502"}}, {"type": "Feature", "geometry": {"type": "Point", "coordinates": [121.38800040245982, 31.202655273159678]}, "properties": {"name": "\u4e00\u5fc3\u8c5a\u65e5\u672c\u62c9\u9762\u5c45\u9152\u5c4b(\u661f\u7a7a\u5e7f\u573a\u5e97)", "biz": "050200 \u9910\u996e\u670d\u52a1;\u5916\u56fd\u9910\u5385;\u5916\u56fd\u9910\u5385", "pty": "0502"}}, {"type": "Feature", "geometry": {"type": "Point", "coordinates": [121.39389999886521, 31.207917989863272]}, "properties": {"name": "\u30e2\u30eb\u30c9\u30fc\u30eb\u30b5\u30a6\u30ca\u30a6\u30a9\u30fc\u30bf\u30fc\u30df\u30eb\u30a8\u30f3\u30bf\u30fc\u30c6\u30a4\u30e1\u30f3\u30c8\u9910\u5385", "biz": "050200 \u9910\u996e\u670d\u52a1;\u5916\u56fd\u9910\u5385;\u5916\u56fd\u9910\u5385", "pty": "0502"}}, {"type": "Feature", "geometry": {"type": "Point", "coordinates": [121.43038191691974, 31.22508726243689]}, "properties": {"name": "The Memories", "biz": "050200 \u9910\u996e\u670d\u52a1;\u5916\u56fd\u9910\u5385;\u5916\u56fd\u9910\u5385", "pty": "0502"}}, {"type": "Feature", "geometry": {"type": "Point", "coordinates": [121.41202619004166, 31.22092400397859]}, "properties": {"name": "\u7eff\u559c\u5916\u5e26\u5bff\u53f8(\u51ef\u5fb7\u9f99\u4e4b\u68a6\u8d2d\u7269\u4e2d\u5fc3\u957f\u5b81\u5e97)", "biz": "050200 \u9910\u996e\u670d\u52a1;\u5916\u56fd\u9910\u5385;\u5916\u56fd\u9910\u5385", "pty": "0502"}}, {"type": "Feature", "geometry": {"type": "Point", "coordinates": [121.43240302574705, 31.207653570830676]}, "properties": {"name": "Chez Maurice Bistro", "biz": "050200 \u9910\u996e\u670d\u52a1;\u5916\u56fd\u9910\u5385;\u5916\u56fd\u9910\u5385", "pty": "0502"}}, {"type": "Feature", "geometry": {"type": "Point", "coordinates": [121.41633629833642, 31.20628418595302]}, "properties": {"name": "fleur de sel", "biz": "050200 \u9910\u996e\u670d\u52a1;\u5916\u56fd\u9910\u5385;\u5916\u56fd\u9910\u5385", "pty": "0502"}}, {"type": "Feature", "geometry": {"type": "Point", "coordinates": [121.4104172122994, 31.21862812013034]}, "properties": {"name": "Magnet\u78c1\u77f3(\u957f\u5b81\u6765\u798f\u58eb\u5e97)", "biz": "050200 \u9910\u996e\u670d\u52a1;\u5916\u56fd\u9910\u5385;\u5916\u56fd\u9910\u5385", "pty": "0502"}}, {"type": "Feature", "geometry": {"type": "Point", "coordinates": [121.37974481137698, 31.193061813692196]}, "properties": {"name": "\u307e\u308b\u307f\u3061\u4e38\u9053\u4e1c\u4eac\u70e7\u8089(\u8679\u6885\u8def\u5e97)", "biz": "050200 \u9910\u996e\u670d\u52a1;\u5916\u56fd\u9910\u5385;\u5916\u56fd\u9910\u5385", "pty": "0502"}}, {"type": "Feature", "geometry": {"type": "Point", "coordinates": [121.40880349512129, 31.21489504074583]}, "properties": {"name": "\u4e09\u79be\u6599\u7406(\u4e2d\u5c71\u516c\u56ed\u5e97)", "biz": "050200 \u9910\u996e\u670d\u52a1;\u5916\u56fd\u9910\u5385;\u5916\u56fd\u9910\u5385", "pty": "0502"}}, {"type": "Feature", "geometry": {"type": "Point", "coordinates": [121.41080050065608, 31.21839445164993]}, "properties": {"name": "\u4e50\u51ef\u6492\u00b7\u69b4\u83b2\u6bd4\u8428(\u957f\u5b81\u6765\u798f\u58eb\u5e97)", "biz": "050200 \u9910\u996e\u670d\u52a1;\u5916\u56fd\u9910\u5385;\u5916\u56fd\u9910\u5385", "pty": "0502"}}, {"type": "Feature", "geometry": {"type": "Point", "coordinates": [121.42750400229599, 31.215227942577826]}, "properties": {"name": "\u90fd\u57ce\u9910\u5385", "biz": "050200 \u9910\u996e\u670d\u52a1;\u5916\u56fd\u9910\u5385;\u5916\u56fd\u9910\u5385", "pty": "0502"}}, {"type": "Feature", "geometry": {"type": "Point", "coordinates": [121.4105343311348, 31.21819439268463]}, "properties": {"name": "\u5f7c\u5f97\u5bb6\u53a8\u623f(\u957f\u5b81\u6765\u798f\u58eb\u5e97)", "biz": "050200 \u9910\u996e\u670d\u52a1;\u5916\u56fd\u9910\u5385;\u5916\u56fd\u9910\u5385", "pty": "0502"}}, {"type": "Feature", "geometry": {"type": "Point", "coordinates": [121.3985893203624, 31.212483486101885]}, "properties": {"name": "\u660e\u6cf0\u8c37", "biz": "050200 \u9910\u996e\u670d\u52a1;\u5916\u56fd\u9910\u5385;\u5916\u56fd\u9910\u5385", "pty": "0502"}}, {"type": "Feature", "geometry": {"type": "Point", "coordinates": [121.40277207745105, 31.212035246677072]}, "properties": {"name": "\u8f7b\u53a8\u623fLight Cafe\u8f7b\u98df\u6c99\u62c9\u5496\u5561\u679c\u6c41", "biz": "050200 \u9910\u996e\u670d\u52a1;\u5916\u56fd\u9910\u5385;\u5916\u56fd\u9910\u5385", "pty": "0502"}}, {"type": "Feature", "geometry": {"type": "Point", "coordinates": [121.34746641091974, 31.224022964389878]}, "properties": {"name": "\u9038\u7f8e\u65f6\u5149", "biz": "050200 \u9910\u996e\u670d\u52a1;\u5916\u56fd\u9910\u5385;\u5916\u56fd\u9910\u5385", "pty": "0502"}}, {"type": "Feature", "geometry": {"type": "Point", "coordinates": [121.43189397647824, 31.22062059682399]}, "properties": {"name": "MINI\u5496\u55b1\u5c4b(\u9547\u5b81\u8def\u5e97)", "biz": "050200 \u9910\u996e\u670d\u52a1;\u5916\u56fd\u9910\u5385;\u5916\u56fd\u9910\u5385", "pty": "0502"}}, {"type": "Feature", "geometry": {"type": "Point", "coordinates": [121.39171254881855, 31.196064249290433]}, "properties": {"name": "\u7ef4\u5fc3\u8c5a\u9aa8\u62c9\u9762", "biz": "050200 \u9910\u996e\u670d\u52a1;\u5916\u56fd\u9910\u5385;\u5916\u56fd\u9910\u5385", "pty": "0502"}}, {"type": "Feature", "geometry": {"type": "Point", "coordinates": [121.34741852344946, 31.223830136142368]}, "properties": {"name": "\u6c90\u98ce\u9762\u5c4b", "biz": "050200 \u9910\u996e\u670d\u52a1;\u5916\u56fd\u9910\u5385;\u5916\u56fd\u9910\u5385", "pty": "0502"}}, {"type": "Feature", "geometry": {"type": "Point", "coordinates": [121.39732517622252, 31.213717882026252]}, "properties": {"name": "Oscar", "biz": "050200 \u9910\u996e\u670d\u52a1;\u5916\u56fd\u9910\u5385;\u5916\u56fd\u9910\u5385", "pty": "0502"}}, {"type": "Feature", "geometry": {"type": "Point", "coordinates": [121.42141804260245, 31.22974085609143]}, "properties": {"name": "B5CAFE", "biz": "050200 \u9910\u996e\u670d\u52a1;\u5916\u56fd\u9910\u5385;\u5916\u56fd\u9910\u5385", "pty": "0502"}}, {"type": "Feature", "geometry": {"type": "Point", "coordinates": [121.40687887601042, 31.209817609009306]}, "properties": {"name": "\u732b\u4ee3\u5bff\u53f8\u7b80\u9910\u6c99\u62c9", "biz": "050200 \u9910\u996e\u670d\u52a1;\u5916\u56fd\u9910\u5385;\u5916\u56fd\u9910\u5385", "pty": "0502"}}, {"type": "Feature", "geometry": {"type": "Point", "coordinates": [121.38259079385466, 31.20147070386517]}, "properties": {"name": "\u7f8e\u7f57\u601d\u6bd4\u8428(\u8679\u6865\u8def\u5e97)", "biz": "050200 \u9910\u996e\u670d\u52a1;\u5916\u56fd\u9910\u5385;\u5916\u56fd\u9910\u5385", "pty": "0502"}}, {"type": "Feature", "geometry": {"type": "Point", "coordinates": [121.40189941541765, 31.20556419329075]}, "properties": {"name": "\u65e5\u5f0f\u521b\u610f\u6599\u7406", "biz": "050200 \u9910\u996e\u670d\u52a1;\u5916\u56fd\u9910\u5385;\u5916\u56fd\u9910\u5385", "pty": "0502"}}, {"type": "Feature", "geometry": {"type": "Point", "coordinates": [121.38947109620274, 31.198735624690354]}, "properties": {"name": "\u4e00\u5377\u5c4b\u94c1\u677f\u70e7", "biz": "050200 \u9910\u996e\u670d\u52a1;\u5916\u56fd\u9910\u5385;\u5916\u56fd\u9910\u5385", "pty": "0502"}}, {"type": "Feature", "geometry": {"type": "Point", "coordinates": [121.34757823129489, 31.223517012896423]}, "properties": {"name": "\u5168\u5dde\u5370\u8c61(\u51cc\u7a7aSOHO\u5e97)", "biz": "050200 \u9910\u996e\u670d\u52a1;\u5916\u56fd\u9910\u5385;\u5916\u56fd\u9910\u5385", "pty": "0502"}}, {"type": "Feature", "geometry": {"type": "Point", "coordinates": [121.38804939135802, 31.20251532110889]}, "properties": {"name": "\u98df\u4e45\u5bff\u53f8(\u661f\u7a7a\u5e7f\u573a\u5e97)", "biz": "050200 \u9910\u996e\u670d\u52a1;\u5916\u56fd\u9910\u5385;\u5916\u56fd\u9910\u5385", "pty": "0502"}}, {"type": "Feature", "geometry": {"type": "Point", "coordinates": [121.4030538360587, 31.204264068066863]}, "properties": {"name": "\u7f8e\u4f0a\u5a1c(\u4f0a\u7281\u8def)", "biz": "050200 \u9910\u996e\u670d\u52a1;\u5916\u56fd\u9910\u5385;\u5916\u56fd\u9910\u5385", "pty": "0502"}}, {"type": "Feature", "geometry": {"type": "Point", "coordinates": [121.41101231330708, 31.222284736793014]}, "properties": {"name": "\u677e\u5c3a\u5c4b\u7089\u7aef\u70e7", "biz": "050200 \u9910\u996e\u670d\u52a1;\u5916\u56fd\u9910\u5385;\u5916\u56fd\u9910\u5385", "pty": "0502"}}, {"type": "Feature", "geometry": {"type": "Point", "coordinates": [121.4055946155848, 31.205937998864446]}, "properties": {"name": "WASABI\u65e5\u672c\u6599\u7406(\u4ed9\u971e\u8def\u5e97)", "biz": "050200 \u9910\u996e\u670d\u52a1;\u5916\u56fd\u9910\u5385;\u5916\u56fd\u9910\u5385", "pty": "0502"}}, {"type": "Feature", "geometry": {"type": "Point", "coordinates": [121.39875590919821, 31.205853692268068]}, "properties": {"name": "\u798f\u70e4\u9526\u82b1(\u65b0\u4e16\u7eaa\u5e7f\u573a\u5e97)", "biz": "050200 \u9910\u996e\u670d\u52a1;\u5916\u56fd\u9910\u5385;\u5916\u56fd\u9910\u5385", "pty": "0502"}}, {"type": "Feature", "geometry": {"type": "Point", "coordinates": [121.41924301136241, 31.211215414666434]}, "properties": {"name": "PIZZA CLASIC", "biz": "050200 \u9910\u996e\u670d\u52a1;\u5916\u56fd\u9910\u5385;\u5916\u56fd\u9910\u5385", "pty": "0502"}}, {"type": "Feature", "geometry": {"type": "Point", "coordinates": [121.4101531376485, 31.217417546876227]}, "properties": {"name": "MAGENT(\u957f\u5b81\u6765\u798f\u58eb\u4e1c\u533a)", "biz": "050200 \u9910\u996e\u670d\u52a1;\u5916\u56fd\u9910\u5385;\u5916\u56fd\u9910\u5385", "pty": "0502"}}, {"type": "Feature", "geometry": {"type": "Point", "coordinates": [121.40996699685239, 31.21760235647221]}, "properties": {"name": "Morganfiel's(\u957f\u5b81\u6765\u798f\u58eb\u5357\u533a)", "biz": "050200 \u9910\u996e\u670d\u52a1;\u5916\u56fd\u9910\u5385;\u5916\u56fd\u9910\u5385", "pty": "0502"}}, {"type": "Feature", "geometry": {"type": "Point", "coordinates": [121.41068446901598, 31.21781665851365]}, "properties": {"name": "MARZANO(\u957f\u5b81\u6765\u798f\u58eb\u4e1c\u533a)", "biz": "050200 \u9910\u996e\u670d\u52a1;\u5916\u56fd\u9910\u5385;\u5916\u56fd\u9910\u5385", "pty": "0502"}}, {"type": "Feature", "geometry": {"type": "Point", "coordinates": [121.40981088464846, 31.217706222306205]},