{"type": "FeatureCollection", "features": [{"type": "Feature", "geometry": {"type": "Point", "coordinates": [121.44458313723459, 31.25008140748727]}, "properties": {"name": "\u5929\u4e00\u521b\u827a\u7a7a\u95f4", "biz": "070000|110000 \u751f\u6d3b\u670d\u52a1;\u751f\u6d3b\u670d\u52a1\u573a\u6240;\u751f\u6d3b\u670d\u52a1\u573a\u6240|\u98ce\u666f\u540d\u80dc;\u98ce\u666f\u540d\u80dc\u76f8\u5173;\u65c5\u6e38\u666f\u70b9", "pty": "0700"}}, {"type": "Feature", "geometry": {"type": "Point", "coordinates": [121.48783045491547, 31.250416553950068]}, "properties": {"name": "\u5929\u4e3b\u6559\u4e0a\u6d77\u6559\u533a\u8036\u7a23\u5723\u5fc3\u5802", "biz": "110206|070000 \u98ce\u666f\u540d\u80dc;\u98ce\u666f\u540d\u80dc;\u6559\u5802|\u751f\u6d3b\u670d\u52a1;\u751f\u6d3b\u670d\u52a1\u573a\u6240;\u751f\u6d3b\u670d\u52a1\u573a\u6240", "pty": "1102"}}, {"type": "Feature", "geometry": {"type": "Point", "coordinates": [121.30091996966831, 31.14019723737285]}, "properties": {"name": "\u835f\u73cd\u5c4b", "biz": "110200|070000 \u98ce\u666f\u540d\u80dc;\u98ce\u666f\u540d\u80dc;\u98ce\u666f\u540d\u80dc|\u751f\u6d3b\u670d\u52a1;\u751f\u6d3b\u670d\u52a1\u573a\u6240;\u751f\u6d3b\u670d\u52a1\u573a\u6240", "pty": "1102"}}, {"type": "Feature", "geometry": {"type": "Point", "coordinates": [121.41926220935355, 31.220692915407888]}, "properties": {"name": "\u826f\u8bbeBy Yaang Life(\u611a\u56ed\u8def\u5e97)", "biz": "050100|070000 \u9910\u996e\u670d\u52a1;\u4e2d\u9910\u5385;\u4e2d\u9910\u5385|\u751f\u6d3b\u670d\u52a1;\u751f\u6d3b\u670d\u52a1\u573a\u6240;\u751f\u6d3b\u670d\u52a1\u573a\u6240", "pty": "0501"}}, {"type": "Feature", "geometry": {"type": "Point", "coordinates": [121.42452829515604, 31.229222602080313]}, "properties": {"name": "SMART CLOUD OFFICE SPACE", "biz": "050500|070000 \u9910\u996e\u670d\u52a1;\u5496\u5561\u5385;\u5496\u5561\u5385|\u751f\u6d3b\u670d\u52a1;\u751f\u6d3b\u670d\u52a1\u573a\u6240;\u751f\u6d3b\u670d\u52a1\u573a\u6240", "pty": "0505"}}, {"type": "Feature", "geometry": {"type": "Point", "coordinates": [121.4936579008517, 31.29106567755422]}, "properties": {"name": "\u66f2\u9633\u793e\u533a\u5e02\u6c11\u670d\u52a1\u9a7f\u7ad9(\u8f89\u6cb3\u8def)", "biz": "050300|070000 \u9910\u996e\u670d\u52a1;\u5feb\u9910\u5385;\u5feb\u9910\u5385|\u751f\u6d3b\u670d\u52a1;\u751f\u6d3b\u670d\u52a1\u573a\u6240;\u751f\u6d3b\u670d\u52a1\u573a\u6240", "pty": "0503"}}, {"type": "Feature", "geometry": {"type": "Point", "coordinates": [121.4379292795512, 31.3297296493581]}, "properties": {"name": "Alikesfeel Tea house", "biz": "050500|070000 \u9910\u996e\u670d\u52a1;\u5496\u5561\u5385;\u5496\u5561\u5385|\u751f\u6d3b\u670d\u52a1;\u751f\u6d3b\u670d\u52a1\u573a\u6240;\u751f\u6d3b\u670d\u52a1\u573a\u6240", "pty": "0505"}}, {"type": "Feature", "geometry": {"type": "Point", "coordinates": [121.60812951464187, 31.256833985562388]}, "properties": {"name": "\u6c34\u821f\u9601", "biz": "050600|070000 \u9910\u996e\u670d\u52a1;\u8336\u827a\u9986;\u8336\u827a\u9986|\u751f\u6d3b\u670d\u52a1;\u751f\u6d3b\u670d\u52a1\u573a\u6240;\u751f\u6d3b\u670d\u52a1\u573a\u6240", "pty": "0506"}}, {"type": "Feature", "geometry": {"type": "Point", "coordinates": [121.04974098498107, 31.10978612411924]}, "properties": {"name": "\u5f04\u5802\u753b\u5eca", "biz": "050500|070000 \u9910\u996e\u670d\u52a1;\u5496\u5561\u5385;\u5496\u5561\u5385|\u751f\u6d3b\u670d\u52a1;\u751f\u6d3b\u670d\u52a1\u573a\u6240;\u751f\u6d3b\u670d\u52a1\u573a\u6240", "pty": "0505"}}, {"type": "Feature", "geometry": {"type": "Point", "coordinates": [121.47585490789196, 31.235252492925376]}, "properties": {"name": "\u4e2d\u56fd\u79fb\u52a8\u901a\u4fe1(\u798f\u5dde\u8def\u8425\u4e1a\u5385)", "biz": "060305|070000 \u8d2d\u7269\u670d\u52a1;\u5bb6\u7535\u7535\u5b50\u5356\u573a;\u624b\u673a\u9500\u552e|\u751f\u6d3b\u670d\u52a1;\u751f\u6d3b\u670d\u52a1\u573a\u6240;\u751f\u6d3b\u670d\u52a1\u573a\u6240", "pty": "0603"}}, {"type": "Feature", "geometry": {"type": "Point", "coordinates": [121.46714081328473, 31.238950741394138]}, "properties": {"name": "\u4e2d\u56fd\u79fb\u52a8", "biz": "060305|070000 \u8d2d\u7269\u670d\u52a1;\u5bb6\u7535\u7535\u5b50\u5356\u573a;\u624b\u673a\u9500\u552e|\u751f\u6d3b\u670d\u52a1;\u751f\u6d3b\u670d\u52a1\u573a\u6240;\u751f\u6d3b\u670d\u52a1\u573a\u6240", "pty": "0603"}}, {"type": "Feature", "geometry": {"type": "Point", "coordinates": [121.46913815031866, 31.205068090626547]}, "properties": {"name": "\u597d\u7f8e\u5bb6\u5bb6\u88c5\u8bbe\u8ba1\u4e2d\u5fc3", "biz": "060604|060601|070000 \u8d2d\u7269\u670d\u52a1;\u5bb6\u5c45\u5efa\u6750\u5e02\u573a;\u53a8\u536b\u5e02\u573a|\u8d2d\u7269\u670d\u52a1;\u5bb6\u5c45\u5efa\u6750\u5e02\u573a;\u5bb6\u5177\u5efa\u6750\u7efc\u5408\u5e02\u573a|\u751f\u6d3b\u670d\u52a1;\u751f\u6d3b\u670d\u52a1\u573a\u6240;\u751f\u6d3b\u670d\u52a1\u573a\u6240", "pty": "0606"}}, {"type": "Feature", "geometry": {"type": "Point", "coordinates": [121.47621835566873, 31.221070133537964]}, "properties": {"name": "\u5ffb\u8bb0\u6c34\u7535\u571f\u6728\u5de5\u7a0b", "biz": "060603|070000 \u8d2d\u7269\u670d\u52a1;\u5bb6\u5c45\u5efa\u6750\u5e02\u573a;\u5efa\u6750\u4e94\u91d1\u5e02\u573a|\u751f\u6d3b\u670d\u52a1;\u751f\u6d3b\u670d\u52a1\u573a\u6240;\u751f\u6d3b\u670d\u52a1\u573a\u6240", "pty": "0606"}}, {"type": "Feature", "geometry": {"type": "Point", "coordinates": [121.47474680658706, 31.21591540941414]}, "properties": {"name": "\u6052\u6e90\u7965(\u987a\u660c\u8def)", "biz": "061101|070000 \u8d2d\u7269\u670d\u52a1;\u670d\u88c5\u978b\u5e3d\u76ae\u5177\u5e97;\u54c1\u724c\u670d\u88c5\u5e97|\u751f\u6d3b\u670d\u52a1;\u751f\u6d3b\u670d\u52a1\u573a\u6240;\u751f\u6d3b\u670d\u52a1\u573a\u6240", "pty": "0611"}}, {"type": "Feature", "geometry": {"type": "Point", "coordinates": [121.48029207232929, 31.236357731093925]}, "properties": {"name": "\u5f18\u6587\u9601", "biz": "061201|070000 \u8d2d\u7269\u670d\u52a1;\u4e13\u5356\u5e97;\u53e4\u73a9\u5b57\u753b\u5e97|\u751f\u6d3b\u670d\u52a1;\u751f\u6d3b\u670d\u52a1\u573a\u6240;\u751f\u6d3b\u670d\u52a1\u573a\u6240", "pty": "0612"}}, {"type": "Feature", "geometry": {"type": "Point", "coordinates": [121.48448962068633, 31.226582539650604]}, "properties": {"name": "\u71d5\u4e91\u7f8e\u672f", "biz": "061202|070000 \u8d2d\u7269\u670d\u52a1;\u4e13\u5356\u5e97;\u73e0\u5b9d\u9996\u9970\u5de5\u827a\u54c1|\u751f\u6d3b\u670d\u52a1;\u751f\u6d3b\u670d\u52a1\u573a\u6240;\u751f\u6d3b\u670d\u52a1\u573a\u6240", "pty": "0612"}}, {"type": "Feature", "geometry": {"type": "Point", "coordinates": [121.47904654172432, 31.238855983284534]}, "properties": {"name": "\u65af\u6c83\u742a\u4e13\u67dc(\u5b8f\u4f0a\u56fd\u9645\u5e7f\u573a)", "biz": "061203|070000 \u8d2d\u7269\u670d\u52a1;\u4e13\u5356\u5e97;\u949f\u8868\u5e97|\u751f\u6d3b\u670d\u52a1;\u751f\u6d3b\u670d\u52a1\u573a\u6240;\u751f\u6d3b\u670d\u52a1\u573a\u6240", "pty": "0612"}}, {"type": "Feature", "geometry": {"type": "Point", "coordinates": [121.47217964406532, 31.23422864073237]}, "properties": {"name": "\u8212\u9002\u5821(\u6765\u798f\u58eb\u5e7f\u573a)", "biz": "080111|070000 \u4f53\u80b2\u4f11\u95f2\u670d\u52a1;\u8fd0\u52a8\u573a\u9986;\u5065\u8eab\u4e2d\u5fc3|\u751f\u6d3b\u670d\u52a1;\u751f\u6d3b\u670d\u52a1\u573a\u6240;\u751f\u6d3b\u670d\u52a1\u573a\u6240", "pty": "0801"}}, {"type": "Feature", "geometry": {"type": "Point", "coordinates": [121.47017316424873, 31.209272876820833]}, "properties": {"name": "\u5de8\u7acb\u5f39\u5b50\u623f", "biz": "080113|070000 \u4f53\u80b2\u4f11\u95f2\u670d\u52a1;\u8fd0\u52a8\u573a\u9986;\u53f0\u7403\u5385|\u751f\u6d3b\u670d\u52a1;\u751f\u6d3b\u670d\u52a1\u573a\u6240;\u751f\u6d3b\u670d\u52a1\u573a\u6240", "pty": "0801"}}, {"type": "Feature", "geometry": {"type": "Point", "coordinates": [121.47570043896658, 31.234599354757307]}, "properties": {"name": "\u5168\u56fd\u9ad8\u6821\u7f51\u7edc\u6559\u80b2\u62a5\u540d\u54a8\u8be2\u4e2d\u5fc3", "biz": "140000|070000 \u79d1\u6559\u6587\u5316\u670d\u52a1;\u79d1\u6559\u6587\u5316\u573a\u6240;\u79d1\u6559\u6587\u5316\u573a\u6240|\u751f\u6d3b\u670d\u52a1;\u751f\u6d3b\u670d\u52a1\u573a\u6240;\u751f\u6d3b\u670d\u52a1\u573a\u6240", "pty": "1400"}}, {"type": "Feature", "geometry": {"type": "Point", "coordinates": [121.47908187769204, 31.236350231194713]}, "properties": {"name": "\u4e0a\u6d77\u70e8\u70fd\u6587\u5316", "biz": "070000|140000 \u751f\u6d3b\u670d\u52a1;\u751f\u6d3b\u670d\u52a1\u573a\u6240;\u751f\u6d3b\u670d\u52a1\u573a\u6240|\u79d1\u6559\u6587\u5316\u670d\u52a1;\u79d1\u6559\u6587\u5316\u573a\u6240;\u79d1\u6559\u6587\u5316\u573a\u6240", "pty": "0700"}}, {"type": "Feature", "geometry": {"type": "Point", "coordinates": [121.49482979444058, 31.224191474089483]}, "properties": {"name": "\u4e3d\u6c34\u5e02\u5de5\u827a\u7f8e\u672f\u5927\u5e08\u5434\u677e\u6797\u4e0a\u6d77\u5de5\u4f5c\u5ba4", "biz": "070000|140000 \u751f\u6d3b\u670d\u52a1;\u751f\u6d3b\u670d\u52a1\u573a\u6240;\u751f\u6d3b\u670d\u52a1\u573a\u6240|\u79d1\u6559\u6587\u5316\u670d\u52a1;\u79d1\u6559\u6587\u5316\u573a\u6240;\u79d1\u6559\u6587\u5316\u573a\u6240", "pty": "0700"}}, {"type": "Feature", "geometry": {"type": "Point", "coordinates": [121.46348968573403, 31.223201433761307]}, "properties": {"name": "\u4e0a\u6d77\u5e02\u65c5\u6e38\u7eaa\u5ff5\u54c1\u5c55\u793a\u4e2d\u5fc3", "biz": "140200|070000 \u79d1\u6559\u6587\u5316\u670d\u52a1;\u5c55\u89c8\u9986;\u5c55\u89c8\u9986|\u751f\u6d3b\u670d\u52a1;\u751f\u6d3b\u670d\u52a1\u573a\u6240;\u751f\u6d3b\u670d\u52a1\u573a\u6240", "pty": "1402"}}, {"type": "Feature", "geometry": {"type": "Point", "coordinates": [121.48633249264635, 31.210781481325146]}, "properties": {"name": "\u5409\u660c\u821e\u6797\u5927\u4f1a", "biz": "141400|070000 \u79d1\u6559\u6587\u5316\u670d\u52a1;\u57f9\u8bad\u673a\u6784;\u57f9\u8bad\u673a\u6784|\u751f\u6d3b\u670d\u52a1;\u751f\u6d3b\u670d\u52a1\u573a\u6240;\u751f\u6d3b\u670d\u52a1\u573a\u6240", "pty": "1414"}}, {"type": "Feature", "geometry": {"type": "Point", "coordinates": [121.42342452291103, 31.18572934815515]}, "properties": {"name": "\u7231\u56de\u6536\u5149\u542f\u57ce\u5e97", "biz": "060306|070000 \u8d2d\u7269\u670d\u52a1;\u5bb6\u7535\u7535\u5b50\u5356\u573a;\u6570\u7801\u7535\u5b50|\u751f\u6d3b\u670d\u52a1;\u751f\u6d3b\u670d\u52a1\u573a\u6240;\u751f\u6d3b\u670d\u52a1\u573a\u6240", "pty": "0603"}}, {"type": "Feature", "geometry": {"type": "Point", "coordinates": [121.42804302415469, 31.16726249930586]}, "properties": {"name": "\u5c0f\u7c73\u6388\u6743\u4f53\u9a8c\u5e97(\u8d5b\u8363\u5065\u5eb7\u8def\u5e97)", "biz": "060306|070000 \u8d2d\u7269\u670d\u52a1;\u5bb6\u7535\u7535\u5b50\u5356\u573a;\u6570\u7801\u7535\u5b50|\u751f\u6d3b\u670d\u52a1;\u751f\u6d3b\u670d\u52a1\u573a\u6240;\u751f\u6d3b\u670d\u52a1\u573a\u6240", "pty": "0603"}}, {"type": "Feature", "geometry": {"type": "Point", "coordinates": [121.45333782153637, 31.201961764952603]}, "properties": {"name": "\u659c\u571f\u8857\u9053\u9633\u5149\u5fc3\u56ed", "biz": "060501|070000 \u8d2d\u7269\u670d\u52a1;\u82b1\u9e1f\u9c7c\u866b\u5e02\u573a;\u82b1\u5349\u5e02\u573a|\u751f\u6d3b\u670d\u52a1;\u751f\u6d3b\u670d\u52a1\u573a\u6240;\u751f\u6d3b\u670d\u52a1\u573a\u6240", "pty": "0605"}}, {"type": "Feature", "geometry": {"type": "Point", "coordinates": [121.43766014910689, 31.14009662756903]}, "properties": {"name": "\u9633\u5149\u88c5\u9970(\u9f99\u5ddd\u8def)", "biz": "060603|070000 \u8d2d\u7269\u670d\u52a1;\u5bb6\u5c45\u5efa\u6750\u5e02\u573a;\u5efa\u6750\u4e94\u91d1\u5e02\u573a|\u751f\u6d3b\u670d\u52a1;\u751f\u6d3b\u670d\u52a1\u573a\u6240;\u751f\u6d3b\u670d\u52a1\u573a\u6240", "pty": "0606"}}, {"type": "Feature", "geometry": {"type": "Point", "coordinates": [121.4255041751852, 31.189414983578747]}, "properties": {"name": "\u540c\u6d4e\u56fd\u9645\u88c5\u9970(\u5f90\u6c47\u5e97)", "biz": "060603|070000 \u8d2d\u7269\u670d\u52a1;\u5bb6\u5c45\u5efa\u6750\u5e02\u573a;\u5efa\u6750\u4e94\u91d1\u5e02\u573a|\u751f\u6d3b\u670d\u52a1;\u751f\u6d3b\u670d\u52a1\u573a\u6240;\u751f\u6d3b\u670d\u52a1\u573a\u6240", "pty": "0606"}}, {"type": "Feature", "geometry": {"type": "Point", "coordinates": [121.44182040148438, 31.195639618021996]}, "properties": {"name": "\u535a\u827a\u5eca", "biz": "061201|070000 \u8d2d\u7269\u670d\u52a1;\u4e13\u5356\u5e97;\u53e4\u73a9\u5b57\u753b\u5e97|\u751f\u6d3b\u670d\u52a1;\u751f\u6d3b\u670d\u52a1\u573a\u6240;\u751f\u6d3b\u670d\u52a1\u573a\u6240", "pty": "0612"}}, {"type": "Feature", "geometry": {"type": "Point", "coordinates": [121.41951059113522, 31.196626777047033]}, "properties": {"name": "103\u5de5\u4f5c\u5ba4", "biz": "061202|070000 \u8d2d\u7269\u670d\u52a1;\u4e13\u5356\u5e97;\u73e0\u5b9d\u9996\u9970\u5de5\u827a\u54c1|\u751f\u6d3b\u670d\u52a1;\u751f\u6d3b\u670d\u52a1\u573a\u6240;\u751f\u6d3b\u670d\u52a1\u573a\u6240", "pty": "0612"}}, {"type": "Feature", "geometry": {"type": "Point", "coordinates": [121.42198370870021, 31.253437715189026]}, "properties": {"name": "\u6c38\u53d1\u88c5\u6f62\u90e8", "biz": "060603|070000 \u8d2d\u7269\u670d\u52a1;\u5bb6\u5c45\u5efa\u6750\u5e02\u573a;\u5efa\u6750\u4e94\u91d1\u5e02\u573a|\u751f\u6d3b\u670d\u52a1;\u751f\u6d3b\u670d\u52a1\u573a\u6240;\u751f\u6d3b\u670d\u52a1\u573a\u6240", "pty": "0606"}}, {"type": "Feature", "geometry": {"type": "Point", "coordinates": [121.38105225363245, 31.255702494731995]}, "properties": {"name": "\u5e2e\u5e2e\u6768\u6768\u73bb\u7483\u4fee\u914d\u670d\u52a1\u793e", "biz": "060603|070000 \u8d2d\u7269\u670d\u52a1;\u5bb6\u5c45\u5efa\u6750\u5e02\u573a;\u5efa\u6750\u4e94\u91d1\u5e02\u573a|\u751f\u6d3b\u670d\u52a1;\u751f\u6d3b\u670d\u52a1\u573a\u6240;\u751f\u6d3b\u670d\u52a1\u573a\u6240", "pty": "0606"}}, {"type": "Feature", "geometry": {"type": "Point", "coordinates": [121.41141638364088, 31.2363494423795]}, "properties": {"name": "\u53cb\u9e4f\u91d1\u5c5e\u5236\u54c1\u52a0\u5de5", "biz": "060603|070000 \u8d2d\u7269\u670d\u52a1;\u5bb6\u5c45\u5efa\u6750\u5e02\u573a;\u5efa\u6750\u4e94\u91d1\u5e02\u573a|\u751f\u6d3b\u670d\u52a1;\u751f\u6d3b\u670d\u52a1\u573a\u6240;\u751f\u6d3b\u670d\u52a1\u573a\u6240", "pty": "0606"}}, {"type": "Feature", "geometry": {"type": "Point", "coordinates": [121.34598837964752, 31.28176492470278]}, "properties": {"name": "\u5c0f\u56db\u5ddd\u8f66\u884c(\u7ea2\u68c9\u8def\u5e97)", "biz": "061208|070000 \u8d2d\u7269\u670d\u52a1;\u4e13\u5356\u5e97;\u81ea\u884c\u8f66\u4e13\u5356\u5e97|\u751f\u6d3b\u670d\u52a1;\u751f\u6d3b\u670d\u52a1\u573a\u6240;\u751f\u6d3b\u670d\u52a1\u573a\u6240", "pty": "0612"}}, {"type": "Feature", "geometry": {"type": "Point", "coordinates": [121.4193444852627, 31.241604309648967]}, "properties": {"name": "FANS\u4ff1\u4e50\u90e8", "biz": "061209|070000 \u8d2d\u7269\u670d\u52a1;\u4e13\u5356\u5e97;\u793c\u54c1\u9970\u54c1\u5e97|\u751f\u6d3b\u670d\u52a1;\u751f\u6d3b\u670d\u52a1\u573a\u6240;\u751f\u6d3b\u670d\u52a1\u573a\u6240", "pty": "0612"}}, {"type": "Feature", "geometry": {"type": "Point", "coordinates": [121.38160020331983, 31.23982123136633]}, "properties": {"name": "\u516c\u51432050\u4f53\u9a8c\u9986(\u7ea2\u661f\u7f8e\u51ef\u9f99\u771f\u5317\u5e97\u5357\u5317\u9986)", "biz": "140300|070000 \u79d1\u6559\u6587\u5316\u670d\u52a1;\u4f1a\u5c55\u4e2d\u5fc3;\u4f1a\u5c55\u4e2d\u5fc3|\u751f\u6d3b\u670d\u52a1;\u751f\u6d3b\u670d\u52a1\u573a\u6240;\u751f\u6d3b\u670d\u52a1\u573a\u6240", "pty": "1403"}}, {"type": "Feature", "geometry": {"type": "Point", "coordinates": [121.37933939043407, 31.24786222496266]}, "properties": {"name": "\u756a\u8304\u7530\u827a\u672f(\u767e\u8054\u4e2d\u73af\u8d2d\u7269\u5e7f\u573a)", "biz": "141400|070000 \u79d1\u6559\u6587\u5316\u670d\u52a1;\u57f9\u8bad\u673a\u6784;\u57f9\u8bad\u673a\u6784|\u751f\u6d3b\u670d\u52a1;\u751f\u6d3b\u670d\u52a1\u573a\u6240;\u751f\u6d3b\u670d\u52a1\u573a\u6240", "pty": "1414"}}, {"type": "Feature", "geometry": {"type": "Point", "coordinates": [121.40516427122844, 31.230765070319933]}, "properties": {"name": "\u534e\u6d66\u6559\u80b2\u62a5\u540d\u54a8\u8be2", "biz": "141400|070000 \u79d1\u6559\u6587\u5316\u670d\u52a1;\u57f9\u8bad\u673a\u6784;\u57f9\u8bad\u673a\u6784|\u751f\u6d3b\u670d\u52a1;\u751f\u6d3b\u670d\u52a1\u573a\u6240;\u751f\u6d3b\u670d\u52a1\u573a\u6240", "pty": "1414"}}, {"type": "Feature", "geometry": {"type": "Point", "coordinates": [121.49590569874897, 31.2592607989288]}, "properties": {"name": "\u7ffc\u673a\u8d2d", "biz": "060305|070000 \u8d2d\u7269\u670d\u52a1;\u5bb6\u7535\u7535\u5b50\u5356\u573a;\u624b\u673a\u9500\u552e|\u751f\u6d3b\u670d\u52a1;\u751f\u6d3b\u670d\u52a1\u573a\u6240;\u751f\u6d3b\u670d\u52a1\u573a\u6240", "pty": "0603"}}, {"type": "Feature", "geometry": {"type": "Point", "coordinates": [121.46939190035827, 31.27595659343934]}, "properties": {"name": "\u7231\u666e\u751f\u6838\u5fc3\u8ba4\u8bc1\u5e97\u4e0a\u6d77\u5f3a\u901a", "biz": "060306|070000 \u8d2d\u7269\u670d\u52a1;\u5bb6\u7535\u7535\u5b50\u5356\u573a;\u6570\u7801\u7535\u5b50|\u751f\u6d3b\u670d\u52a1;\u751f\u6d3b\u670d\u52a1\u573a\u6240;\u751f\u6d3b\u670d\u52a1\u573a\u6240", "pty": "0603"}}, {"type": "Feature", "geometry": {"type": "Point", "coordinates": [121.47446193051981, 31.261704728343453]}, "properties": {"name": "\u7231\u739b\u7535\u52a8\u8f66(\u4e1c\u5b9d\u5174\u8def\u5e97)", "biz": "061208|070000 \u8d2d\u7269\u670d\u52a1;\u4e13\u5356\u5e97;\u81ea\u884c\u8f66\u4e13\u5356\u5e97|\u751f\u6d3b\u670d\u52a1;\u751f\u6d3b\u670d\u52a1\u573a\u6240;\u751f\u6d3b\u670d\u52a1\u573a\u6240", "pty": "0612"}}, {"type": "Feature", "geometry": {"type": "Point", "coordinates": [121.51073474142648, 31.270627875788087]}, "properties": {"name": "\u5144\u5f1f\u95e8\u7a97\u52a0\u5de5\u90e8(\u98de\u8679\u8def)", "biz": "060603|070000 \u8d2d\u7269\u670d\u52a1;\u5bb6\u5c45\u5efa\u6750\u5e02\u573a;\u5efa\u6750\u4e94\u91d1\u5e02\u573a|\u751f\u6d3b\u670d\u52a1;\u751f\u6d3b\u670d\u52a1\u573a\u6240;\u751f\u6d3b\u670d\u52a1\u573a\u6240", "pty": "0606"}}, {"type": "Feature", "geometry": {"type": "Point", "coordinates": [121.53813157244747, 31.298347802660334]}, "properties": {"name": "\u51e4\u94dd\u5f69\u94dd\u4e0d\u9508\u94a2\u73bb\u7483\u6dcb\u6d74\u623f\u52a0\u5de5", "biz": "060603|070000 \u8d2d\u7269\u670d\u52a1;\u5bb6\u5c45\u5efa\u6750\u5e02\u573a;\u5efa\u6750\u4e94\u91d1\u5e02\u573a|\u751f\u6d3b\u670d\u52a1;\u751f\u6d3b\u670d\u52a1\u573a\u6240;\u751f\u6d3b\u670d\u52a1\u573a\u6240", "pty": "0606"}}, {"type": "Feature", "geometry": {"type": "Point", "coordinates": [121.51118024445402, 31.271331868793382]}, "properties": {"name": "\u4e0a\u6d77\u6c47(\u8bb8\u660c\u8def\u529e\u4e8b\u5904)", "biz": "061210|070000 \u8d2d\u7269\u670d\u52a1;\u4e13\u5356\u5e97;\u70df\u9152\u4e13\u5356\u5e97|\u751f\u6d3b\u670d\u52a1;\u751f\u6d3b\u670d\u52a1\u573a\u6240;\u751f\u6d3b\u670d\u52a1\u573a\u6240", "pty": "0612"}}, {"type": "Feature", "geometry": {"type": "Point", "coordinates": [121.53882428677022, 31.28915107623746]}, "properties": {"name": "\u4e0a\u6d77\u9526\u56ca\u5e7f\u544a\u4f20\u5a92\u6709\u9650\u516c\u53f8", "biz": "141100|070000 \u79d1\u6559\u6587\u5316\u670d\u52a1;\u4f20\u5a92\u673a\u6784;\u4f20\u5a92\u673a\u6784|\u751f\u6d3b\u670d\u52a1;\u751f\u6d3b\u670d\u52a1\u573a\u6240;\u751f\u6d3b\u670d\u52a1\u573a\u6240", "pty": "1411"}}, {"type": "Feature", "geometry": {"type": "Point", "coordinates": [121.50013352284955, 31.275881337869603]}, "properties": {"name": "\u4e0a\u6d77\u5f00\u653e\u5927\u5b66-\u62db\u751f\u62a5\u540d\u70ed\u7ebf", "biz": "141201|070000 \u79d1\u6559\u6587\u5316\u670d\u52a1;\u5b66\u6821;\u9ad8\u7b49\u9662\u6821|\u751f\u6d3b\u670d\u52a1;\u751f\u6d3b\u670d\u52a1\u573a\u6240;\u751f\u6d3b\u670d\u52a1\u573a\u6240", "pty": "1412"}}, {"type": "Feature", "geometry": {"type": "Point", "coordinates": [121.502849651415, 31.283341334069668]}, "properties": {"name": "\u540c\u8fbe\u6559\u80b2", "biz": "141400|070000 \u79d1\u6559\u6587\u5316\u670d\u52a1;\u57f9\u8bad\u673a\u6784;\u57f9\u8bad\u673a\u6784|\u751f\u6d3b\u670d\u52a1;\u751f\u6d3b\u670d\u52a1\u573a\u6240;\u751f\u6d3b\u670d\u52a1\u573a\u6240", "pty": "1414"}}, {"type": "Feature", "geometry": {"type": "Point", "coordinates": [121.49047382621332, 31.310193607433]}, "properties": {"name": "\u56fd\u4f01\u9a7e\u6821", "biz": "141500|070000 \u79d1\u6559\u6587\u5316\u670d\u52a1;\u9a7e\u6821;\u9a7e\u6821|\u751f\u6d3b\u670d\u52a1;\u751f\u6d3b\u670d\u52a1\u573a\u6240;\u751f\u6d3b\u670d\u52a1\u573a\u6240", "pty": "1415"}}, {"type": "Feature", "geometry": {"type": "Point", "coordinates": [121.53364396191402, 31.329349438416354]}, "properties": {"name": "\u4e0a\u6d77\u76ca\u542f\u9a7e\u9a76\u5458\u57f9\u8bad\u6709\u9650\u516c\u53f8\u62a5\u540d\u5904", "biz": "141500|170200|070000 \u79d1\u6559\u6587\u5316\u670d\u52a1;\u9a7e\u6821;\u9a7e\u6821|\u516c\u53f8\u4f01\u4e1a;\u516c\u53f8;\u516c\u53f8|\u751f\u6d3b\u670d\u52a1;\u751f\u6d3b\u670d\u52a1\u573a\u6240;\u751f\u6d3b\u670d\u52a1\u573a\u6240", "pty": "1415"}}, {"type": "Feature", "geometry": {"type": "Point", "coordinates": [121.43275268779303, 31.091821032358386]}, "properties": {"name": "\u66f9\u884c\u987a\u547c\u901a\u8baf(\u66f9\u884c\u5e97)", "biz": "060305|070000 \u8d2d\u7269\u670d\u52a1;\u5bb6\u7535\u7535\u5b50\u5356\u573a;\u624b\u673a\u9500\u552e|\u751f\u6d3b\u670d\u52a1;\u751f\u6d3b\u670d\u52a1\u573a\u6240;\u751f\u6d3b\u670d\u52a1\u573a\u6240", "pty": "0603"}}, {"type": "Feature", "geometry": {"type": "Point", "coordinates": [121.52650376573507, 31.067864842740235]}, "properties": {"name": "\u7f8e\u4f73\u827a\u5a5a\u5e86", "biz": "060501|070000 \u8d2d\u7269\u670d\u52a1;\u82b1\u9e1f\u9c7c\u866b\u5e02\u573a;\u82b1\u5349\u5e02\u573a|\u751f\u6d3b\u670d\u52a1;\u751f\u6d3b\u670d\u52a1\u573a\u6240;\u751f\u6d3b\u670d\u52a1\u573a\u6240", "pty": "0605"}}, {"type": "Feature", "geometry": {"type": "Point", "coordinates": [121.35237665290175, 31.157454991811765]}, "properties": {"name": "\u82b1\u5927\u59d0\u5a5a\u5e86\u9c9c\u82b1\u5e97(\u9752\u5e74\u8def)", "biz": "060501|070000 \u8d2d\u7269\u670d\u52a1;\u82b1\u9e1f\u9c7c\u866b\u5e02\u573a;\u82b1\u5349\u5e02\u573a|\u751f\u6d3b\u670d\u52a1;\u751f\u6d3b\u670d\u52a1\u573a\u6240;\u751f\u6d3b\u670d\u52a1\u573a\u6240", "pty": "0605"}}, {"type": "Feature", "geometry": {"type": "Point", "coordinates": [121.52408516538114, 31.06576764890936]}, "properties": {"name": "\u52ff\u5fd8\u6211\u9c9c\u82b1\u5a5a\u5e86(\u52ff\u5fd8\u6211\u82b1\u5e97)", "biz": "060501|070000 \u8d2d\u7269\u670d\u52a1;\u82b1\u9e1f\u9c7c\u866b\u5e02\u573a;\u82b1\u5349\u5e02\u573a|\u751f\u6d3b\u670d\u52a1;\u751f\u6d3b\u670d\u52a1\u573a\u6240;\u751f\u6d3b\u670d\u52a1\u573a\u6240", "pty": "0605"}}, {"type": "Feature", "geometry": {"type": "Point", "coordinates": [121.37542242941483, 31.176437746649594]}, "properties": {"name": "\u526a\u5200\u00b7\u77f3\u5934\u00b7\u5e03\u5bb6\u5c45\u751f\u6d3b\u5e7f\u573a(\u5434\u4e2d\u8def)", "biz": "060602|070000 \u8d2d\u7269\u670d\u52a1;\u5bb6\u5c45\u5efa\u6750\u5e02\u573a;\u5bb6\u5177\u57ce|\u751f\u6d3b\u670d\u52a1;\u751f\u6d3b\u670d\u52a1\u573a\u6240;\u751f\u6d3b\u670d\u52a1\u573a\u6240", "pty": "0606"}}, {"type": "Feature", "geometry": {"type": "Point", "coordinates": [121.40147843932228, 31.008377191534294]}, "properties": {"name": "\u5176\u946b\u73bb\u7483\u88c5\u6f62\u7ecf\u8425\u90e8", "biz": "060603|070000 \u8d2d\u7269\u670d\u52a1;\u5bb6\u5c45\u5efa\u6750\u5e02\u573a;\u5efa\u6750\u4e94\u91d1\u5e02\u573a|\u751f\u6d3b\u670d\u52a1;\u751f\u6d3b\u670d\u52a1\u573a\u6240;\u751f\u6d3b\u670d\u52a1\u573a\u6240", "pty": "0606"}}, {"type": "Feature", "geometry": {"type": "Point", "coordinates": [121.40800152712977, 31.013270342218092]}, "properties": {"name": "\u8fbe\u6da6\u8bbe\u8ba1\u88c5\u6f62", "biz": "060603|070000 \u8d2d\u7269\u670d\u52a1;\u5bb6\u5c45\u5efa\u6750\u5e02\u573a;\u5efa\u6750\u4e94\u91d1\u5e02\u573a|\u751f\u6d3b\u670d\u52a1;\u751f\u6d3b\u670d\u52a1\u573a\u6240;\u751f\u6d3b\u670d\u52a1\u573a\u6240", "pty": "0606"}}, {"type": "Feature", "geometry": {"type": "Point", "coordinates": [121.40834271476626, 31.01333846094355]}, "properties": {"name": "\u660c\u6021\u88c5\u6f62", "biz": "060603|070000 \u8d2d\u7269\u670d\u52a1;\u5bb6\u5c45\u5efa\u6750\u5e02\u573a;\u5efa\u6750\u4e94\u91d1\u5e02\u573a|\u751f\u6d3b\u670d\u52a1;\u751f\u6d3b\u670d\u52a1\u573a\u6240;\u751f\u6d3b\u670d\u52a1\u573a\u6240", "pty": "0606"}}, {"type": "Feature", "geometry": {"type": "Point", "coordinates": [121.29232343255205, 31.205130133695093]}, "properties": {"name": "\u5149\u660e\u4e73\u4e1a(\u7d2b\u82d1\u8def)", "biz": "060703|070000 \u8d2d\u7269\u670d\u52a1;\u7efc\u5408\u5e02\u573a;\u519c\u526f\u4ea7\u54c1\u5e02\u573a|\u751f\u6d3b\u670d\u52a1;\u751f\u6d3b\u670d\u52a1\u573a\u6240;\u751f\u6d3b\u670d\u52a1\u573a\u6240", "pty": "0607"}}, {"type": "Feature", "geometry": {"type": "Point", "coordinates": [121.52538021621547, 31.06734418728689]}, "properties": {"name": "\u94ed\u9e3f\u9996\u9970", "biz": "061202|070000 \u8d2d\u7269\u670d\u52a1;\u4e13\u5356\u5e97;\u73e0\u5b9d\u9996\u9970\u5de5\u827a\u54c1|\u751f\u6d3b\u670d\u52a1;\u751f\u6d3b\u670d\u52a1\u573a\u6240;\u751f\u6d3b\u670d\u52a1\u573a\u6240", "pty": "0612"}}, {"type": "Feature", "geometry": {"type": "Point", "coordinates": [121.36703958635137, 31.17858949348693]}, "properties": {"name": "\u5927\u5c06\u4f5c\u52a8\u6001\u5de5\u4f5c\u7ad9(\u4e50\u8679\u574a\u7cbe\u81f4\u751f\u6d3b\u5e7f\u573a)", "biz": "061207|070000 \u8d2d\u7269\u670d\u52a1;\u4e13\u5356\u5e97;\u513f\u7ae5\u7528\u54c1\u5e97|\u751f\u6d3b\u670d\u52a1;\u751f\u6d3b\u670d\u52a1\u573a\u6240;\u751f\u6d3b\u670d\u52a1\u573a\u6240", "pty": "0612"}}, {"type": "Feature", "geometry": {"type": "Point", "coordinates": [121.42660185380402, 31.027326358827473]}, "properties": {"name": "\u4e0a\u6d77\u4ea4\u901a\u5927\u5b66\u6821\u56ed\u7ba1\u7406\u961f\u529e\u516c\u5ba4", "biz": "141201|070000 \u79d1\u6559\u6587\u5316\u670d\u52a1;\u5b66\u6821;\u9ad8\u7b49\u9662\u6821|\u751f\u6d3b\u670d\u52a1;\u751f\u6d3b\u670d\u52a1\u573a\u6240;\u751f\u6d3b\u670d\u52a1\u573a\u6240", "pty": "1412"}}, {"type": "Feature", "geometry": {"type": "Point", "coordinates": [121.42777741811321, 31.030526028439642]}, "properties": {"name": "\u4e0a\u6d77\u4ea4\u901a\u5927\u5b66\u5b66\u751f\u670d\u52a1\u4e2d\u5fc3", "biz": "141201|070000 \u79d1\u6559\u6587\u5316\u670d\u52a1;\u5b66\u6821;\u9ad8\u7b49\u9662\u6821|\u751f\u6d3b\u670d\u52a1;\u751f\u6d3b\u670d\u52a1\u573a\u6240;\u751f\u6d3b\u670d\u52a1\u573a\u6240", "pty": "1412"}}, {"type": "Feature", "geometry": {"type": "Point", "coordinates": [121.45003431196164, 31.03497306235007]}, "properties": {"name": "\u534e\u4e1c\u5e08\u8303\u5927\u5b66\u95f5\u884c\u6821\u533a\u5b66\u751f\u4e4b\u5bb6", "biz": "141201|070000 \u79d1\u6559\u6587\u5316\u670d\u52a1;\u5b66\u6821;\u9ad8\u7b49\u9662\u6821|\u751f\u6d3b\u670d\u52a1;\u751f\u6d3b\u670d\u52a1\u573a\u6240;\u751f\u6d3b\u670d\u52a1\u573a\u6240", "pty": "1412"}}, {"type": "Feature", "geometry": {"type": "Point", "coordinates": [121.37668226313225, 31.186381609011317]}, "properties": {"name": "GT FLY Studio", "biz": "141400|070000 \u79d1\u6559\u6587\u5316\u670d\u52a1;\u57f9\u8bad\u673a\u6784;\u57f9\u8bad\u673a\u6784|\u751f\u6d3b\u670d\u52a1;\u751f\u6d3b\u670d\u52a1\u573a\u6240;\u751f\u6d3b\u670d\u52a1\u573a\u6240", "pty": "1414"}}, {"type": "Feature", "geometry": {"type": "Point", "coordinates": [121.37648519190084, 31.31556453791246]}, "properties": {"name": "\u7941\u8fde\u9c9c\u82b1&\u5a5a\u5e86", "biz": "060501|070000 \u8d2d\u7269\u670d\u52a1;\u82b1\u9e1f\u9c7c\u866b\u5e02\u573a;\u82b1\u5349\u5e02\u573a|\u751f\u6d3b\u670d\u52a1;\u751f\u6d3b\u670d\u52a1\u573a\u6240;\u751f\u6d3b\u670d\u52a1\u573a\u6240", "pty": "0605"}}, {"type": "Feature", "geometry": {"type": "Point", "coordinates": [121.4892046882345, 31.35230063808068]}, "properties": {"name": "\u805a\u9526\u88c5\u6f62", "biz": "060603|070000 \u8d2d\u7269\u670d\u52a1;\u5bb6\u5c45\u5efa\u6750\u5e02\u573a;\u5efa\u6750\u4e94\u91d1\u5e02\u573a|\u751f\u6d3b\u670d\u52a1;\u751f\u6d3b\u670d\u52a1\u573a\u6240;\u751f\u6d3b\u670d\u52a1\u573a\u6240", "pty": "0606"}}, {"type": "Feature", "geometry": {"type": "Point", "coordinates": [121.33404700185703, 31.419205097751874]}, "properties": {"name": "\u4e0a\u6d77\u987a\u5229\u91d1\u5c5e\u7ed3\u6784\u52a0\u5de5", "biz": "060603|070000 \u8d2d\u7269\u670d\u52a1;\u5bb6\u5c45\u5efa\u6750\u5e02\u573a;\u5efa\u6750\u4e94\u91d1\u5e02\u573a|\u751f\u6d3b\u670d\u52a1;\u751f\u6d3b\u670d\u52a1\u573a\u6240;\u751f\u6d3b\u670d\u52a1\u573a\u6240", "pty": "0606"}}, {"type": "Feature", "geometry": {"type": "Point", "coordinates": [121.47005864057495, 31.339255951935844]}, "properties": {"name": "\u8001\u9093\u5851\u94a2\u5f69\u94dd\u4e0d\u9508\u94a2\u52a0\u5de5\u5382", "biz": "060603|070000 \u8d2d\u7269\u670d\u52a1;\u5bb6\u5c45\u5efa\u6750\u5e02\u573a;\u5efa\u6750\u4e94\u91d1\u5e02\u573a|\u751f\u6d3b\u670d\u52a1;\u751f\u6d3b\u670d\u52a1\u573a\u6240;\u751f\u6d3b\u670d\u52a1\u573a\u6240", "pty": "0606"}}, {"type": "Feature", "geometry": {"type": "Point", "coordinates": [121.37547192767055, 31.29628692927804]}, "properties": {"name": "\u4e0a\u6d77\u663e\u8c6a\u5efa\u7b51\u88c5\u9970\u6709\u9650\u516c\u53f8", "biz": "170201|060603|070000 \u516c\u53f8\u4f01\u4e1a;\u516c\u53f8;\u5e7f\u544a\u88c5\u9970|\u8d2d\u7269\u670d\u52a1;\u5bb6\u5c45\u5efa\u6750\u5e02\u573a;\u5efa\u6750\u4e94\u91d1\u5e02\u573a|\u751f\u6d3b\u670d\u52a1;\u751f\u6d3b\u670d\u52a1\u573a\u6240;\u751f\u6d3b\u670d\u52a1\u573a\u6240", "pty": "1702"}}, {"type": "Feature", "geometry": {"type": "Point", "coordinates": [121.48085321184112, 31.339532395687154]}, "properties": {"name": "\u91d1\u8fde\u95e8\u7a97\u52a0\u5de5\u5e97", "biz": "060603|170201|070000 \u8d2d\u7269\u670d\u52a1;\u5bb6\u5c45\u5efa\u6750\u5e02\u573a;\u5efa\u6750\u4e94\u91d1\u5e02\u573a|\u516c\u53f8\u4f01\u4e1a;\u516c\u53f8;\u5e7f\u544a\u88c5\u9970|\u751f\u6d3b\u670d\u52a1;\u751f\u6d3b\u670d\u52a1\u573a\u6240;\u751f\u6d3b\u670d\u52a1\u573a\u6240", "pty": "0606"}}, {"type": "Feature", "geometry": {"type": "Point", "coordinates": [121.41604168527569, 31.2788391389748]}, "properties": {"name": "\u9b4f\u4ed5\u88c5\u6f62", "biz": "060603|070000 \u8d2d\u7269\u670d\u52a1;\u5bb6\u5c45\u5efa\u6750\u5e02\u573a;\u5efa\u6750\u4e94\u91d1\u5e02\u573a|\u751f\u6d3b\u670d\u52a1;\u751f\u6d3b\u670d\u52a1\u573a\u6240;\u751f\u6d3b\u670d\u52a1\u573a\u6240", "pty": "0606"}}, {"type": "Feature", "geometry": {"type": "Point", "coordinates": [121.47279060958421, 31.340016228883396]}, "properties": {"name": "\u6c5f\u53d1\u95e8\u7a97\u52a0\u5de5\u90e8", "biz": "060603|070000 \u8d2d\u7269\u670d\u52a1;\u5bb6\u5c45\u5efa\u6750\u5e02\u573a;\u5efa\u6750\u4e94\u91d1\u5e02\u573a|\u751f\u6d3b\u670d\u52a1;\u751f\u6d3b\u670d\u52a1\u573a\u6240;\u751f\u6d3b\u670d\u52a1\u573a\u6240", "pty": "0606"}}, {"type": "Feature", "geometry": {"type": "Point", "coordinates": [121.41738496891432, 31.291374134039703]}, "properties": {"name": "\u540c\u6d4e\u88c5\u6f62\u8bbe\u8ba1(\u7ea2\u661f\u7f8e\u51ef\u9f99)", "biz": "060605|070000 \u8d2d\u7269\u670d\u52a1;\u5bb6\u5c45\u5efa\u6750\u5e02\u573a;\u5e03\u827a\u5e02\u573a|\u751f\u6d3b\u670d\u52a1;\u751f\u6d3b\u670d\u52a1\u573a\u6240;\u751f\u6d3b\u670d\u52a1\u573a\u6240", "pty": "0606"}}, {"type": "Feature", "geometry": {"type": "Point", "coordinates": [121.43325696267333, 31.33017573970167]}, "properties": {"name": "\u540d\u95e8\u6c6a\u65cf\u5ba0\u820d", "biz": "061211|070000 \u8d2d\u7269\u670d\u52a1;\u4e13\u5356\u5e97;\u5ba0\u7269\u7528\u54c1\u5e97|\u751f\u6d3b\u670d\u52a1;\u751f\u6d3b\u670d\u52a1\u573a\u6240;\u751f\u6d3b\u670d\u52a1\u573a\u6240", "pty": "0612"}}, {"type": "Feature", "geometry": {"type": "Point", "coordinates": [121.38440288906429, 31.311966218039174]}, "properties": {"name": "\u4e0a\u6d77\u5927\u5b66\u793e\u533a\u5b66\u9662\u5b66\u751f\u4e8b\u52a1\u4e2d\u5fc3", "biz": "141201|070000 \u79d1\u6559\u6587\u5316\u670d\u52a1;\u5b66\u6821;\u9ad8\u7b49\u9662\u6821|\u751f\u6d3b\u670d\u52a1;\u751f\u6d3b\u670d\u52a1\u573a\u6240;\u751f\u6d3b\u670d\u52a1\u573a\u6240", "pty": "1412"}}, {"type": "Feature", "geometry": {"type": "Point", "coordinates": [121.42660808537332, 31.347541150318854]}, "properties": {"name": "\u957f\u5b89\u9a7e\u6821\u62a5\u540d\u5904(\u8054\u8c0a\u8def)", "biz": "141400|070000 \u79d1\u6559\u6587\u5316\u670d\u52a1;\u57f9\u8bad\u673a\u6784;\u57f9\u8bad\u673a\u6784|\u751f\u6d3b\u670d\u52a1;\u751f\u6d3b\u670d\u52a1\u573a\u6240;\u751f\u6d3b\u670d\u52a1\u573a\u6240", "pty": "1414"}}, {"type": "Feature", "geometry": {"type": "Point", "coordinates": [121.4461985553251, 31.336723923789958]}, "properties": {"name": "\u6c34\u6cc9\u673a\u52a8\u8f66\u9a7e\u9a76\u5458\u57f9\u8bad\u6709\u9650\u516c\u53f8", "biz": "141500|070000 \u79d1\u6559\u6587\u5316\u670d\u52a1;\u9a7e\u6821;\u9a7e\u6821|\u751f\u6d3b\u670d\u52a1;\u751f\u6d3b\u670d\u52a1\u573a\u6240;\u751f\u6d3b\u670d\u52a1\u573a\u6240", "pty": "1415"}}, {"type": "Feature", "geometry": {"type": "Point", "coordinates": [121.34491770706242, 31.417988681418976]}, "properties": {"name": "\u957f\u5b89\u9a7e\u6821\u62a5\u540d\u70b9(\u5e02\u4e00\u8def)", "biz": "141500|070000 \u79d1\u6559\u6587\u5316\u670d\u52a1;\u9a7e\u6821;\u9a7e\u6821|\u751f\u6d3b\u670d\u52a1;\u751f\u6d3b\u670d\u52a1\u573a\u6240;\u751f\u6d3b\u670d\u52a1\u573a\u6240", "pty": "1415"}}, {"type": "Feature", "geometry": {"type": "Point", "coordinates": [121.37919186687621, 31.3125974493854]}, "properties": {"name": "\u6021\u660e\u9a7e\u6821\u62a5\u540d\u70b9", "biz": "141500|070000 \u79d1\u6559\u6587\u5316\u670d\u52a1;\u9a7e\u6821;\u9a7e\u6821|\u751f\u6d3b\u670d\u52a1;\u751f\u6d3b\u670d\u52a1\u573a\u6240;\u751f\u6d3b\u670d\u52a1\u573a\u6240", "pty": "1415"}}, {"type": "Feature", "geometry": {"type": "Point", "coordinates": [121.29028809148019, 31.381685707451837]}, "properties": {"name": "\u5143\u4e3a\u7535\u8111", "biz": "060306|070000 \u8d2d\u7269\u670d\u52a1;\u5bb6\u7535\u7535\u5b50\u5356\u573a;\u6570\u7801\u7535\u5b50|\u751f\u6d3b\u670d\u52a1;\u751f\u6d3b\u670d\u52a1\u573a\u6240;\u751f\u6d3b\u670d\u52a1\u573a\u6240", "pty": "0603"}}, {"type": "Feature", "geometry": {"type": "Point", "coordinates": [121.27748028593197, 31.332071223267253]}, "properties": {"name": "\u7d2b\u91d1\u5a5a\u5e86", "biz": "060501|070000 \u8d2d\u7269\u670d\u52a1;\u82b1\u9e1f\u9c7c\u866b\u5e02\u573a;\u82b1\u5349\u5e02\u573a|\u751f\u6d3b\u670d\u52a1;\u751f\u6d3b\u670d\u52a1\u573a\u6240;\u751f\u6d3b\u670d\u52a1\u573a\u6240", "pty": "0605"}}, {"type": "Feature", "geometry": {"type": "Point", "coordinates": [121.22104322582409, 31.388424180299477]}, "properties": {"name": "\u4e0a\u6d77\u8f69\u6587\u88c5\u6f62", "biz": "060603|070000 \u8d2d\u7269\u670d\u52a1;\u5bb6\u5c45\u5efa\u6750\u5e02\u573a;\u5efa\u6750\u4e94\u91d1\u5e02\u573a|\u751f\u6d3b\u670d\u52a1;\u751f\u6d3b\u670d\u52a1\u573a\u6240;\u751f\u6d3b\u670d\u52a1\u573a\u6240", "pty": "0606"}}, {"type": "Feature", "geometry": {"type": "Point", "coordinates": [121.3282523213158, 31.416224851013553]}, "properties": {"name": "\u7ef4\u6cf0\u6a21\u5177\u5382", "biz": "060603|070000 \u8d2d\u7269\u670d\u52a1;\u5bb6\u5c45\u5efa\u6750\u5e02\u573a;\u5efa\u6750\u4e94\u91d1\u5e02\u573a|\u751f\u6d3b\u670d\u52a1;\u751f\u6d3b\u670d\u52a1\u573a\u6240;\u751f\u6d3b\u670d\u52a1\u573a\u6240", "pty": "0606"}}, {"type": "Feature", "geometry": {"type": "Point", "coordinates": [121.2374920467466, 31.371304091731137]}, "properties": {"name": "\u7fbd\u521b\u88c5\u9970", "biz": "060603|070000 \u8d2d\u7269\u670d\u52a1;\u5bb6\u5c45\u5efa\u6750\u5e02\u573a;\u5efa\u6750\u4e94\u91d1\u5e02\u573a|\u751f\u6d3b\u670d\u52a1;\u751f\u6d3b\u670d\u52a1\u573a\u6240;\u751f\u6d3b\u670d\u52a1\u573a\u6240", "pty": "0606"}}, {"type": "Feature", "geometry": {"type": "Point", "coordinates": [121.208642360535, 31.26947491077221]}, "properties": {"name": "\u767e\u4fe1\u5e8a\u4e0a\u7528\u54c1", "biz": "060605|070000 \u8d2d\u7269\u670d\u52a1;\u5bb6\u5c45\u5efa\u6750\u5e02\u573a;\u5e03\u827a\u5e02\u573a|\u751f\u6d3b\u670d\u52a1;\u751f\u6d3b\u670d\u52a1\u573a\u6240;\u751f\u6d3b\u670d\u52a1\u573a\u6240", "pty": "0606"}}, {"type": "Feature", "geometry": {"type": "Point", "coordinates": [121.24900861445303, 31.384700823037523]}, "properties": {"name": "\u827a\u51e1\u88c5\u9970", "biz": "060606|070000 \u8d2d\u7269\u670d\u52a1;\u5bb6\u5c45\u5efa\u6750\u5e02\u573a;\u706f\u5177\u74f7\u5668\u5e02\u573a|\u751f\u6d3b\u670d\u52a1;\u751f\u6d3b\u670d\u52a1\u573a\u6240;\u751f\u6d3b\u670d\u52a1\u573a\u6240", "pty": "0606"}}, {"type": "Feature", "geometry": {"type": "Point", "coordinates": [121.30337366391225, 31.29400117441907]}, "properties": {"name": "\u5b97\u5802\u6838\u96d5\u5de5\u4f5c\u5ba4", "biz": "061202|070000 \u8d2d\u7269\u670d\u52a1;\u4e13\u5356\u5e97;\u73e0\u5b9d\u9996\u9970\u5de5\u827a\u54c1|\u751f\u6d3b\u670d\u52a1;\u751f\u6d3b\u670d\u52a1\u573a\u6240;\u751f\u6d3b\u670d\u52a1\u573a\u6240", "pty": "0612"}}, {"type": "Feature", "geometry": {"type": "Point", "coordinates": [121.41967498274693, 31.205850426152622]}, "properties": {"name": "\u6c81\u56ed\u9601", "biz": "061201|070000 \u8d2d\u7269\u670d\u52a1;\u4e13\u5356\u5e97;\u53e4\u73a9\u5b57\u753b\u5e97|\u751f\u6d3b\u670d\u52a1;\u751f\u6d3b\u670d\u52a1\u573a\u6240;\u751f\u6d3b\u670d\u52a1\u573a\u6240", "pty": "0612"}}, {"type": "Feature", "geometry": {"type": "Point", "coordinates": [121.38013434620093, 31.21751464597293]}, "properties": {"name": "Paris\u5df4\u9ece\u65b0\u5a18\u56fd\u9645\u5a5a\u7eb1\u6444\u5f71", "biz": "061212|070000 \u8d2d\u7269\u670d\u52a1;\u4e13\u5356\u5e97;\u6444\u5f71\u5668\u6750\u5e97|\u751f\u6d3b\u670d\u52a1;\u751f\u6d3b\u670d\u52a1\u573a\u6240;\u751f\u6d3b\u670d\u52a1\u573a\u6240", "pty": "0612"}}, {"type": "Feature", "geometry": {"type": "Point", "coordinates": [121.40868925917836, 31.193847224825017]}, "properties": {"name": "\u7231\u60c5\u6e7e\u56fd\u9645\u7f8e\u5bb9", "biz": "080111|070000 \u4f53\u80b2\u4f11\u95f2\u670d\u52a1;\u8fd0\u52a8\u573a\u9986;\u5065\u8eab\u4e2d\u5fc3|\u751f\u6d3b\u670d\u52a1;\u751f\u6d3b\u670d\u52a1\u573a\u6240;\u751f\u6d3b\u670d\u52a1\u573a\u6240", "pty": "0801"}}, {"type": "Feature", "geometry": {"type": "Point", "coordinates": [121.46299148096001, 31.242630181286767]}, "properties": {"name": "\u4e0a\u6d77\u7ef4\u541b\u91d1\u5c5e\u5236\u54c1\u6709\u9650\u516c\u53f8", "biz": "060603|170200|070000 \u8d2d\u7269\u670d\u52a1;\u5bb6\u5c45\u5efa\u6750\u5e02\u573a;\u5efa\u6750\u4e94\u91d1\u5e02\u573a|\u516c\u53f8\u4f01\u4e1a;\u516c\u53f8;\u516c\u53f8|\u751f\u6d3b\u670d\u52a1;\u751f\u6d3b\u670d\u52a1\u573a\u6240;\u751f\u6d3b\u670d\u52a1\u573a\u6240", "pty": "0606"}}, {"type": "Feature", "geometry": {"type": "Point", "coordinates": [121.447978532435, 31.30759544376312]}, "properties": {"name": "\u9648\u4fe1\u88c5\u6f62", "biz": "060603|070000 \u8d2d\u7269\u670d\u52a1;\u5bb6\u5c45\u5efa\u6750\u5e02\u573a;\u5efa\u6750\u4e94\u91d1\u5e02\u573a|\u751f\u6d3b\u670d\u52a1;\u751f\u6d3b\u670d\u52a1\u573a\u6240;\u751f\u6d3b\u670d\u52a1\u573a\u6240", "pty": "0606"}}, {"type": "Feature", "geometry": {"type": "Point", "coordinates": [121.45551480572239, 31.318884081192422]}, "properties": {"name": "\u8bda\u4fe1\u679c\u54c1\u914d\u9001", "biz": "060704|070000 \u8d2d\u7269\u670d\u52a1;\u7efc\u5408\u5e02\u573a;\u679c\u54c1\u5e02\u573a|\u751f\u6d3b\u670d\u52a1;\u751f\u6d3b\u670d\u52a1\u573a\u6240;\u751f\u6d3b\u670d\u52a1\u573a\u6240", "pty": "0607"}}, {"type": "Feature", "geometry": {"type": "Point", "coordinates": [121.4669009479981, 31.251767333307296]}, "properties": {"name": "\u4e0a\u94c1\u751f\u6d3b\u670d\u52a1\u90e8", "biz": "061210|070000 \u8d2d\u7269\u670d\u52a1;\u4e13\u5356\u5e97;\u70df\u9152\u4e13\u5356\u5e97|\u751f\u6d3b\u670d\u52a1;\u751f\u6d3b\u670d\u52a1\u573a\u6240;\u751f\u6d3b\u670d\u52a1\u573a\u6240", "pty": "0612"}}, {"type": "Feature", "geometry": {"type": "Point", "coordinates": [121.44538424397055, 31.224915531255135]}, "properties": {"name": "GUCYCLe(\u4e0a\u6d77\u5609\u91cc\u4e2d\u5fc3)", "biz": "080111|070000 \u4f53\u80b2\u4f11\u95f2\u670d\u52a1;\u8fd0\u52a8\u573a\u9986;\u5065\u8eab\u4e2d\u5fc3|\u751f\u6d3b\u670d\u52a1;\u751f\u6d3b\u670d\u52a1\u573a\u6240;\u751f\u6d3b\u670d\u52a1\u573a\u6240", "pty": "0801"}}, {"type": "Feature", "geometry": {"type": "Point", "coordinates": [121.4362259855479, 31.235199717283066]}, "properties": {"name": "\u4e1c\u65b9\u7f51\u667a\u6167\u5c4b(\u9759\u5b89\u4e1a\u4f59\u5927\u5b66\u5e97)", "biz": "141400|070000 \u79d1\u6559\u6587\u5316\u670d\u52a1;\u57f9\u8bad\u673a\u6784;\u57f9\u8bad\u673a\u6784|\u751f\u6d3b\u670d\u52a1;\u751f\u6d3b\u670d\u52a1\u573a\u6240;\u751f\u6d3b\u670d\u52a1\u573a\u6240", "pty": "1414"}}, {"type": "Feature", "geometry": {"type": "Point", "coordinates": [121.37041167955554, 31.252135588846834]}, "properties": {"name": "\u5de8\u946b\u5e7f\u544a(\u5409\u9547\u5317\u8def)", "biz": "141100|070000 \u79d1\u6559\u6587\u5316\u670d\u52a1;\u4f20\u5a92\u673a\u6784;\u4f20\u5a92\u673a\u6784|\u751f\u6d3b\u670d\u52a1;\u751f\u6d3b\u670d\u52a1\u573a\u6240;\u751f\u6d3b\u670d\u52a1\u573a\u6240", "pty": "1411"}}, {"type": "Feature", "geometry": {"type": "Point", "coordinates": [121.53942468782299, 31.220432726956723]}, "properties": {"name": "\u4e9a\u592a\u76db\u6c47\u65c5\u6e38\u8d2d\u7269\u5e7f\u573a", "biz": "060101|170200|070000 \u8d2d\u7269\u670d\u52a1;\u5546\u573a;\u8d2d\u7269\u4e2d\u5fc3|\u516c\u53f8\u4f01\u4e1a;\u516c\u53f8;\u516c\u53f8|\u751f\u6d3b\u670d\u52a1;\u751f\u6d3b\u670d\u52a1\u573a\u6240;\u751f\u6d3b\u670d\u52a1\u573a\u6240", "pty": "0601"}}, {"type": "Feature", "geometry": {"type": "Point", "coordinates": [121.50318663726416, 31.143750871230292]}, "properties": {"name": "\u624b\u673a\u6570\u7801", "biz": "060305|070000 \u8d2d\u7269\u670d\u52a1;\u5bb6\u7535\u7535\u5b50\u5356\u573a;\u624b\u673a\u9500\u552e|\u751f\u6d3b\u670d\u52a1;\u751f\u6d3b\u670d\u52a1\u573a\u6240;\u751f\u6d3b\u670d\u52a1\u573a\u6240", "pty": "0603"}}, {"type": "Feature", "geometry": {"type": "Point", "coordinates": [121.5737730974015, 31.117866274911144]}, "properties": {"name": "\u5343\u673a\u7f51\u6388\u6743\u670d\u52a1\u70b9(\u4e0a\u6d77\u5468\u6d66\u9547\u5e97)", "biz": "060305|060306|070000 \u8d2d\u7269\u670d\u52a1;\u5bb6\u7535\u7535\u5b50\u5356\u573a;\u624b\u673a\u9500\u552e|\u8d2d\u7269\u670d\u52a1;\u5bb6\u7535\u7535\u5b50\u5356\u573a;\u6570\u7801\u7535\u5b50|\u751f\u6d3b\u670d\u52a1;\u751f\u6d3b\u670d\u52a1\u573a\u6240;\u751f\u6d3b\u670d\u52a1\u573a\u6240", "pty": "0603"}}, {"type": "Feature", "geometry": {"type": "Point", "coordinates": [121.49532430545455, 31.239184018544712]}, "properties": {"name": "\u7231\u56de\u6536(\u6b63\u5927\u5e7f\u573a)", "biz": "060306|070000 \u8d2d\u7269\u670d\u52a1;\u5bb6\u7535\u7535\u5b50\u5356\u573a;\u6570\u7801\u7535\u5b50|\u751f\u6d3b\u670d\u52a1;\u751f\u6d3b\u670d\u52a1\u573a\u6240;\u751f\u6d3b\u670d\u52a1\u573a\u6240", "pty": "0603"}}, {"type": "Feature", "geometry": {"type": "Point", "coordinates": [121.55037748387862, 31.18722545797977]}, "properties": {"name": "\u6613\u5e2e(\u83b2\u56ed\u8def\u5e97)", "biz": "060306|070000 \u8d2d\u7269\u670d\u52a1;\u5bb6\u7535\u7535\u5b50\u5356\u573a;\u6570\u7801\u7535\u5b50|\u751f\u6d3b\u670d\u52a1;\u751f\u6d3b\u670d\u52a1\u573a\u6240;\u751f\u6d3b\u670d\u52a1\u573a\u6240", "pty": "0603"}}, {"type": "Feature", "geometry": {"type": "Point", "coordinates": [121.50881973165765, 31.14305887180644]}, "properties": {"name": "\u534e\u6da6\u4e07\u5bb6(\u4e2d\u623f\u91d1\u8c0a\u5e7f\u573a)", "biz": "060403|070000 \u8d2d\u7269\u670d\u52a1;\u8d85\u7ea7\u5e02\u573a;\u534e\u6da6|\u751f\u6d3b\u670d\u52a1;\u751f\u6d3b\u670d\u52a1\u573a\u6240;\u751f\u6d3b\u670d\u52a1\u573a\u6240", "pty": "0604"}}, {"type": "Feature", "geometry": {"type": "Point", "coordinates": [121.52654249679395, 31.16860593626686]}, "properties": {"name": "\u82b1\u4e4b\u8f69\u9c9c\u82b1\u5a5a\u5e86(\u4e16\u535a\u5bb6\u56ed\u5e97)", "biz": "060501|070000 \u8d2d\u7269\u670d\u52a1;\u82b1\u9e1f\u9c7c\u866b\u5e02\u573a;\u82b1\u5349\u5e02\u573a|\u751f\u6d3b\u670d\u52a1;\u751f\u6d3b\u670d\u52a1\u573a\u6240;\u751f\u6d3b\u670d\u52a1\u573a\u6240", "pty": "0605"}}, {"type": "Feature", "geometry": {"type": "Point", "coordinates": [121.69395530815817, 31.189123227903153]}, "properties": {"name": "\u5fc3\u8bed\u5a5a\u5e86\u9c9c\u82b1(\u5ddd\u6c99\u5e97)", "biz": "060501|070000 \u8d2d\u7269\u670d\u52a1;\u82b1\u9e1f\u9c7c\u866b\u5e02\u573a;\u82b1\u5349\u5e02\u573a|\u751f\u6d3b\u670d\u52a1;\u751f\u6d3b\u670d\u52a1\u573a\u6240;\u751f\u6d3b\u670d\u52a1\u573a\u6240", "pty": "0605"}}, {"type": "Feature", "geometry": {"type": "Point", "coordinates": [121.57892330547868, 31.35220674999797]}, "properties": {"name": "\u540c\u5fc3\u9c9c\u82b1(\u82b1\u5c71\u8def)", "biz": "060501|070000 \u8d2d\u7269\u670d\u52a1;\u82b1\u9e1f\u9c7c\u866b\u5e02\u573a;\u82b1\u5349\u5e02\u573a|\u751f\u6d3b\u670d\u52a1;\u751f\u6d3b\u670d\u52a1\u573a\u6240;\u751f\u6d3b\u670d\u52a1\u573a\u6240", "pty": "0605"}}, {"type": "Feature", "geometry": {"type": "Point", "coordinates": [121.60914035543615, 31.216238964150996]}, "properties": {"name": "\u84b2\u65ed\u9c9c\u82b1\u5c4b", "biz": "060501|070000 \u8d2d\u7269\u670d\u52a1;\u82b1\u9e1f\u9c7c\u866b\u5e02\u573a;\u82b1\u5349\u5e02\u573a|\u751f\u6d3b\u670d\u52a1;\u751f\u6d3b\u670d\u52a1\u573a\u6240;\u751f\u6d3b\u670d\u52a1\u573a\u6240", "pty": "0605"}}, {"type": "Feature", "geometry": {"type": "Point", "coordinates": [121.59177611554706, 31.282401638935166]}, "properties": {"name": "\u963f\u72d7\u963f\u732b\u5ba0\u7269\u4f1a\u6240(\u5de8\u5cf0\u8def)", "biz": "060502|070000 \u8d2d\u7269\u670d\u52a1;\u82b1\u9e1f\u9c7c\u866b\u5e02\u573a;\u5ba0\u7269\u5e02\u573a|\u751f\u6d3b\u670d\u52a1;\u751f\u6d3b\u670d\u52a1\u573a\u6240;\u751f\u6d3b\u670d\u52a1\u573a\u6240", "pty": "0605"}}, {"type": "Feature", "geometry": {"type": "Point", "coordinates": [121.62652553358011, 31.218609856000324]}, "properties": {"name": "\u7d2b\u5149\u7269\u8054", "biz": "060602|070000 \u8d2d\u7269\u670d\u52a1;\u5bb6\u5c45\u5efa\u6750\u5e02\u573a;\u5bb6\u5177\u57ce|\u751f\u6d3b\u670d\u52a1;\u751f\u6d3b\u670d\u52a1\u573a\u6240;\u751f\u6d3b\u670d\u52a1\u573a\u6240", "pty": "0606"}}, {"type": "Feature", "geometry": {"type": "Point", "coordinates": [121.59215219403468, 31.040223848423338]}, "properties": {"name": "\u6c38\u4e50\u697c\u5b87\u5bb6\u5c45\u8212\u9002\u7cfb\u7edf(\u822a\u5934\u5206\u5e97)", "biz": "060602|070000 \u8d2d\u7269\u670d\u52a1;\u5bb6\u5c45\u5efa\u6750\u5e02\u573a;\u5bb6\u5177\u57ce|\u751f\u6d3b\u670d\u52a1;\u751f\u6d3b\u670d\u52a1\u573a\u6240;\u751f\u6d3b\u670d\u52a1\u573a\u6240", "pty": "0606"}}, {"type": "Feature", "geometry": {"type": "Point", "coordinates": [121.72886721323769, 31.04238667564484]}, "properties": {"name": "\u5bcc\u822a\u4e0d\u9508\u94a2\u94c1\u827a\u52a0\u5de5\u5382", "biz": "060603|070000 \u8d2d\u7269\u670d\u52a1;\u5bb6\u5c45\u5efa\u6750\u5e02\u573a;\u5efa\u6750\u4e94\u91d1\u5e02\u573a|\u751f\u6d3b\u670d\u52a1;\u751f\u6d3b\u670d\u52a1\u573a\u6240;\u751f\u6d3b\u670d\u52a1\u573a\u6240", "pty": "0606"}}, {"type": "Feature", "geometry": {"type": "Point", "coordinates": [121.6851308588999, 31.219604650727934]}, "properties": {"name": "\u91d1\u946b\u4e0d\u9508\u94a2\u526a\u6298\u52a0\u5de5\u5382(\u5ddd\u6c99\u8def)", "biz": "060603|070000 \u8d2d\u7269\u670d\u52a1;\u5bb6\u5c45\u5efa\u6750\u5e02\u573a;\u5efa\u6750\u4e94\u91d1\u5e02\u573a|\u751f\u6d3b\u670d\u52a1;\u751f\u6d3b\u670d\u52a1\u573a\u6240;\u751f\u6d3b\u670d\u52a1\u573a\u6240", "pty": "0606"}}, {"type": "Feature", "geometry": {"type": "Point", "coordinates": [121.8497738491955, 30.87741302893821]}, "properties": {"name": "\u8bda\u4fe1\u88c5\u6f62\u516c\u53f8", "biz": "060603|070000 \u8d2d\u7269\u670d\u52a1;\u5bb6\u5c45\u5efa\u6750\u5e02\u573a;\u5efa\u6750\u4e94\u91d1\u5e02\u573a|\u751f\u6d3b\u670d\u52a1;\u751f\u6d3b\u670d\u52a1\u573a\u6240;\u751f\u6d3b\u670d\u52a1\u573a\u6240", "pty": "0606"}}, {"type": "Feature", "geometry": {"type": "Point", "coordinates": [121.49432565965799, 31.18071817724833]}, "properties": {"name": "\u5c0f\u5b8b\u94dd\u5851\u88c5\u6f62", "biz": "060603|070000 \u8d2d\u7269\u670d\u52a1;\u5bb6\u5c45\u5efa\u6750\u5e02\u573a;\u5efa\u6750\u4e94\u91d1\u5e02\u573a|\u751f\u6d3b\u670d\u52a1;\u751f\u6d3b\u670d\u52a1\u573a\u6240;\u751f\u6d3b\u670d\u52a1\u573a\u6240", "pty": "0606"}}, {"type": "Feature", "geometry": {"type": "Point", "coordinates": [121.50292022986639, 31.149139222638638]}, "properties": {"name": "\u5929\u5b9d\u658b\u88f1\u753b\u914d\u6846", "biz": "061201|070000 \u8d2d\u7269\u670d\u52a1;\u4e13\u5356\u5e97;\u53e4\u73a9\u5b57\u753b\u5e97|\u751f\u6d3b\u670d\u52a1;\u751f\u6d3b\u670d\u52a1\u573a\u6240;\u751f\u6d3b\u670d\u52a1\u573a\u6240", "pty": "0612"}}, {"type": "Feature", "geometry": {"type": "Point", "coordinates": [121.51524020577067, 31.16582545906728]}, "properties": {"name": "\u4e07\u5cf0\u56ed\u827a", "biz": "061202|070000 \u8d2d\u7269\u670d\u52a1;\u4e13\u5356\u5e97;\u73e0\u5b9d\u9996\u9970\u5de5\u827a\u54c1|\u751f\u6d3b\u670d\u52a1;\u751f\u6d3b\u670d\u52a1\u573a\u6240;\u751f\u6d3b\u670d\u52a1\u573a\u6240", "pty": "0612"}}, {"type": "Feature", "geometry": {"type": "Point", "coordinates": [121.58968717451876, 31.260802571407194]}, "properties": {"name": "\u51b2\u51fb\u5065\u8eab\u5de5\u4f5c\u5ba4", "biz": "080111|070000 \u4f53\u80b2\u4f11\u95f2\u670d\u52a1;\u8fd0\u52a8\u573a\u9986;\u5065\u8eab\u4e2d\u5fc3|\u751f\u6d3b\u670d\u52a1;\u751f\u6d3b\u670d\u52a1\u573a\u6240;\u751f\u6d3b\u670d\u52a1\u573a\u6240", "pty": "0801"}}, {"type": "Feature", "geometry": {"type": "Point", "coordinates": [121.75835020432146, 31.123546163789072]}, "properties": {"name": "\u795d\u6865\u9547\u793e\u533a\u8001\u5e74\u670d\u52a1\u4e2d\u5fc3\u5de5\u4f1a\u59d4\u5458\u4f1a", "biz": "080402|070000 \u4f53\u80b2\u4f11\u95f2\u670d\u52a1;\u5ea6\u5047\u7597\u517b\u573a\u6240;\u7597\u517b\u9662|\u751f\u6d3b\u670d\u52a1;\u751f\u6d3b\u670d\u52a1\u573a\u6240;\u751f\u6d3b\u670d\u52a1\u573a\u6240", "pty": "0804"}}, {"type": "Feature", "geometry": {"type": "Point", "coordinates": [121.6461679979994, 31.27468569970115]}, "properties": {"name": "\u66f9\u8def\u9547\u5fd7\u613f\u670d\u52a1\u4e2d\u5fc3", "biz": "140800|070000 \u79d1\u6559\u6587\u5316\u670d\u52a1;\u6587\u5316\u5bab;\u6587\u5316\u5bab|\u751f\u6d3b\u670d\u52a1;\u751f\u6d3b\u670d\u52a1\u573a\u6240;\u751f\u6d3b\u670d\u52a1\u573a\u6240", "pty": "1408"}}, {"type": "Feature", "geometry": {"type": "Point", "coordinates": [121.54969692272, 31.186774408848486]}, "properties": {"name": "\u4e0a\u6d77\u65b0\u534e\u6559\u80b2(\u96c6\u56e2\u5317\u8521\u5206\u6821)", "biz": "141400|070000 \u79d1\u6559\u6587\u5316\u670d\u52a1;\u57f9\u8bad\u673a\u6784;\u57f9\u8bad\u673a\u6784|\u751f\u6d3b\u670d\u52a1;\u751f\u6d3b\u670d\u52a1\u573a\u6240;\u751f\u6d3b\u670d\u52a1\u573a\u6240", "pty": "1414"}}, {"type": "Feature", "geometry": {"type": "Point", "coordinates": [121.51736974492151, 31.234279946151073]}, "properties": {"name": "\u4e50\u5728\u56db\u5b63\u9752\u5c11\u513f\u57f9\u8bad\u4e2d\u5fc3(\u5546\u57ce\u8def)", "biz": "141400|070000 \u79d1\u6559\u6587\u5316\u670d\u52a1;\u57f9\u8bad\u673a\u6784;\u57f9\u8bad\u673a\u6784|\u751f\u6d3b\u670d\u52a1;\u751f\u6d3b\u670d\u52a1\u573a\u6240;\u751f\u6d3b\u670d\u52a1\u573a\u6240", "pty": "1414"}}, {"type": "Feature", "geometry": {"type": "Point", "coordinates": [121.51141217065671, 31.174864835339733]}, "properties": {"name": "\u6d66\u5df4\u9a7e\u6821(\u5206\u90e8)\u62a5\u540d\u70b9", "biz": "141500|070000 \u79d1\u6559\u6587\u5316\u670d\u52a1;\u9a7e\u6821;\u9a7e\u6821|\u751f\u6d3b\u670d\u52a1;\u751f\u6d3b\u670d\u52a1\u573a\u6240;\u751f\u6d3b\u670d\u52a1\u573a\u6240", "pty": "1415"}}, {"type": "Feature", "geometry": {"type": "Point", "coordinates": [121.59690518166828, 31.279912465065088]}, "properties": {"name": "\u7ea2\u6708\u9a7e\u6821", "biz": "141500|070000 \u79d1\u6559\u6587\u5316\u670d\u52a1;\u9a7e\u6821;\u9a7e\u6821|\u751f\u6d3b\u670d\u52a1;\u751f\u6d3b\u670d\u52a1\u573a\u6240;\u751f\u6d3b\u670d\u52a1\u573a\u6240", "pty": "1415"}}, {"type": "Feature", "geometry": {"type": "Point", "coordinates": [121.6509758781406, 31.208408250405036]}, "properties": {"name": "\u91d1\u6d77\u9a7e\u6821\u62a5\u540d\u70b9(\u5510\u5174\u8def)", "biz": "141500|070000 \u79d1\u6559\u6587\u5316\u670d\u52a1;\u9a7e\u6821;\u9a7e\u6821|\u751f\u6d3b\u670d\u52a1;\u751f\u6d3b\u670d\u52a1\u573a\u6240;\u751f\u6d3b\u670d\u52a1\u573a\u6240", "pty": "1415"}}, {"type": "Feature", "geometry": {"type": "Point", "coordinates": [121.62614709494977, 31.31367947733035]}, "properties": {"name": "\u4e0a\u6d77\u9526\u9686\u9a7e\u6821", "biz": "141500|070000 \u79d1\u6559\u6587\u5316\u670d\u52a1;\u9a7e\u6821;\u9a7e\u6821|\u751f\u6d3b\u670d\u52a1;\u751f\u6d3b\u670d\u52a1\u573a\u6240;\u751f\u6d3b\u670d\u52a1\u573a\u6240", "pty": "1415"}}, {"type": "Feature", "geometry": {"type": "Point", "coordinates": [121.56720135319165, 31.34330813609589]}, "properties": {"name": "\u901a\u6995\u9a7e\u6821\u62a5\u540d\u70b9(\u6f7c\u6e2f\u4e2d\u516d\u6751\u5357)", "biz": "141500|070000 \u79d1\u6559\u6587\u5316\u670d\u52a1;\u9a7e\u6821;\u9a7e\u6821|\u751f\u6d3b\u670d\u52a1;\u751f\u6d3b\u670d\u52a1\u573a\u6240;\u751f\u6d3b\u670d\u52a1\u573a\u6240", "pty": "1415"}}, {"type": "Feature", "geometry": {"type": "Point", "coordinates": [121.64862294174237, 31.2110122129125]}, "properties": {"name": "\u8def\u987a\u9a7e\u9a76\u5458\u57f9\u8bad\u62a5\u540d\u70b9", "biz": "141500|070000 \u79d1\u6559\u6587\u5316\u670d\u52a1;\u9a7e\u6821;\u9a7e\u6821|\u751f\u6d3b\u670d\u52a1;\u751f\u6d3b\u670d\u52a1\u573a\u6240;\u751f\u6d3b\u670d\u52a1\u573a\u6240", "pty": "1415"}}, {"type": "Feature", "geometry": {"type": "Point", "coordinates": [121.48904978578734, 31.180027745897398]}, "properties": {"name": "\u4e0a\u6d77\u7231\u4e50\u673a\u52a8\u8f66\u9a7e\u9a76\u5458\u57f9\u8bad\u6709\u9650\u516c\u53f8", "biz": "141500|170200|070000 \u79d1\u6559\u6587\u5316\u670d\u52a1;\u9a7e\u6821;\u9a7e\u6821|\u516c\u53f8\u4f01\u4e1a;\u516c\u53f8;\u516c\u53f8|\u751f\u6d3b\u670d\u52a1;\u751f\u6d3b\u670d\u52a1\u573a\u6240;\u751f\u6d3b\u670d\u52a1\u573a\u6240", "pty": "1415"}}, {"type": "Feature", "geometry": {"type": "Point", "coordinates": [121.56041066970415, 31.138613362043998]}, "properties": {"name": "\u4e0a\u6d77\u5b89\u6280\u9a7e\u6821\u62a5\u540d\u5904", "biz": "141500|070000 \u79d1\u6559\u6587\u5316\u670d\u52a1;\u9a7e\u6821;\u9a7e\u6821|\u751f\u6d3b\u670d\u52a1;\u751f\u6d3b\u670d\u52a1\u573a\u6240;\u751f\u6d3b\u670d\u52a1\u573a\u6240", "pty": "1415"}}, {"type": "Feature", "geometry": {"type": "Point", "coordinates": [121.27950123547778, 30.801576255491867]}, "properties": {"name": "\u957f\u8679\u88c5\u6f62\u7ecf\u8425\u90e8", "biz": "060603|070000 \u8d2d\u7269\u670d\u52a1;\u5bb6\u5c45\u5efa\u6750\u5e02\u573a;\u5efa\u6750\u4e94\u91d1\u5e02\u573a|\u751f\u6d3b\u670d\u52a1;\u751f\u6d3b\u670d\u52a1\u573a\u6240;\u751f\u6d3b\u670d\u52a1\u573a\u6240", "pty": "0606"}}, {"type": "Feature", "geometry": {"type": "Point", "coordinates": [121.34608938181366, 30.721208112926213]}, "properties": {"name": "\u5de7\u513f\u7a97\u5e18", "biz": "060605|070000 \u8d2d\u7269\u670d\u52a1;\u5bb6\u5c45\u5efa\u6750\u5e02\u573a;\u5e03\u827a\u5e02\u573a|\u751f\u6d3b\u670d\u52a1;\u751f\u6d3b\u670d\u52a1\u573a\u6240;\u751f\u6d3b\u670d\u52a1\u573a\u6240", "pty": "0606"}}, {"type": "Feature", "geometry": {"type": "Point", "coordinates": [121.1564316077261, 30.896100153882134]}, "properties": {"name": "\u897f\u6797\u56fe\u7247\u793e", "biz": "060704|070000 \u8d2d\u7269\u670d\u52a1;\u7efc\u5408\u5e02\u573a;\u679c\u54c1\u5e02\u573a|\u751f\u6d3b\u670d\u52a1;\u751f\u6d3b\u670d\u52a1\u573a\u6240;\u751f\u6d3b\u670d\u52a1\u573a\u6240", "pty": "0607"}}, {"type": "Feature", "geometry": {"type": "Point", "coordinates": [121.15623722358217, 30.896102795697484]}, "properties": {"name": "\u5c0f\u8d75\u73e0\u5b9d", "biz": "061202|070000 \u8d2d\u7269\u670d\u52a1;\u4e13\u5356\u5e97;\u73e0\u5b9d\u9996\u9970\u5de5\u827a\u54c1|\u751f\u6d3b\u670d\u52a1;\u751f\u6d3b\u670d\u52a1\u573a\u6240;\u751f\u6d3b\u670d\u52a1\u573a\u6240", "pty": "0612"}}, {"type": "Feature", "geometry": {"type": "Point", "coordinates": [121.33645599250718, 30.858745677942686]}, "properties": {"name": "\u7ecf\u6d4e\u5c0f\u533a\u793e\u533a\u6587\u5316\u6d3b\u52a8\u4e2d\u5fc3", "biz": "140800|070000 \u79d1\u6559\u6587\u5316\u670d\u52a1;\u6587\u5316\u5bab;\u6587\u5316\u5bab|\u751f\u6d3b\u670d\u52a1;\u751f\u6d3b\u670d\u52a1\u573a\u6240;\u751f\u6d3b\u670d\u52a1\u573a\u6240", "pty": "1408"}}, {"type": "Feature", "geometry": {"type": "Point", "coordinates": [121.22232745189726, 31.008915305194193]}, "properties": {"name": "\u534e\u4e3a\u5ba2\u6237\u670d\u52a1\u4e2d\u5fc3(\u4e0a\u6d77\u91d1\u5f3a\u677e\u6c5f\u5e97)", "biz": "060306|070000 \u8d2d\u7269\u670d\u52a1;\u5bb6\u7535\u7535\u5b50\u5356\u573a;\u6570\u7801\u7535\u5b50|\u751f\u6d3b\u670d\u52a1;\u751f\u6d3b\u670d\u52a1\u573a\u6240;\u751f\u6d3b\u670d\u52a1\u573a\u6240", "pty": "0603"}}, {"type": "Feature", "geometry": {"type": "Point", "coordinates": [121.30508069034263, 31.111097739118907]}, "properties": {"name": "\u4e0a\u6d77\u4e45\u5bcc\u5f69\u94a2\u7ed3\u6784", "biz": "060603|070000 \u8d2d\u7269\u670d\u52a1;\u5bb6\u5c45\u5efa\u6750\u5e02\u573a;\u5efa\u6750\u4e94\u91d1\u5e02\u573a|\u751f\u6d3b\u670d\u52a1;\u751f\u6d3b\u670d\u52a1\u573a\u6240;\u751f\u6d3b\u670d\u52a1\u573a\u6240", "pty": "0606"}}, {"type": "Feature", "geometry": {"type": "Point", "coordinates": [121.30645162087613, 31.0656268614453]}, "properties": {"name": "\u79e6\u9e9f\u88c5\u9970(\u65b0\u4e2d\u8857)", "biz": "060603|070000 \u8d2d\u7269\u670d\u52a1;\u5bb6\u5c45\u5efa\u6750\u5e02\u573a;\u5efa\u6750\u4e94\u91d1\u5e02\u573a|\u751f\u6d3b\u670d\u52a1;\u751f\u6d3b\u670d\u52a1\u573a\u6240;\u751f\u6d3b\u670d\u52a1\u573a\u6240", "pty": "0606"}}, {"type": "Feature", "geometry": {"type": "Point", "coordinates": [121.2340690942985, 31.01566374930709]}, "properties": {"name": "\u4e0a\u6d77\u71c3\u6c14(\u4e50\u90fd\u8def\u5e97)", "biz": "060604|070000 \u8d2d\u7269\u670d\u52a1;\u5bb6\u5c45\u5efa\u6750\u5e02\u573a;\u53a8\u536b\u5e02\u573a|\u751f\u6d3b\u670d\u52a1;\u751f\u6d3b\u670d\u52a1\u573a\u6240;\u751f\u6d3b\u670d\u52a1\u573a\u6240", "pty": "0606"}}, {"type": "Feature", "geometry": {"type": "Point", "coordinates": [121.32923060350504, 31.132876351267278]}, "properties": {"name": "\u978b\u535a\u58eb", "biz": "061102|070000 \u8d2d\u7269\u670d\u52a1;\u670d\u88c5\u978b\u5e3d\u76ae\u5177\u5e97;\u54c1\u724c\u978b\u5e97|\u751f\u6d3b\u670d\u52a1;\u751f\u6d3b\u670d\u52a1\u573a\u6240;\u751f\u6d3b\u670d\u52a1\u573a\u6240", "pty": "0611"}}, {"type": "Feature", "geometry": {"type": "Point", "coordinates": [121.19582322039055, 31.05157662252335]}, "properties": {"name": "HLSP(\u5c1a\u7f51\u5546\u573a)", "biz": "061209|070000 \u8d2d\u7269\u670d\u52a1;\u4e13\u5356\u5e97;\u793c\u54c1\u9970\u54c1\u5e97|\u751f\u6d3b\u670d\u52a1;\u751f\u6d3b\u670d\u52a1\u573a\u6240;\u751f\u6d3b\u670d\u52a1\u573a\u6240", "pty": "0612"}}, {"type": "Feature", "geometry": {"type": "Point", "coordinates": [121.2123705101382, 31.099503231400387]}, "properties": {"name": "\u5a5a\u793c\u5bab", "biz": "080501|070000 \u4f53\u80b2\u4f11\u95f2\u670d\u52a1;\u4f11\u95f2\u573a\u6240;\u6e38\u4e50\u573a|\u751f\u6d3b\u670d\u52a1;\u751f\u6d3b\u670d\u52a1\u573a\u6240;\u751f\u6d3b\u670d\u52a1\u573a\u6240", "pty": "0805"}}, {"type": "Feature", "geometry": {"type": "Point", "coordinates": [121.19577217103942, 31.051134797057202]}, "properties": {"name": "\u8363\u5b89\u9a7e\u6821(\u677e\u6c5f\u5927\u5b66\u57ce\u9a7e\u9a76\u5458\u57f9\u8bad\u4f53\u9a8c\u5e97)", "biz": "141400|141500|070000 \u79d1\u6559\u6587\u5316\u670d\u52a1;\u57f9\u8bad\u673a\u6784;\u57f9\u8bad\u673a\u6784|\u79d1\u6559\u6587\u5316\u670d\u52a1;\u9a7e\u6821;\u9a7e\u6821|\u751f\u6d3b\u670d\u52a1;\u751f\u6d3b\u670d\u52a1\u573a\u6240;\u751f\u6d3b\u670d\u52a1\u573a\u6240", "pty": "1414"}}, {"type": "Feature", "geometry": {"type": "Point", "coordinates": [121.43827043358988, 30.965723539486017]}, "properties": {"name": "\u4e2d\u56fd\u79fb\u52a8", "biz": "060305|070000 \u8d2d\u7269\u670d\u52a1;\u5bb6\u7535\u7535\u5b50\u5356\u573a;\u624b\u673a\u9500\u552e|\u751f\u6d3b\u670d\u52a1;\u751f\u6d3b\u670d\u52a1\u573a\u6240;\u751f\u6d3b\u670d\u52a1\u573a\u6240", "pty": "0603"}}, {"type": "Feature", "geometry": {"type": "Point", "coordinates": [121.55851085176617, 30.98284445885935]}, "properties": {"name": "\u4e2d\u56fd\u79fb\u52a8", "biz": "060305|070000 \u8d2d\u7269\u670d\u52a1;\u5bb6\u7535\u7535\u5b50\u5356\u573a;\u624b\u673a\u9500\u552e|\u751f\u6d3b\u670d\u52a1;\u751f\u6d3b\u670d\u52a1\u573a\u6240;\u751f\u6d3b\u670d\u52a1\u573a\u6240", "pty": "0603"}}, {"type": "Feature", "geometry": {"type": "Point", "coordinates": [121.72233727951603, 30.94164607642041]}, "properties": {"name": "\u7fbf\u9f99\u79d1\u6280", "biz": "060306|070000 \u8d2d\u7269\u670d\u52a1;\u5bb6\u7535\u7535\u5b50\u5356\u573a;\u6570\u7801\u7535\u5b50|\u751f\u6d3b\u670d\u52a1;\u751f\u6d3b\u670d\u52a1\u573a\u6240;\u751f\u6d3b\u670d\u52a1\u573a\u6240", "pty": "0603"}}, {"type": "Feature", "geometry": {"type": "Point", "coordinates": [121.45419932705406, 30.90850416745222]}, "properties": {"name": "\u82b1\u6837\u5e74\u534e\u9c9c\u82b1\u5a5a\u5e86", "biz": "060501|070000 \u8d2d\u7269\u670d\u52a1;\u82b1\u9e1f\u9c7c\u866b\u5e02\u573a;\u82b1\u5349\u5e02\u573a|\u751f\u6d3b\u670d\u52a1;\u751f\u6d3b\u670d\u52a1\u573a\u6240;\u751f\u6d3b\u670d\u52a1\u573a\u6240", "pty": "0605"}}, {"type": "Feature", "geometry": {"type": "Point", "coordinates": [121.63991321303111, 30.94158644543908]}, "properties": {"name": "\u4e0a\u6d77\u827a\u521b\u88c5\u9970\u6750\u6599\u6709\u9650\u516c\u53f8", "biz": "060602|070000 \u8d2d\u7269\u670d\u52a1;\u5bb6\u5c45\u5efa\u6750\u5e02\u573a;\u5bb6\u5177\u57ce|\u751f\u6d3b\u670d\u52a1;\u751f\u6d3b\u670d\u52a1\u573a\u6240;\u751f\u6d3b\u670d\u52a1\u573a\u6240", "pty": "0606"}}, {"type": "Feature", "geometry": {"type": "Point", "coordinates": [121.75297309662888, 30.908997820224066]}, "properties": {"name": "\u5b9d\u57ce\u968d\u5e99\u73e0\u5b9d", "biz": "061202|070000 \u8d2d\u7269\u670d\u52a1;\u4e13\u5356\u5e97;\u73e0\u5b9d\u9996\u9970\u5de5\u827a\u54c1|\u751f\u6d3b\u670d\u52a1;\u751f\u6d3b\u670d\u52a1\u573a\u6240;\u751f\u6d3b\u670d\u52a1\u573a\u6240", "pty": "0612"}}, {"type": "Feature", "geometry": {"type": "Point", "coordinates": [121.55941339373767, 30.98542330382316]}, "properties": {"name": "\u5929\u5b87\u949f\u8868\u901a\u8baf", "biz": "061203|070000 \u8d2d\u7269\u670d\u52a1;\u4e13\u5356\u5e97;\u949f\u8868\u5e97|\u751f\u6d3b\u670d\u52a1;\u751f\u6d3b\u670d\u52a1\u573a\u6240;\u751f\u6d3b\u670d\u52a1\u573a\u6240", "pty": "0612"}}, {"type": "Feature", "geometry": {"type": "Point", "coordinates": [121.59835815987572, 31.61625150978954]}, "properties": {"name": "\u4e0a\u6d77\u4f1f\u8fbe\u95e8\u7a97(\u5d07\u660e\u65d7\u8230\u5e97)", "biz": "060603|070000 \u8d2d\u7269\u670d\u52a1;\u5bb6\u5c45\u5efa\u6750\u5e02\u573a;\u5efa\u6750\u4e94\u91d1\u5e02\u573a|\u751f\u6d3b\u670d\u52a1;\u751f\u6d3b\u670d\u52a1\u573a\u6240;\u751f\u6d3b\u670d\u52a1\u573a\u6240", "pty": "0606"}}, {"type": "Feature", "geometry": {"type": "Point", "coordinates": [121.39788451898329, 31.631131677957452]}, "properties": {"name": "\u6b63\u7f8e\u88c5\u9970(\u4f53\u80b2\u8def)", "biz": "060603|070000 \u8d2d\u7269\u670d\u52a1;\u5bb6\u5c45\u5efa\u6750\u5e02\u573a;\u5efa\u6750\u4e94\u91d1\u5e02\u573a|\u751f\u6d3b\u670d\u52a1;\u751f\u6d3b\u670d\u52a1\u573a\u6240;\u751f\u6d3b\u670d\u52a1\u573a\u6240", "pty": "0606"}}, {"type": "Feature", "geometry": {"type": "Point", "coordinates": [121.52050888286261, 31.58319119911798]}, "properties": {"name": "\u5d07\u660e\u533a\u65b0\u6cb3\u9547\u793e\u533a\u6587\u5316\u6d3b\u52a8\u4e2d\u5fc3", "biz": "140800|070000 \u79d1\u6559\u6587\u5316\u670d\u52a1;\u6587\u5316\u5bab;\u6587\u5316\u5bab|\u751f\u6d3b\u670d\u52a1;\u751f\u6d3b\u670d\u52a1\u573a\u6240;\u751f\u6d3b\u670d\u52a1\u573a\u6240", "pty": "1408"}}, {"type": "Feature", "geometry": {"type": "Point", "coordinates": [121.47098258975903, 31.235345817340086]}, "properties": {"name": "\u6625\u79cb\u65c5\u6e38", "biz": "070301|070100 \u751f\u6d3b\u670d\u52a1;\u552e\u7968\u5904;\u98de\u673a\u7968\u4ee3\u552e\u70b9|\u751f\u6d3b\u670d\u52a1;\u65c5\u884c\u793e;\u65c5\u884c\u793e", "pty": "0703"}}, {"type": "Feature", "geometry": {"type": "Point", "coordinates": [121.35414020997341, 31.159468165975095]}, "properties": {"name": "\u706b\u8f66\u7968\u4ee3\u552e\u5904(\u53f7\u4e0a\u897f\u8def)", "biz": "070302|070100 \u751f\u6d3b\u670d\u52a1;\u552e\u7968\u5904;\u706b\u8f66\u7968\u4ee3\u552e\u70b9|\u751f\u6d3b\u670d\u52a1;\u65c5\u884c\u793e;\u65c5\u884c\u793e", "pty": "0703"}}, {"type": "Feature", "geometry": {"type": "Point", "coordinates": [121.47402413187777, 31.25381295452538]}, "properties": {"name": "\u4e0a\u94c1\u56fd\u65c5(\u4e1c\u534e\u8def)", "biz": "070302|070100 \u751f\u6d3b\u670d\u52a1;\u552e\u7968\u5904;\u706b\u8f66\u7968\u4ee3\u552e\u70b9|\u751f\u6d3b\u670d\u52a1;\u65c5\u884c\u793e;\u65c5\u884c\u793e", "pty": "0703"}}, {"type": "Feature", "geometry": {"type": "Point", "coordinates": [121.3875837363387, 31.62251990050482]}, "properties": {"name": "\u6df3\u9633\u65c5\u6e38\u822a\u7a7a\u552e\u7968", "biz": "070301|070100 \u751f\u6d3b\u670d\u52a1;\u552e\u7968\u5904;\u98de\u673a\u7968\u4ee3\u552e\u70b9|\u751f\u6d3b\u670d\u52a1;\u65c5\u884c\u793e;\u65c5\u884c\u793e", "pty": "0703"}}, {"type": "Feature", "geometry": {"type": "Point", "coordinates": [121.48504431271104, 31.229746701781124]}, "properties": {"name": "\u798f\u6e90\u5546\u53a6\u5e02\u573a\u670d\u52a1\u4e2d\u5fc3", "biz": "070201 \u751f\u6d3b\u670d\u52a1;\u4fe1\u606f\u54a8\u8be2\u4e2d\u5fc3;\u670d\u52a1\u4e2d\u5fc3", "pty": "0702"}}, {"type": "Feature", "geometry": {"type": "Point", "coordinates": [121.47295003462142, 31.201179484898788]}, "properties": {"name": "\u5ba2\u670d\u4e2d\u5fc3(\u6c47\u66bb\u751f\u6d3b\u5e7f\u573a)", "biz": "070201 \u751f\u6d3b\u670d\u52a1;\u4fe1\u606f\u54a8\u8be2\u4e2d\u5fc3;\u670d\u52a1\u4e2d\u5fc3", "pty": "0702"}}, {"type": "Feature", "geometry": {"type": "Point", "coordinates": [121.47055240344285, 31.221001317400997]}, "properties": {"name": "\u793c\u5bbe\u5904(\u4e0a\u6d77\u65b0\u5929\u5730\u5357\u91cc)", "biz": "070201 \u751f\u6d3b\u670d\u52a1;\u4fe1\u606f\u54a8\u8be2\u4e2d\u5fc3;\u670d\u52a1\u4e2d\u5fc3", "pty": "0702"}}, {"type": "Feature", "geometry": {"type": "Point", "coordinates": [121.47348375738201, 31.236993007574497]}, "properties": {"name": "\u5ba2\u6237\u670d\u52a1\u4e2d\u5fc3(\u6c38\u5b89\u767e\u8d27)", "biz": "070201 \u751f\u6d3b\u670d\u52a1;\u4fe1\u606f\u54a8\u8be2\u4e2d\u5fc3;\u670d\u52a1\u4e2d\u5fc3", "pty": "0702"}}, {"type": "Feature", "geometry": {"type": "Point", "coordinates": [121.47757251071735, 31.238326984942024]}, "properties": {"name": "VIP\u8d35\u5bbe\u670d\u52a1\u4e2d\u5fc3(\u4e0a\u6d77\u7f6e\u5730\u5e7f\u573a)", "biz": "070201 \u751f\u6d3b\u670d\u52a1;\u4fe1\u606f\u54a8\u8be2\u4e2d\u5fc3;\u670d\u52a1\u4e2d\u5fc3", "pty": "0702"}}, {"type": "Feature", "geometry": {"type": "Point", "coordinates": [121.46276152488238, 31.233894579281948]}, "properties": {"name": "\u4fbf\u6c11\u670d\u52a1\u4e2d\u5fc3(\u4e0a\u6d77\u957f\u5f81\u533b\u9662\u95e8\u8bca\u697c)", "biz": "070201 \u751f\u6d3b\u670d\u52a1;\u4fe1\u606f\u54a8\u8be2\u4e2d\u5fc3;\u670d\u52a1\u4e2d\u5fc3", "pty": "0702"}}, {"type": "Feature", "geometry": {"type": "Point", "coordinates": [121.48300031891958, 31.203721073188213]}, "properties": {"name": "\u5987\u79d1\u54a8\u8be2\u670d\u52a1\u53f0(\u7b2c\u4e5d\u4eba\u6c11\u533b\u9662\u65b0\u95e8\u8bca\u697c)", "biz": "070201 \u751f\u6d3b\u670d\u52a1;\u4fe1\u606f\u54a8\u8be2\u4e2d\u5fc3;\u670d\u52a1\u4e2d\u5fc3", "pty": "0702"}}, {"type": "Feature", "geometry": {"type": "Point", "coordinates": [121.48273641356087, 31.20346942202307]}, "properties": {"name": "\u9aa8\u79d1\u54a8\u8be2\u670d\u52a1\u53f0(\u7b2c\u4e5d\u4eba\u6c11\u533b\u9662\u65b0\u95e8\u8bca\u697c)", "biz": "070201 \u751f\u6d3b\u670d\u52a1;\u4fe1\u606f\u54a8\u8be2\u4e2d\u5fc3;\u670d\u52a1\u4e2d\u5fc3", "pty": "0702"}}, {"type": "Feature", "geometry": {"type": "Point", "coordinates": [121.48271834726262, 31.20350335254405]}, "properties": {"name": "\u80f8\u5916\u79d1\u54a8\u8be2\u670d\u52a1\u53f0(\u7b2c\u4e5d\u4eba\u6c11\u533b\u9662\u65b0\u95e8\u8bca\u697c)", "biz": "070201 \u751f\u6d3b\u670d\u52a1;\u4fe1\u606f\u54a8\u8be2\u4e2d\u5fc3;\u670d\u52a1\u4e2d\u5fc3", "pty": "0702"}}, {"type": "Feature", "geometry": {"type": "Point", "coordinates": [121.48263203819803, 31.20357606422807]}, "properties": {"name": "\u795e\u7ecf\u5185\u79d1\u54a8\u8be2\u670d\u52a1\u53f0(\u7b2c\u4e5d\u4eba\u6c11\u533b\u9662\u65b0\u95e8\u8bca\u697c)", "biz": "070201 \u751f\u6d3b\u670d\u52a1;\u4fe1\u606f\u54a8\u8be2\u4e2d\u5fc3;\u670d\u52a1\u4e2d\u5fc3", "pty": "0702"}}, {"type": "Feature", "geometry": {"type": "Point", "coordinates": [121.4826721775876, 31.203593173490685]}, "properties": {"name": "\u6ccc\u5c3f\u5916\u79d1\u54a8\u8be2\u670d\u52a1\u53f0(\u7b2c\u4e5d\u4eba\u6c11\u533b\u9662\u65b0\u95e8\u8bca\u697c)", "biz": "070201 \u751f\u6d3b\u670d\u52a1;\u4fe1\u606f\u54a8\u8be2\u4e2d\u5fc3;\u670d\u52a1\u4e2d\u5fc3", "pty": "0702"}}, {"type": "Feature", "geometry": {"type": "Point", "coordinates": [121.48279561712249, 31.203519571108103]}, "properties": {"name": "\u6574\u590d\u5916\u79d1\u54a8\u8be2\u670d\u52a1\u53f0(\u7b2c\u4e5d\u4eba\u6c11\u533b\u9662\u65b0\u95e8\u8bca\u697c)", "biz": "070201 \u751f\u6d3b\u670d\u52a1;\u4fe1\u606f\u54a8\u8be2\u4e2d\u5fc3;\u670d\u52a1\u4e2d\u5fc3", "pty": "0702"}}, {"type": "Feature", "geometry": {"type": "Point", "coordinates": [121.48304949885932, 31.203637258294904]}, "properties": {"name": "\u8001\u5e74\u75c5\u79d1\u54a8\u8be2\u670d\u52a1\u53f0(\u7b2c\u4e5d\u4eba\u6c11\u533b\u9662\u65b0\u95e8\u8bca\u697c)", "biz": "070201 \u751f\u6d3b\u670d\u52a1;\u4fe1\u606f\u54a8\u8be2\u4e2d\u5fc3;\u670d\u52a1\u4e2d\u5fc3", "pty": "0702"}}, {"type": "Feature", "geometry": {"type": "Point", "coordinates": [121.48305352166926, 31.2035353197651]}, "properties": {"name": "\u8d85\u58f0\u8bca\u65ad\u79d1\u54a8\u8be2\u670d\u52a1\u53f0(\u7b2c\u4e5d\u4eba\u6c11\u533b\u9662\u65b0\u95e8\u8bca\u697c)", "biz": "070201 \u751f\u6d3b\u670d\u52a1;\u4fe1\u606f\u54a8\u8be2\u4e2d\u5fc3;\u670d\u52a1\u4e2d\u5fc3", "pty": "0702"}}, {"type": "Feature", "geometry": {"type": "Point", "coordinates": [121.48265010447575, 31.203542133688575]}, "properties": {"name": "\u5fc3\u8840\u7ba1\u5185\u79d1\u54a8\u8be2\u670d\u52a1\u53f0(\u7b2c\u4e5d\u4eba\u6c11\u533b\u9662\u65b0\u95e8\u8bca\u697c)", "biz": "070201 \u751f\u6d3b\u670d\u52a1;\u4fe1\u606f\u54a8\u8be2\u4e2d\u5fc3;\u670d\u52a1\u4e2d\u5fc3", "pty": "0702"}}, {"type": "Feature", "geometry": {"type": "Point", "coordinates": [121.48283374332168, 31.203609638988205]}, "properties": {"name": "\u5eb7\u590d\u533b\u5b66\u79d1\u54a8\u8be2\u670d\u52a1\u53f0(\u7b2c\u4e5d\u4eba\u6c11\u533b\u9662\u65b0\u95e8\u8bca\u697c)", "biz": "070201 \u751f\u6d3b\u670d\u52a1;\u4fe1\u606f\u54a8\u8be2\u4e2d\u5fc3;\u670d\u52a1\u4e2d\u5fc3", "pty": "0702"}}, {"type": "Feature", "geometry": {"type": "Point", "coordinates": [121.4829621877719, 31.20368797746447]}, "properties": {"name": "\u6574\u5f62\u5916\u79d1\u5fae\u521b\u5ba4\u54a8\u8be2\u670d\u52a1\u53f0(\u7b2c\u4e5d\u4eba\u6c11\u533b\u9662\u65b0\u95e8\u8bca\u697c)", "biz": "070201 \u751f\u6d3b\u670d\u52a1;\u4fe1\u606f\u54a8\u8be2\u4e2d\u5fc3;\u670d\u52a1\u4e2d\u5fc3", "pty": "0702"}}, {"type": "Feature", "geometry": {"type": "Point", "coordinates": [121.43551604745258, 31.19503769747918]}, "properties": {"name": "\u7f8e\u7f57\u57ce\u4f1a\u5458\u4e2d\u5fc3(\u7f8e\u7f57\u57ce)", "biz": "070201 \u751f\u6d3b\u670d\u52a1;\u4fe1\u606f\u54a8\u8be2\u4e2d\u5fc3;\u670d\u52a1\u4e2d\u5fc3", "pty": "0702"}}, {"type": "Feature", "geometry": {"type": "Point", "coordinates": [121.42840081962292, 31.176312348333063]}, "properties": {"name": "\u6c47\u9633\u5e7f\u573a\u5ba2\u670d\u4e2d\u5fc3", "biz": "070201 \u751f\u6d3b\u670d\u52a1;\u4fe1\u606f\u54a8\u8be2\u4e2d\u5fc3;\u670d\u52a1\u4e2d\u5fc3", "pty": "0702"}}, {"type": "Feature", "geometry": {"type": "Point", "coordinates": [121.42415812454554, 31.156001444890563]}, "properties": {"name": "\u4e0a\u6d77\u94c1\u65c5\u5546\u52a1\u4e2d\u5fc3", "biz": "070201 \u751f\u6d3b\u670d\u52a1;\u4fe1\u606f\u54a8\u8be2\u4e2d\u5fc3;\u670d\u52a1\u4e2d\u5fc3", "pty": "0702"}}, {"type": "Feature", "geometry": {"type": "Point", "coordinates": [121.43804670653203, 31.11981826004308]}, "properties": {"name": "\u8d35\u5bbe\u63a5\u5f85\u5ba4(\u4e0a\u6d77\u5e02\u5f90\u6c47\u4f53\u80b2\u9986)", "biz": "070201 \u751f\u6d3b\u670d\u52a1;\u4fe1\u606f\u54a8\u8be2\u4e2d\u5fc3;\u670d\u52a1\u4e2d\u5fc3", "pty": "0702"}}, {"type": "Feature", "geometry": {"type": "Point", "coordinates": [121.42403696120375, 31.15591534747862]}, "properties": {"name": "\u65c5\u6e38\u5bbe\u9986(\u7f51\u7edc)\u63a5\u5f85\u4e2d\u5fc3(\u4e0a\u6d77\u706b\u8f66\u7ad9\u5357\u7ad9)", "biz": "070201 \u751f\u6d3b\u670d\u52a1;\u4fe1\u606f\u54a8\u8be2\u4e2d\u5fc3;\u670d\u52a1\u4e2d\u5fc3", "pty": "0702"}}, {"type": "Feature", "geometry": {"type": "Point", "coordinates": [121.42424324090717, 31.1560485207248]}, "properties": {"name": "\u4e0a\u6d77\u65c5\u6e38\u54a8\u8be2\u670d\u52a1\u4e2d\u5fc3(\u4e0a\u6d77\u706b\u8f66\u7ad9\u5357\u7ad9)", "biz": "070201 \u751f\u6d3b\u670d\u52a1;\u4fe1\u606f\u54a8\u8be2\u4e2d\u5fc3;\u670d\u52a1\u4e2d\u5fc3", "pty": "0702"}}, {"type": "Feature", "geometry": {"type": "Point", "coordinates": [121.41936479554451, 31.180804534588443]}, "properties": {"name": "\u4fbf\u6c11\u670d\u52a1\u4e2d\u5fc3(\u4e0a\u6d77\u5e02\u7b2c\u516d\u4eba\u6c11\u533b\u9662\u95e8\u8bca\u697c)", "biz": "070201 \u751f\u6d3b\u670d\u52a1;\u4fe1\u606f\u54a8\u8be2\u4e2d\u5fc3;\u670d\u52a1\u4e2d\u5fc3", "pty": "0702"}}, {"type": "Feature", "geometry": {"type": "Point", "coordinates": [121.38210880192645, 31.23992484607795]}, "properties": {"name": "\u7ea2\u661f\u7f8e\u51ef\u9f99(\u771f\u5317\u5e97)", "biz": "060602|070200 \u8d2d\u7269\u670d\u52a1;\u5bb6\u5c45\u5efa\u6750\u5e02\u573a;\u5bb6\u5177\u57ce|\u751f\u6d3b\u670d\u52a1;\u4fe1\u606f\u54a8\u8be2\u4e2d\u5fc3;\u4fe1\u606f\u54a8\u8be2\u4e2d\u5fc3", "pty": "0606"}}, {"type": "Feature", "geometry": {"type": "Point", "coordinates": [121.40870348975038, 31.23722054859881]}, "properties": {"name": "\u534e\u6da6\u4e07\u5bb6\u987e\u5ba2\u670d\u52a1\u4e2d\u5fc3(\u4e0a\u6d77\u73af\u7403\u6e2f)", "biz": "070201 \u751f\u6d3b\u670d\u52a1;\u4fe1\u606f\u54a8\u8be2\u4e2d\u5fc3;\u670d\u52a1\u4e2d\u5fc3", "pty": "0702"}}, {"type": "Feature", "geometry": {"type": "Point", "coordinates": [121.50856930805041, 31.303838995106247]}, "properties": {"name": "\u95ee\u8be2\u5904(\u7279\u529b\u65f6\u5c1a\u6c47)", "biz": "070201 \u751f\u6d3b\u670d\u52a1;\u4fe1\u606f\u54a8\u8be2\u4e2d\u5fc3;\u670d\u52a1\u4e2d\u5fc3", "pty": "0702"}}, {"type": "Feature", "geometry": {"type": "Point", "coordinates": [121.53316775295198, 31.267039007809924]}, "properties": {"name": "NICA\u793e\u533a\u670d\u52a1\u4e2d\u5fc3(\u767e\u8054\u6ee8\u6c5f\u8d2d\u7269\u4e2d\u5fc3)", "biz": "070201 \u751f\u6d3b\u670d\u52a1;\u4fe1\u606f\u54a8\u8be2\u4e2d\u5fc3;\u670d\u52a1\u4e2d\u5fc3", "pty": "0702"}}, {"type": "Feature", "geometry": {"type": "Point", "coordinates": [121.50781806254628, 31.26338146748839]}, "properties": {"name": "\u8fea\u5361\u4fac\u5ba2\u670d\u5de5\u4f5c\u5ba4(\u5b9d\u5730\u5e7f\u573aD\u5ea7)", "biz": "070201 \u751f\u6d3b\u670d\u52a1;\u4fe1\u606f\u54a8\u8be2\u4e2d\u5fc3;\u670d\u52a1\u4e2d\u5fc3", "pty": "0702"}}, {"type": "Feature", "geometry": {"type": "Point", "coordinates": [121.39493035462142, 31.133072200947694]}, "properties": {"name": "\u5ba2\u670d\u4e2d\u5fc3(\u53cb\u8c0a\u5546\u57ce)", "biz": "070201 \u751f\u6d3b\u670d\u52a1;\u4fe1\u606f\u54a8\u8be2\u4e2d\u5fc3;\u670d\u52a1\u4e2d\u5fc3", "pty": "0702"}}, {"type": "Feature", "geometry": {"type": "Point", "coordinates": [121.31821723107787, 31.19626366765123]}, "properties": {"name": "\u9ad8\u94c1\u8679\u6865\u5546\u4e1a\u670d\u52a1\u4e2d\u5fc3", "biz": "070201 \u751f\u6d3b\u670d\u52a1;\u4fe1\u606f\u54a8\u8be2\u4e2d\u5fc3;\u670d\u52a1\u4e2d\u5fc3", "pty": "0702"}}, {"type": "Feature", "geometry": {"type": "Point", "coordinates": [121.3362380683429, 31.16637445886147]}, "properties": {"name": "\u4f1a\u5458\u5151\u6362(\u51ef\u5fb7\u4e03\u5b9d\u8d2d\u7269\u5e7f\u573a)", "biz": "070201 \u751f\u6d3b\u670d\u52a1;\u4fe1\u606f\u54a8\u8be2\u4e2d\u5fc3;\u670d\u52a1\u4e2d\u5fc3", "pty": "0702"}}, {"type": "Feature", "geometry": {"type": "Point", "coordinates": [121.3182422131078, 31.19581184302]}, "properties": {"name": "\u4e0a\u6d77\u56fd\u65c5\u5546\u65c5\u670d\u52a1\u4e2d\u5fc3(\u8679\u6865\u7efc\u5408\u4ea4\u901a\u67a2\u7ebd)", "biz": "070201 \u751f\u6d3b\u670d\u52a1;\u4fe1\u606f\u54a8\u8be2\u4e2d\u5fc3;\u670d\u52a1\u4e2d\u5fc3", "pty": "0702"}}, {"type": "Feature", "geometry": {"type": "Point", "coordinates": [121.39797799447064, 31.13548573183578]}, "properties": {"name": "\u95ee\u8be2\u5904(\u83b2\u82b1\u56fd\u9645\u5e7f\u573a)", "biz": "070201 \u751f\u6d3b\u670d\u52a1;\u4fe1\u606f\u54a8\u8be2\u4e2d\u5fc3;\u670d\u52a1\u4e2d\u5fc3", "pty": "0702"}}, {"type": "Feature", "geometry": {"type": "Point", "coordinates": [121.36700863276042, 31.17855454820422]}, "properties": {"name": "\u5ba2\u6237\u670d\u52a1\u4e2d\u5fc3(\u4e50\u8679\u574a\u7cbe\u81f4\u751f\u6d3b\u5e7f\u573a)", "biz": "070201 \u751f\u6d3b\u670d\u52a1;\u4fe1\u606f\u54a8\u8be2\u4e2d\u5fc3;\u670d\u52a1\u4e2d\u5fc3", "pty": "0702"}}, {"type": "Feature", "geometry": {"type": "Point", "coordinates": [121.3171585948196, 31.1967414497533]}, "properties": {"name": "\u9ad8\u94c1\u8679\u6865\u5546\u4e1a\u670d\u52a1\u4e2d\u5fc3", "biz": "070201 \u751f\u6d3b\u670d\u52a1;\u4fe1\u606f\u54a8\u8be2\u4e2d\u5fc3;\u670d\u52a1\u4e2d\u5fc3", "pty": "0702"}}, {"type": "Feature", "geometry": {"type": "Point", "coordinates": [121.32323680128212, 31.196069147422776]}, "properties": {"name": "\u4e2d\u56fd\u4e1c\u65b9\u822a\u7a7a\u670d\u52a1\u53f0(\u8679\u6865\u7efc\u5408\u4ea4\u901a\u67a2\u7ebd)", "biz": "070201 \u751f\u6d3b\u670d\u52a1;\u4fe1\u606f\u54a8\u8be2\u4e2d\u5fc3;\u670d\u52a1\u4e2d\u5fc3", "pty": "0702"}}, {"type": "Feature", "geometry": {"type": "Point", "coordinates": [121.32322282836094, 31.196125146606075]}, "properties": {"name": "\u4e2d\u56fd\u4e1c\u65b9\u822a\u7a7a&\u4e0a\u6d77\u822a\u7a7a\u516c\u53f8\u4f1a\u5458\u4e13\u67dc(\u8679\u6865\u7efc\u5408\u4ea4\u901a\u67a2\u7ebd)", "biz": "070201 \u751f\u6d3b\u670d\u52a1;\u4fe1\u606f\u54a8\u8be2\u4e2d\u5fc3;\u670d\u52a1\u4e2d\u5fc3", "pty": "0702"}}, {"type": "Feature", "geometry": {"type": "Point", "coordinates": [121.31571694391307, 31.19576866830536]}, "properties": {"name": "\u4e0a\u6d77\u65c5\u6e38\u54a8\u8be2\u670d\u52a1(\u8679\u6865\u7efc\u5408\u4ea4\u901a\u67a2\u7ebd)", "biz": "070201 \u751f\u6d3b\u670d\u52a1;\u4fe1\u606f\u54a8\u8be2\u4e2d\u5fc3;\u670d\u52a1\u4e2d\u5fc3", "pty": "0702"}}, {"type": "Feature", "geometry": {"type": "Point", "coordinates": [121.32379084160085, 31.19252583791601]}, "properties": {"name": "\u7261\u4e39\u822a\u7a7a\u5546\u52a1\u4e2d\u5fc3(\u8679\u6865\u7efc\u5408\u4ea4\u901a\u67a2\u7ebd)", "biz": "070201 \u751f\u6d3b\u670d\u52a1;\u4fe1\u606f\u54a8\u8be2\u4e2d\u5fc3;\u670d\u52a1\u4e2d\u5fc3", "pty": "0702"}}, {"type": "Feature", "geometry": {"type": "Point", "coordinates": [121.32380656674763, 31.19530143278753]}, "properties": {"name": "\u65c5\u9986\u95ee\u8be2(\u8679\u6865\u7efc\u5408\u4ea4\u901a\u67a2\u7ebd)", "biz": "070202 \u751f\u6d3b\u670d\u52a1;\u4fe1\u606f\u54a8\u8be2\u4e2d\u5fc3;\u65c5\u9986\u95ee\u8baf", "pty": "0702"}}, {"type": "Feature", "geometry": {"type": "Point", "coordinates": [121.3236896461743, 31.197478583120567]}, "properties": {"name": "\u884c\u674e\u67e5\u8be2(\u8679\u6865\u7efc\u5408\u4ea4\u901a\u67a2\u7ebd)", "biz": "070203 \u751f\u6d3b\u670d\u52a1;\u4fe1\u606f\u54a8\u8be2\u4e2d\u5fc3;\u884c\u674e\u67e5\u8be2/\u884c\u674e\u95ee\u8be2", "pty": "0702"}}, {"type": "Feature", "geometry": {"type": "Point", "coordinates": [121.47642987638419, 31.34027939436756]}, "properties": {"name": "\u4fbf\u6c11\u670d\u52a1\u574a(\u6dde\u5357\u8d2d\u7269\u4e2d\u5fc3)", "biz": "070201 \u751f\u6d3b\u670d\u52a1;\u4fe1\u606f\u54a8\u8be2\u4e2d\u5fc3;\u670d\u52a1\u4e2d\u5fc3", "pty": "0702"}}, {"type": "Feature", "geometry": {"type": "Point", "coordinates": [121.44232925261502, 31.32622100632898]}, "properties": {"name": "\u4e07\u8fbe\u767e\u8d27\u5ba2\u670d\u670d\u52a1\u4e2d\u5fc3", "biz": "070201 \u751f\u6d3b\u670d\u52a1;\u4fe1\u606f\u54a8\u8be2\u4e2d\u5fc3;\u670d\u52a1\u4e2d\u5fc3", "pty": "0702"}}, {"type": "Feature", "geometry": {"type": "Point", "coordinates": [121.37937012100993, 31.19327898850097]}, "properties": {"name": "VIP(\u68ee\u665f\u4e16\u6d0b\u56fd\u9645\u5e7f\u573a)", "biz": "070201 \u751f\u6d3b\u670d\u52a1;\u4fe1\u606f\u54a8\u8be2\u4e2d\u5fc3;\u670d\u52a1\u4e2d\u5fc3", "pty": "0702"}}, {"type": "Feature", "geometry": {"type": "Point", "coordinates": [121.45095098554498, 31.229689150834457]}, "properties": {"name": "\u4e2d\u4fe1\u6cf0\u5bcc\u5e7f\u573a\u8d35\u5bbe\u4ff1\u4e50\u90e8\u4f1a\u5458\u670d\u52a1\u4e2d\u5fc3", "biz": "070201 \u751f\u6d3b\u670d\u52a1;\u4fe1\u606f\u54a8\u8be2\u4e2d\u5fc3;\u670d\u52a1\u4e2d\u5fc3", "pty": "0702"}}, {"type": "Feature", "geometry": {"type": "Point", "coordinates": [121.44548284802067, 31.232268309134156]}, "properties": {"name": "\u63a5\u5f85(\u95e8\u8bca\u90e8)", "biz": "070201 \u751f\u6d3b\u670d\u52a1;\u4fe1\u606f\u54a8\u8be2\u4e2d\u5fc3;\u670d\u52a1\u4e2d\u5fc3", "pty": "0702"}}, {"type": "Feature", "geometry": {"type": "Point", "coordinates": [121.44279005515494, 31.225357176818505]}, "properties": {"name": "VIP\u8d35\u5bbe\u5ba4(\u82ae\u6b27\u767e\u8d27)", "biz": "070201 \u751f\u6d3b\u670d\u52a1;\u4fe1\u606f\u54a8\u8be2\u4e2d\u5fc3;\u670d\u52a1\u4e2d\u5fc3", "pty": "0702"}}, {"type": "Feature", "geometry": {"type": "Point", "coordinates": [121.1574550762045, 31.28979700859143]}, "properties": {"name": "\u987e\u5ba2\u670d\u52a1(\u5609\u4ead\u835f\u57ce\u5e02\u751f\u6d3b\u5e7f\u573a\u897f\u533a)", "biz": "070201 \u751f\u6d3b\u670d\u52a1;\u4fe1\u606f\u54a8\u8be2\u4e2d\u5fc3;\u670d\u52a1\u4e2d\u5fc3", "pty": "0702"}}, {"type": "Feature", "geometry": {"type": "Point", "coordinates": [121.35684215922142, 31.254050309900332]}, "properties": {"name": "\u552e\u540e\u670d\u52a1\u4e2d\u5fc3(\u5146\u5730\u751f\u6d3b\u5e7f\u573a)", "biz": "070201 \u751f\u6d3b\u670d\u52a1;\u4fe1\u606f\u54a8\u8be2\u4e2d\u5fc3;\u670d\u52a1\u4e2d\u5fc3", "pty": "0702"}}, {"type": "Feature", "geometry": {"type": "Point", "coordinates": [121.35693599720555, 31.25402518159587]}, "properties": {"name": "\u5927\u6da6\u53d1\u670d\u52a1\u53f0(\u5146\u5730\u751f\u6d3b\u5e7f\u573a)", "biz": "070201 \u751f\u6d3b\u670d\u52a1;\u4fe1\u606f\u54a8\u8be2\u4e2d\u5fc3;\u670d\u52a1\u4e2d\u5fc3", "pty": "0702"}}, {"type": "Feature", "geometry": {"type": "Point", "coordinates": [121.92226396645846, 30.90096112545123]}, "properties": {"name": "\u6ef4\u6c34\u6e56\u65c5\u6e38\u54a8\u8be2\u670d\u52a1\u4e2d\u5fc3", "biz": "070201 \u751f\u6d3b\u670d\u52a1;\u4fe1\u606f\u54a8\u8be2\u4e2d\u5fc3;\u670d\u52a1\u4e2d\u5fc3", "pty": "0702"}}, {"type": "Feature", "geometry": {"type": "Point", "coordinates": [121.5592511700932, 31.2146659873822]}, "properties": {"name": "\u5ba2\u670d\u4e2d\u5fc3(\u6d66\u4e1c\u5609\u91cc\u57ce)", "biz": "070201 \u751f\u6d3b\u670d\u52a1;\u4fe1\u606f\u54a8\u8be2\u4e2d\u5fc3;\u670d\u52a1\u4e2d\u5fc3", "pty": "0702"}}, {"type": "Feature", "geometry": {"type": "Point", "coordinates": [121.51985353283077, 31.22945708849064]}, "properties": {"name": "i\u670d\u52a1\u4e2d\u5fc3(96\u5e7f\u573a)", "biz": "070201 \u751f\u6d3b\u670d\u52a1;\u4fe1\u606f\u54a8\u8be2\u4e2d\u5fc3;\u670d\u52a1\u4e2d\u5fc3", "pty": "0702"}}, {"type": "Feature", "geometry": {"type": "Point", "coordinates": [121.59157157015711, 31.252002675792095]}, "properties": {"name": "\u4f1a\u5458VIP\u670d\u52a1\u4e2d\u5fc3(\u7ea2\u661f\u7f8e\u51ef\u9f99\u91d1\u6865\u5546\u573a)", "biz": "070201 \u751f\u6d3b\u670d\u52a1;\u4fe1\u606f\u54a8\u8be2\u4e2d\u5fc3;\u670d\u52a1\u4e2d\u5fc3", "pty": "0702"}}, {"type": "Feature", "geometry": {"type": "Point", "coordinates": [121.55938126235333, 31.156159543969853]}, "properties": {"name": "\u670d\u52a1\u4e2d\u5fc3(\u767e\u8054\u4e1c\u90ca\u8d2d\u7269\u4e2d\u5fc3)", "biz": "070201 \u751f\u6d3b\u670d\u52a1;\u4fe1\u606f\u54a8\u8be2\u4e2d\u5fc3;\u670d\u52a1\u4e2d\u5fc3", "pty": "0702"}}, {"type": "Feature", "geometry": {"type": "Point", "coordinates": [121.79887974188453, 31.153298471022886]}, "properties": {"name": "\u5927\u4f17\u4ea4\u901a\u673a\u573a\u670d\u52a1\u4e2d\u5fc3", "biz": "070201 \u751f\u6d3b\u670d\u52a1;\u4fe1\u606f\u54a8\u8be2\u4e2d\u5fc3;\u670d\u52a1\u4e2d\u5fc3", "pty": "0702"}}, {"type": "Feature", "geometry": {"type": "Point", "coordinates": [121.56232655272068, 31.121963081481262]}, "properties": {"name": "\u524d\u53f0(\u5982\u5bb6\u5feb\u6377\u9152\u5e97)", "biz": "070201 \u751f\u6d3b\u670d\u52a1;\u4fe1\u606f\u54a8\u8be2\u4e2d\u5fc3;\u670d\u52a1\u4e2d\u5fc3", "pty": "0702"}}, {"type": "Feature", "geometry": {"type": "Point", "coordinates": [121.80462022867373, 31.152438647444136]}, "properties": {"name": "\u673a\u573a\u9152\u5e97\u63a5\u5f85\u670d\u52a1\u4e2d\u5fc3", "biz": "070201 \u751f\u6d3b\u670d\u52a1;\u4fe1\u606f\u54a8\u8be2\u4e2d\u5fc3;\u670d\u52a1\u4e2d\u5fc3", "pty": "0702"}}, {"type": "Feature", "geometry": {"type": "Point", "coordinates": [121.53024905167435, 31.181279987039268]}, "properties": {"name": "\u8d35\u5bbe\u670d\u52a1\u4e2d\u5fc3(\u5df4\u9ece\u6625\u5929\u6210\u5c71\u5e97)", "biz": "070201 \u751f\u6d3b\u670d\u52a1;\u4fe1\u606f\u54a8\u8be2\u4e2d\u5fc3;\u670d\u52a1\u4e2d\u5fc3", "pty": "0702"}}, {"type": "Feature", "geometry": {"type": "Point", "coordinates": [121.79840706317316, 31.148560194733925]}, "properties": {"name": "\u79bb\u5883\u9000\u7a0e\u7a97\u53e3(\u4e0a\u6d77\u6d66\u4e1c\u56fd\u9645\u673a\u573a)", "biz": "070201 \u751f\u6d3b\u670d\u52a1;\u4fe1\u606f\u54a8\u8be2\u4e2d\u5fc3;\u670d\u52a1\u4e2d\u5fc3", "pty": "0702"}}, {"type": "Feature", "geometry": {"type": "Point", "coordinates": [121.80449283063182, 31.153560835665004]}, "properties": {"name": "\u4e2d\u56fd\u56fd\u9645\u822a\u7a7a\u51e4\u51f0\u77e5\u97f3\u8d35\u5bbe\u4f1a\u5458\u670d\u52a1", "biz": "070201 \u751f\u6d3b\u670d\u52a1;\u4fe1\u606f\u54a8\u8be2\u4e2d\u5fc3;\u670d\u52a1\u4e2d\u5fc3", "pty": "0702"}}, {"type": "Feature", "geometry": {"type": "Point", "coordinates": [121.51587364189217, 31.210396984649073]}, "properties": {"name": "\u987e\u5ba2\u670d\u52a1\u4e2d\u5fc3\u751f\u6d3b\u9986(\u5df4\u9ece\u6625\u5929\u767e\u8d27)", "biz": "070201 \u751f\u6d3b\u670d\u52a1;\u4fe1\u606f\u54a8\u8be2\u4e2d\u5fc3;\u670d\u52a1\u4e2d\u5fc3", "pty": "0702"}}, {"type": "Feature", "geometry": {"type": "Point", "coordinates": [121.79863123430653, 31.152604427955072]}, "properties": {"name": "\u4e2d\u56fd\u4e1c\u65b9\u822a\u7a7a&\u4e0a\u6d77\u822a\u7a7a\u516c\u53f8\u56fd\u5185\u503c\u73ed\u7ecf\u7406", "biz": "070201 \u751f\u6d3b\u670d\u52a1;\u4fe1\u606f\u54a8\u8be2\u4e2d\u5fc3;\u670d\u52a1\u4e2d\u5fc3", "pty": "0702"}}, {"type": "Feature", "geometry": {"type": "Point", "coordinates": [121.79925480441953, 31.15082739066074]}, "properties": {"name": "\u4e2d\u56fd\u4e1c\u65b9\u822a\u7a7a&\u4e0a\u6d77\u822a\u7a7a\u516c\u53f8\u56fd\u9645\u503c\u73ed\u7ecf\u7406", "biz": "070201 \u751f\u6d3b\u670d\u52a1;\u4fe1\u606f\u54a8\u8be2\u4e2d\u5fc3;\u670d\u52a1\u4e2d\u5fc3", "pty": "0702"}}, {"type": "Feature", "geometry": {"type": "Point", "coordinates": [121.79878553518802, 31.15320436563812]}, "properties": {"name": "\u5927\u4f17\u4ea4\u901a(\u96c6\u56e2)\u670d\u52a1\u4e2d\u5fc3(\u4e0a\u6d77\u6d66\u4e1c\u56fd\u9645\u673a\u573a)", "biz": "070201 \u751f\u6d3b\u670d\u52a1;\u4fe1\u606f\u54a8\u8be2\u4e2d\u5fc3;\u670d\u52a1\u4e2d\u5fc3", "pty": "0702"}}, {"type": "Feature", "geometry": {"type": "Point", "coordinates": [121.80440871246324, 31.15256921115388]}, "properties": {"name": "\u4e0a\u6d77\u5916\u6ee9\u60a6\u6995\u5e84", "biz": "070202 \u751f\u6d3b\u670d\u52a1;\u4fe1\u606f\u54a8\u8be2\u4e2d\u5fc3;\u65c5\u9986\u95ee\u8baf", "pty": "0702"}}, {"type": "Feature", "geometry": {"type": "Point", "coordinates": [121.79884383057353, 31.151257486591035]}, "properties": {"name": "\u6d66\u4e1c\u673a\u573a\u534e\u7f8e\u8fbe\u5927\u9152\u5e97", "biz": "070202 \u751f\u6d3b\u670d\u52a1;\u4fe1\u606f\u54a8\u8be2\u4e2d\u5fc3;\u65c5\u9986\u95ee\u8baf", "pty": "0702"}}, {"type": "Feature", "geometry": {"type": "Point", "coordinates": [121.79854708779729, 31.152069571594293]}, "properties": {"name": "\u4e0a\u6d77\u666f\u60a6\u9152\u5e97", "biz": "070202 \u751f\u6d3b\u670d\u52a1;\u4fe1\u606f\u54a8\u8be2\u4e2d\u5fc3;\u65c5\u9986\u95ee\u8baf", "pty": "0702"}}, {"type": "Feature", "geometry": {"type": "Point", "coordinates": [121.80441573105135, 31.152547234907]}, "properties": {"name": "\u6d66\u4e1c\u673a\u573a\u534e\u7f8e\u8fbe\u5927\u9152\u5e97", "biz": "070202 \u751f\u6d3b\u670d\u52a1;\u4fe1\u606f\u54a8\u8be2\u4e2d\u5fc3;\u65c5\u9986\u95ee\u8baf", "pty": "0702"}}, {"type": "Feature", "geometry": {"type": "Point", "coordinates": [121.804430770289, 31.152507282051182]}, "properties": {"name": "\u4e0a\u6d77\u7ea2\u697c\u56fd\u9645\u5927\u9152\u5e97", "biz": "070202 \u751f\u6d3b\u670d\u52a1;\u4fe1\u606f\u54a8\u8be2\u4e2d\u5fc3;\u65c5\u9986\u95ee\u8baf", "pty": "0702"}}, {"type": "Feature", "geometry": {"type": "Point", "coordinates": [121.79853405511132, 31.152106530775136]}, "properties": {"name": "\u4e0a\u6d77\u661f\u4e4b\u60a6\u6d66\u4e1c\u673a\u573a\u9152\u5e97", "biz": "070202 \u751f\u6d3b\u670d\u52a1;\u4fe1\u606f\u54a8\u8be2\u4e2d\u5fc3;\u65c5\u9986\u95ee\u8baf", "pty": "0702"}}, {"type": "Feature", "geometry": {"type": "Point", "coordinates": [121.79854107263374, 31.152087552268164]}, "properties": {"name": "\u9526\u6c5f\u4e4b\u661f(\u4e0a\u6d77\u6d66\u4e1c\u56fd\u9645\u673a\u573a)", "biz": "070202 \u751f\u6d3b\u670d\u52a1;\u4fe1\u606f\u54a8\u8be2\u4e2d\u5fc3;\u65c5\u9986\u95ee\u8baf", "pty": "0702"}}, {"type": "Feature", "geometry": {"type": "Point", "coordinates": [121.80439267042102, 31.152614159646156]}, "properties": {"name": "\u9526\u6c5f\u9152\u5e97(\u4e0a\u6d77\u6d66\u4e1c\u56fd\u9645\u673a\u573a)", "biz": "070202 \u751f\u6d3b\u670d\u52a1;\u4fe1\u606f\u54a8\u8be2\u4e2d\u5fc3;\u65c5\u9986\u95ee\u8baf", "pty": "0702"}}, {"type": "Feature", "geometry": {"type": "Point", "coordinates": [121.80444480688651, 31.152470325880962]}, "properties": {"name": "THE LANGHAM(\u4e0a\u6d77\u6d66\u4e1c\u56fd\u9645\u673a\u573a)", "biz": "070202 \u751f\u6d3b\u670d\u52a1;\u4fe1\u606f\u54a8\u8be2\u4e2d\u5fc3;\u65c5\u9986\u95ee\u8baf", "pty": "0702"}}, {"type": "Feature", "geometry": {"type": "Point", "coordinates": [121.79883681300463, 31.151276465047925]}, "properties": {"name": "7\u5929\u8fde\u9501\u9152\u5e97(\u4e0a\u6d77\u6d66\u4e1c\u673a\u573a\u5ddd\u6c99\u5e97)", "biz": "070202 \u751f\u6d3b\u670d\u52a1;\u4fe1\u606f\u54a8\u8be2\u4e2d\u5fc3;\u65c5\u9986\u95ee\u8baf", "pty": "0702"}}, {"type": "Feature", "geometry": {"type": "Point", "coordinates": [121.80408285418281, 31.153544133364235]}, "properties": {"name": "\u6d77\u666f\u6d77\u6e2f\u5927\u9152\u5e97(\u4e0a\u6d77\u6d66\u4e1c\u56fd\u9645\u673a\u573a)", "biz": "070202 \u751f\u6d3b\u670d\u52a1;\u4fe1\u606f\u54a8\u8be2\u4e2d\u5fc3;\u65c5\u9986\u95ee\u8baf", "pty": "0702"}}, {"type": "Feature", "geometry": {"type": "Point", "coordinates": [121.4717944113398, 30.916406640889758]}, "properties": {"name": "\u4f1a\u5458\u670d\u52a1\u4e2d\u5fc3(\u535c\u8702\u83b2\u82b1)", "biz": "070201 \u751f\u6d3b\u670d\u52a1;\u4fe1\u606f\u54a8\u8be2\u4e2d\u5fc3;\u670d\u52a1\u4e2d\u5fc3", "pty": "0702"}}, {"type": "Feature", "geometry": {"type": "Point", "coordinates": [121.44202457120578, 31.326033491891632]}, "properties": {"name": "\u6c49\u5821\u738b(\u4e07\u8fbe\u5e7f\u573a)", "biz": "050300|070300 \u9910\u996e\u670d\u52a1;\u5feb\u9910\u5385;\u5feb\u9910\u5385|\u751f\u6d3b\u670d\u52a1;\u552e\u7968\u5904;\u552e\u7968\u5904", "pty": "0503"}}, {"type": "Feature", "geometry": {"type": "Point", "coordinates": [121.44172295166307, 31.325261201364203]}, "properties": {"name": "\u4e1c\u5317\u98ce(\u4e07\u8fbe\u5e7f\u573a)", "biz": "050113|070300 \u9910\u996e\u670d\u52a1;\u4e2d\u9910\u5385;\u4e1c\u5317\u83dc|\u751f\u6d3b\u670d\u52a1;\u552e\u7968\u5904;\u552e\u7968\u5904", "pty": "0501"}}, {"type": "Feature", "geometry": {"type": "Point", "coordinates": [121.47733932285344, 31.231163611716664]}, "properties": {"name": "\u4e2d\u56fd\u7968\u52a1\u5728\u7ebf", "biz": "070301 \u751f\u6d3b\u670d\u52a1;\u552e\u7968\u5904;\u98de\u673a\u7968\u4ee3\u552e\u70b9", "pty": "0703"}}, {"type": "Feature", "geometry": {"type": "Point", "coordinates": [121.46855870079585, 31.211755289550798]}, "properties": {"name": "\u706b\u8f66\u7968\u98de\u673a\u7968\u4ee3\u552e\u5904(\u91cd\u5e86\u5357\u8def)", "biz": "070302|070301 \u751f\u6d3b\u670d\u52a1;\u552e\u7968\u5904;\u706b\u8f66\u7968\u4ee3\u552e\u70b9|\u751f\u6d3b\u670d\u52a1;\u552e\u7968\u5904;\u98de\u673a\u7968\u4ee3\u552e\u70b9", "pty": "0703"}}, {"type": "Feature", "geometry": {"type": "Point", "coordinates": [121.46855870079585, 31.211755289550798]}, "properties": {"name": "\u706b\u8f66\u7968\u98de\u673a\u7968\u4ee3\u552e\u5904(\u91cd\u5e86\u5357\u8def)", "biz": "070302|070301 \u751f\u6d3b\u670d\u52a1;\u552e\u7968\u5904;\u706b\u8f66\u7968\u4ee3\u552e\u70b9|\u751f\u6d3b\u670d\u52a1;\u552e\u7968\u5904;\u98de\u673a\u7968\u4ee3\u552e\u70b9", "pty": "0703"}}, {"type": "Feature", "geometry": {"type": "Point", "coordinates": [121.46723101682988, 31.23993953209779]}, "properties": {"name": "\u822a\u7a7a\u673a\u7968\u4ee3\u552e\u70b9(\u65b0\u95f8\u8def)", "biz": "070301 \u751f\u6d3b\u670d\u52a1;\u552e\u7968\u5904;\u98de\u673a\u7968\u4ee3\u552e\u70b9", "pty": "0703"}}, {"type": "Feature", "geometry": {"type": "Point", "coordinates": [121.47098258975903, 31.235345817340086]}, "properties": {"name": "\u6625\u79cb\u65c5\u6e38", "biz": "070301|070100 \u751f\u6d3b\u670d\u52a1;\u552e\u7968\u5904;\u98de\u673a\u7968\u4ee3\u552e\u70b9|\u751f\u6d3b\u670d\u52a1;\u65c5\u884c\u793e;\u65c5\u884c\u793e", "pty": "0703"}}, {"type": "Feature", "geometry": {"type": "Point", "coordinates": [121.47946055101403, 31.24381392933118]}, "properties": {"name": "\u4e2d\u56fd\u4e1c\u65b9\u822a\u7a7a(\u5929\u6d25\u8def\u5e97)", "biz": "070301 \u751f\u6d3b\u670d\u52a1;\u552e\u7968\u5904;\u98de\u673a\u7968\u4ee3\u552e\u70b9", "pty": "0703"}}, {"type": "Feature", "geometry": {"type": "Point", "coordinates": [121.46727587883845, 31.231560497943295]}, "properties": {"name": "\u4e0a\u6d77\u822a\u7a7a\u516c\u53f8\u4e1c\u65b9\u7968\u52a1", "biz": "070301 \u751f\u6d3b\u670d\u52a1;\u552e\u7968\u5904;\u98de\u673a\u7968\u4ee3\u552e\u70b9", "pty": "0703"}}, {"type": "Feature", "geometry": {"type": "Point", "coordinates": [121.47012043876578, 31.23909173668201]}, "properties": {"name": "\u817e\u98de\u673a\u7968\u4ee3\u7406", "biz": "070301 \u751f\u6d3b\u670d\u52a1;\u552e\u7968\u5904;\u98de\u673a\u7968\u4ee3\u552e\u70b9", "pty": "0703"}}, {"type": "Feature", "geometry": {"type": "Point", "coordinates": [121.46631618174172, 31.22735989260648]}, "properties": {"name": "\u4e2d\u56fd\u4e1c\u65b9\u822a\u7a7a(\u5ef6\u5b89\u4e1c\u8def\u552e\u7968\u5904)", "biz": "070301 \u751f\u6d3b\u670d\u52a1;\u552e\u7968\u5904;\u98de\u673a\u7968\u4ee3\u552e\u70b9", "pty": "0703"}}, {"type": "Feature", "geometry": {"type": "Point", "coordinates": [121.46260402218277, 31.234124069454634]}, "properties": {"name": "\u5b8f\u6797\u822a\u7a7a\u7968\u52a1\u4e2d\u5fc3", "biz": "070301 \u751f\u6d3b\u670d\u52a1;\u552e\u7968\u5904;\u98de\u673a\u7968\u4ee3\u552e\u70b9", "pty": "0703"}}, {"type": "Feature", "geometry": {"type": "Point", "coordinates": [121.47587993255772, 31.235959239495838]}, "properties": {"name": "\u90ae\u653f\u7968\u52a1\u822a\u7a7a\u673a\u7968\u4ee3\u552e\u70b9(\u6e56\u5317\u8def)", "biz": "070301 \u751f\u6d3b\u670d\u52a1;\u552e\u7968\u5904;\u98de\u673a\u7968\u4ee3\u552e\u70b9", "pty": "0703"}}, {"type": "Feature", "geometry": {"type": "Point", "coordinates": [121.47039231806205, 31.23922342128698]}, "properties": {"name": "\u4e0a\u6d77\u82b1\u6811\u673a\u7968\u4ee3\u7406\u6709\u9650\u516c\u53f8", "biz": "070301 \u751f\u6d3b\u670d\u52a1;\u552e\u7968\u5904;\u98de\u673a\u7968\u4ee3\u552e\u70b9", "pty": "0703"}}, {"type": "Feature", "geometry": {"type": "Point", "coordinates": [121.47703212458747, 31.23287993939763]}, "properties": {"name": "\u5916\u822a\u670d\u52a1\u516c\u53f8(\u6d77\u6d0b\u5927\u53a6\u673a\u7968\u9500\u552e\u5904)", "biz": "070301 \u751f\u6d3b\u670d\u52a1;\u552e\u7968\u5904;\u98de\u673a\u7968\u4ee3\u552e\u70b9", "pty": "0703"}}, {"type": "Feature", "geometry": {"type": "Point", "coordinates": [121.45615902082257, 31.221649920089188]}, "properties": {"name": "\u4e0a\u6d77\u5916\u822a\u670d\u52a1\u516c\u53f8(\u9526\u6c5f\u7968\u52a1\u5904)", "biz": "070301 \u751f\u6d3b\u670d\u52a1;\u552e\u7968\u5904;\u98de\u673a\u7968\u4ee3\u552e\u70b9", "pty": "0703"}}, {"type": "Feature", "geometry": {"type": "Point", "coordinates": [121.47766047005848, 31.23062578100525]}, "properties": {"name": "\u4e0a\u6d77\u65b0\u5929\u5730\u822a\u7a7a\u7968\u52a1\u516c\u53f8", "biz": "070301 \u751f\u6d3b\u670d\u52a1;\u552e\u7968\u5904;\u98de\u673a\u7968\u4ee3\u552e\u70b9", "pty": "0703"}}, {"type": "Feature", "geometry": {"type": "Point", "coordinates": [121.48520199109701, 31.21657736216527]}, "properties": {"name": "\u706b\u8f66\u7968\u4ee3\u552e\u5904(\u4e2d\u534e\u8def)", "biz": "070302 \u751f\u6d3b\u670d\u52a1;\u552e\u7968\u5904;\u706b\u8f66\u7968\u4ee3\u552e\u70b9", "pty": "0703"}}, {"type": "Feature", "geometry": {"type": "Point", "coordinates": [121.47422724128437, 31.237140026784097]}, "properties": {"name": "\u4e0a\u6d77\u94c1\u8def\u5c40\u706b\u8f66\u7968\u6307\u5b9a\u4ee3\u552e\u5904(\u6d59\u6c5f\u4e2d\u8def)", "biz": "070302 \u751f\u6d3b\u670d\u52a1;\u552e\u7968\u5904;\u706b\u8f66\u7968\u4ee3\u552e\u70b9", "pty": "0703"}}, {"type": "Feature", "geometry": {"type": "Point", "coordinates": [121.49296485936142, 31.226819654339316]}, "properties": {"name": "\u706b\u8f66\u7968\u552e\u7968\u5904(\u4e2d\u534e\u8def)", "biz": "070302 \u751f\u6d3b\u670d\u52a1;\u552e\u7968\u5904;\u706b\u8f66\u7968\u4ee3\u552e\u70b9", "pty": "0703"}}, {"type": "Feature", "geometry": {"type": "Point", "coordinates": [121.47776741163563, 31.23561078750258]}, "properties": {"name": "\u798f\u5dde\u8def\u5ba2\u7968\u4ee3\u552e\u70b9", "biz": "070302 \u751f\u6d3b\u670d\u52a1;\u552e\u7968\u5904;\u706b\u8f66\u7968\u4ee3\u552e\u70b9", "pty": "0703"}}, {"type": "Feature", "geometry": {"type": "Point", "coordinates": [121.49673588687175, 31.209704082734792]}, "properties": {"name": "\u4e0a\u6d77\u5357\u6d66\u5927\u6865\u957f\u9014\u65c5\u6e38\u5ba2\u8fd0\u7ad9\u552e\u7968\u5904", "biz": "070303 \u751f\u6d3b\u670d\u52a1;\u552e\u7968\u5904;\u957f\u9014\u6c7d\u8f66\u7968\u4ee3\u552e\u70b9", "pty": "0703"}}, {"type": "Feature", "geometry": {"type": "Point", "coordinates": [121.48599266763783, 31.24157307604097]}, "properties": {"name": "\u6d66\u6c5f\u6e38\u8239\u552e\u7968\u5904(\u4e2d\u5c71\u4e1c\u4e00\u8def)", "biz": "070304 \u751f\u6d3b\u670d\u52a1;\u552e\u7968\u5904;\u8239\u7968\u4ee3\u552e\u70b9", "pty": "0703"}}, {"type": "Feature", "geometry": {"type": "Point", "coordinates": [121.48678317569178, 31.233353178868246]}, "properties": {"name": "\u6d77\u661f\u6e38\u8239", "biz": "070304 \u751f\u6d3b\u670d\u52a1;\u552e\u7968\u5904;\u8239\u7968\u4ee3\u552e\u70b9", "pty": "0703"}}, {"type": "Feature", "geometry": {"type": "Point", "coordinates": [121.48981401368997, 31.233130301467405]}, "properties": {"name": "\u6d66\u6c5f\u6e38\u8239\u552e\u7968\u5904(\u4e2d\u5c71\u4e1c\u4e8c\u8def)", "biz": "070304 \u751f\u6d3b\u670d\u52a1;\u552e\u7968\u5904;\u8239\u7968\u4ee3\u552e\u70b9", "pty": "0703"}}, {"type": "Feature", "geometry": {"type": "Point", "coordinates": [121.49968924491674, 31.22480874369381]}, "properties": {"name": "\u4e0a\u6d77\u8f6e\u6e21(\u590d\u5174\u4e1c\u8def\u6e21\u53e3\u552e\u7968\u5904)", "biz": "070304 \u751f\u6d3b\u670d\u52a1;\u552e\u7968\u5904;\u8239\u7968\u4ee3\u552e\u70b9", "pty": "0703"}}, {"type": "Feature", "geometry": {"type": "Point", "coordinates": [121.48879127008317, 31.23412779195129]}, "properties": {"name": "\u9ec4\u6d66\u6c5f\u6e38\u89c8\u7968\u52a1\u9500\u552e\u4ee3\u7406\u70b9\u552e\u7968\u5904", "biz": "070304 \u751f\u6d3b\u670d\u52a1;\u552e\u7968\u5904;\u8239\u7968\u4ee3\u552e\u70b9", "pty": "0703"}},