{"type": "FeatureCollection", "features": [{"type": "Feature", "geometry": {"type": "Point", "coordinates": [121.42821379436825, 31.207689514895872]}, "properties": {"name": "\u534e\u5c71\u7eff\u5730-\u7bee\u7403\u573a", "biz": "080104 \u4f53\u80b2\u4f11\u95f2\u670d\u52a1;\u8fd0\u52a8\u573a\u9986;\u7bee\u7403\u573a\u9986", "pty": "0801"}}, {"type": "Feature", "geometry": {"type": "Point", "coordinates": [121.35769278159614, 31.218391407703265]}, "properties": {"name": "\u65b0\u6cfe\u516c\u56ed-\u7bee\u7403\u573a", "biz": "080104 \u4f53\u80b2\u4f11\u95f2\u670d\u52a1;\u8fd0\u52a8\u573a\u9986;\u7bee\u7403\u573a\u9986", "pty": "0801"}}, {"type": "Feature", "geometry": {"type": "Point", "coordinates": [121.39568356174968, 31.221642204310776]}, "properties": {"name": "\u8679\u6865\u6cb3\u6ee8\u516c\u56ed\u7bee\u7403\u573a", "biz": "080104 \u4f53\u80b2\u4f11\u95f2\u670d\u52a1;\u8fd0\u52a8\u573a\u9986;\u7bee\u7403\u573a\u9986", "pty": "0801"}}, {"type": "Feature", "geometry": {"type": "Point", "coordinates": [121.40906209385192, 31.209830600045823]}, "properties": {"name": "\u5ef6\u5929\u7eff\u5730-\u7bee\u7403\u573a", "biz": "080104 \u4f53\u80b2\u4f11\u95f2\u670d\u52a1;\u8fd0\u52a8\u573a\u9986;\u7bee\u7403\u573a\u9986", "pty": "0801"}}, {"type": "Feature", "geometry": {"type": "Point", "coordinates": [121.41220466487967, 31.22855154169124]}, "properties": {"name": "\u534e\u4e1c\u653f\u6cd5\u5927\u5b66-\u7bee\u7403\u573a", "biz": "080104 \u4f53\u80b2\u4f11\u95f2\u670d\u52a1;\u8fd0\u52a8\u573a\u9986;\u7bee\u7403\u573a\u9986", "pty": "0801"}}, {"type": "Feature", "geometry": {"type": "Point", "coordinates": [121.4183196957144, 31.202811615053154]}, "properties": {"name": "\u5c0f\u98de\u4eba\u7bee\u7403\u4ff1\u4e50\u90e8(\u5b89\u987a\u8def\u5e97)", "biz": "080104 \u4f53\u80b2\u4f11\u95f2\u670d\u52a1;\u8fd0\u52a8\u573a\u9986;\u7bee\u7403\u573a\u9986", "pty": "0801"}}, {"type": "Feature", "geometry": {"type": "Point", "coordinates": [121.41051332236998, 31.206642922426393]}, "properties": {"name": "\u4e1c\u534e\u5927\u5b66\u5ef6\u5b89\u8def\u6821\u533a\u7bee\u7403\u573a", "biz": "080104 \u4f53\u80b2\u4f11\u95f2\u670d\u52a1;\u8fd0\u52a8\u573a\u9986;\u7bee\u7403\u573a\u9986", "pty": "0801"}}, {"type": "Feature", "geometry": {"type": "Point", "coordinates": [121.39732823606865, 31.213031210869918]}, "properties": {"name": "\u5ba4\u5185\u7bee\u7403\u573a", "biz": "080104 \u4f53\u80b2\u4f11\u95f2\u670d\u52a1;\u8fd0\u52a8\u573a\u9986;\u7bee\u7403\u573a\u9986", "pty": "0801"}}, {"type": "Feature", "geometry": {"type": "Point", "coordinates": [121.41392786781647, 31.219685886981928]}, "properties": {"name": "\u674e\u79cb\u5e73\u7bee\u7403\u4ff1\u4e50\u90e8(\u957f\u5b81\u5146\u4e30\u5e7f\u573a)", "biz": "080104 \u4f53\u80b2\u4f11\u95f2\u670d\u52a1;\u8fd0\u52a8\u573a\u9986;\u7bee\u7403\u573a\u9986", "pty": "0801"}}, {"type": "Feature", "geometry": {"type": "Point", "coordinates": [121.34293084437866, 31.187726444926554]}, "properties": {"name": "\u673a\u573a\u7bee\u7403\u9986", "biz": "080104 \u4f53\u80b2\u4f11\u95f2\u670d\u52a1;\u8fd0\u52a8\u573a\u9986;\u7bee\u7403\u573a\u9986", "pty": "0801"}}, {"type": "Feature", "geometry": {"type": "Point", "coordinates": [121.39559058811535, 31.22143730950911]}, "properties": {"name": "\u957f\u5b81\u533a\u5468\u5bb6\u6865\u8857\u9053\u7bee\u7403\u4ff1\u4e50\u90e8", "biz": "080104 \u4f53\u80b2\u4f11\u95f2\u670d\u52a1;\u8fd0\u52a8\u573a\u9986;\u7bee\u7403\u573a\u9986", "pty": "0801"}}, {"type": "Feature", "geometry": {"type": "Point", "coordinates": [121.42018643368648, 31.207686044616636]}, "properties": {"name": "\u4e0a\u6d77\u4ea4\u901a\u5927\u5b66\u6cd5\u534e\u9547\u8def\u6821\u533a\u7bee\u7403\u573a", "biz": "080104 \u4f53\u80b2\u4f11\u95f2\u670d\u52a1;\u8fd0\u52a8\u573a\u9986;\u7bee\u7403\u573a\u9986", "pty": "0801"}}, {"type": "Feature", "geometry": {"type": "Point", "coordinates": [121.44082905343586, 31.28940039547045]}, "properties": {"name": "\u6c49\u68ee\u7bee\u7403\u9986", "biz": "080104 \u4f53\u80b2\u4f11\u95f2\u670d\u52a1;\u8fd0\u52a8\u573a\u9986;\u7bee\u7403\u573a\u9986", "pty": "0801"}}, {"type": "Feature", "geometry": {"type": "Point", "coordinates": [121.46166063711873, 31.32135324642003]}, "properties": {"name": "\u6d1b\u514b\u516c\u56ed(\u4fdd\u5fb7\u5e97)", "biz": "080104 \u4f53\u80b2\u4f11\u95f2\u670d\u52a1;\u8fd0\u52a8\u573a\u9986;\u7bee\u7403\u573a\u9986", "pty": "0801"}}, {"type": "Feature", "geometry": {"type": "Point", "coordinates": [121.44715019998871, 31.229497035346586]}, "properties": {"name": "\u8857\u821e\u98ce\u96f7\u7bee\u7403\u516c\u56ed", "biz": "080104 \u4f53\u80b2\u4f11\u95f2\u670d\u52a1;\u8fd0\u52a8\u573a\u9986;\u7bee\u7403\u573a\u9986", "pty": "0801"}}, {"type": "Feature", "geometry": {"type": "Point", "coordinates": [121.4653736962768, 31.256577162477438]}, "properties": {"name": "\u4e2d\u5174\u7eff\u5730\u7bee\u7403\u573a", "biz": "080104 \u4f53\u80b2\u4f11\u95f2\u670d\u52a1;\u8fd0\u52a8\u573a\u9986;\u7bee\u7403\u573a\u9986", "pty": "0801"}}, {"type": "Feature", "geometry": {"type": "Point", "coordinates": [121.46606803304968, 31.2665346700132]}, "properties": {"name": "\u5448\u5eb7\u7bee\u7403\u4ff1\u4e50\u90e8", "biz": "080104 \u4f53\u80b2\u4f11\u95f2\u670d\u52a1;\u8fd0\u52a8\u573a\u9986;\u7bee\u7403\u573a\u9986", "pty": "0801"}}, {"type": "Feature", "geometry": {"type": "Point", "coordinates": [121.45359385992766, 31.267689162475353]}, "properties": {"name": "\u4e0a\u6d77\u5e02\u5546\u4e1a\u5b66\u6821-\u7bee\u7403\u573a", "biz": "080104 \u4f53\u80b2\u4f11\u95f2\u670d\u52a1;\u8fd0\u52a8\u573a\u9986;\u7bee\u7403\u573a\u9986", "pty": "0801"}}, {"type": "Feature", "geometry": {"type": "Point", "coordinates": [121.45420563198627, 31.289953295280878]}, "properties": {"name": "\u5e73\u578b\u5173\u8def\u516c\u5171\u8fd0\u52a8\u573a", "biz": "080104 \u4f53\u80b2\u4f11\u95f2\u670d\u52a1;\u8fd0\u52a8\u573a\u9986;\u7bee\u7403\u573a\u9986", "pty": "0801"}}, {"type": "Feature", "geometry": {"type": "Point", "coordinates": [121.46709987833282, 31.259978251861227]}, "properties": {"name": "\u82f1\u7c73\u7bee\u7403\u8bad\u7ec3\u57fa\u5730", "biz": "080104 \u4f53\u80b2\u4f11\u95f2\u670d\u52a1;\u8fd0\u52a8\u573a\u9986;\u7bee\u7403\u573a\u9986", "pty": "0801"}}, {"type": "Feature", "geometry": {"type": "Point", "coordinates": [121.42162108183692, 31.289694940584386]}, "properties": {"name": "\u9752\u5c11\u5e74\u7bee\u7403\u8bad\u7ec3\u8425", "biz": "080104 \u4f53\u80b2\u4f11\u95f2\u670d\u52a1;\u8fd0\u52a8\u573a\u9986;\u7bee\u7403\u573a\u9986", "pty": "0801"}}, {"type": "Feature", "geometry": {"type": "Point", "coordinates": [121.43100164678201, 31.298185456574522]}, "properties": {"name": "\u5e02\u5317\u9ad8\u65b0\u6280\u672f\u670d\u52a1\u56ed\u533a\u7bee\u7403\u573a", "biz": "080104 \u4f53\u80b2\u4f11\u95f2\u670d\u52a1;\u8fd0\u52a8\u573a\u9986;\u7bee\u7403\u573a\u9986", "pty": "0801"}}, {"type": "Feature", "geometry": {"type": "Point", "coordinates": [121.440701795723, 31.289106278165047]}, "properties": {"name": "\u4e0a\u6d77\u674e\u79cb\u5e73\u7bee\u7403\u4ff1\u4e50\u90e8(\u6c49\u68ee\u7bee\u7403\u9986)", "biz": "080104 \u4f53\u80b2\u4f11\u95f2\u670d\u52a1;\u8fd0\u52a8\u573a\u9986;\u7bee\u7403\u573a\u9986", "pty": "0801"}}, {"type": "Feature", "geometry": {"type": "Point", "coordinates": [121.45518969848344, 31.263156835239364]}, "properties": {"name": "\u540c\u6d4e\u5927\u5b66\u6caa\u5317\u6821\u533a\u7bee\u7403\u573a", "biz": "080104 \u4f53\u80b2\u4f11\u95f2\u670d\u52a1;\u8fd0\u52a8\u573a\u9986;\u7bee\u7403\u573a\u9986", "pty": "0801"}}, {"type": "Feature", "geometry": {"type": "Point", "coordinates": [121.40689590222223, 31.232566876459227]}, "properties": {"name": "AJ Club\u5ba4\u5185\u7bee\u7403\u516c\u56ed", "biz": "080104 \u4f53\u80b2\u4f11\u95f2\u670d\u52a1;\u8fd0\u52a8\u573a\u9986;\u7bee\u7403\u573a\u9986", "pty": "0801"}}, {"type": "Feature", "geometry": {"type": "Point", "coordinates": [121.42581640101108, 31.27272284173498]}, "properties": {"name": "\u5e73\u5229\u8def\u7b2c\u4e00\u5c0f\u5b66-\u7bee\u7403\u573a", "biz": "080104 \u4f53\u80b2\u4f11\u95f2\u670d\u52a1;\u8fd0\u52a8\u573a\u9986;\u7bee\u7403\u573a\u9986", "pty": "0801"}}, {"type": "Feature", "geometry": {"type": "Point", "coordinates": [121.3983076751099, 31.24263841316002]}, "properties": {"name": "\u66f9\u6768\u4e8c\u4e2d\u7bee\u7403\u573a", "biz": "080104 \u4f53\u80b2\u4f11\u95f2\u670d\u52a1;\u8fd0\u52a8\u573a\u9986;\u7bee\u7403\u573a\u9986", "pty": "0801"}}, {"type": "Feature", "geometry": {"type": "Point", "coordinates": [121.38473403392763, 31.239193596862687]}, "properties": {"name": "\u7bee\u7403\u573a", "biz": "080104 \u4f53\u80b2\u4f11\u95f2\u670d\u52a1;\u8fd0\u52a8\u573a\u9986;\u7bee\u7403\u573a\u9986", "pty": "0801"}}, {"type": "Feature", "geometry": {"type": "Point", "coordinates": [121.3632253027596, 31.246374785153783]}, "properties": {"name": "\u5448\u5eb7\u9752\u5c11\u5e74\u7bee\u7403\u4ff1\u4e50\u90e8", "biz": "080104 \u4f53\u80b2\u4f11\u95f2\u670d\u52a1;\u8fd0\u52a8\u573a\u9986;\u7bee\u7403\u573a\u9986", "pty": "0801"}}, {"type": "Feature", "geometry": {"type": "Point", "coordinates": [121.41358125200176, 31.234789589185656]}, "properties": {"name": "\u62fc\u640f\u4f53\u80b2\u7bee\u7403\u4ff1\u4e50\u90e8(\u7eff\u5730\u5e97)", "biz": "080104 \u4f53\u80b2\u4f11\u95f2\u670d\u52a1;\u8fd0\u52a8\u573a\u9986;\u7bee\u7403\u573a\u9986", "pty": "0801"}}, {"type": "Feature", "geometry": {"type": "Point", "coordinates": [121.35032420621815, 31.288293956974083]}, "properties": {"name": "\u65b0\u6768\u4e2d\u5b66-\u7bee\u7403\u573a", "biz": "080104 \u4f53\u80b2\u4f11\u95f2\u670d\u52a1;\u8fd0\u52a8\u573a\u9986;\u7bee\u7403\u573a\u9986", "pty": "0801"}}, {"type": "Feature", "geometry": {"type": "Point", "coordinates": [121.42408111570772, 31.269957910803207]}, "properties": {"name": "\u5448\u5eb7\u4f53\u80b2\u7bee\u7403\u4ff1\u4e50\u90e8", "biz": "080104 \u4f53\u80b2\u4f11\u95f2\u670d\u52a1;\u8fd0\u52a8\u573a\u9986;\u7bee\u7403\u573a\u9986", "pty": "0801"}}, {"type": "Feature", "geometry": {"type": "Point", "coordinates": [121.41622948476281, 31.237383435730134]}, "properties": {"name": "ybdl\u9752\u5c11\u5e74\u7bee\u7403\u53d1\u5c55\u8054\u76df(\u666e\u9640\u4f53\u80b2\u9986\u6559\u5b66\u70b9)", "biz": "080104 \u4f53\u80b2\u4f11\u95f2\u670d\u52a1;\u8fd0\u52a8\u573a\u9986;\u7bee\u7403\u573a\u9986", "pty": "0801"}}, {"type": "Feature", "geometry": {"type": "Point", "coordinates": [121.4030335256966, 31.230703496072085]}, "properties": {"name": "\u534e\u4e1c\u5e08\u8303\u5927\u5b66\u4e2d\u5c71\u5317\u8def\u6821\u533a\u7bee\u7403\u573a", "biz": "080104 \u4f53\u80b2\u4f11\u95f2\u670d\u52a1;\u8fd0\u52a8\u573a\u9986;\u7bee\u7403\u573a\u9986", "pty": "0801"}}, {"type": "Feature", "geometry": {"type": "Point", "coordinates": [121.39049047733945, 31.224348977260036]}, "properties": {"name": "\u8d85\u76db\u5546\u573a\u5ba4\u5185\u7bee\u7403\u4ff1\u4e50\u90e8(\u957f\u98ce\u5927\u60a6\u57ce\u5e97)", "biz": "080104 \u4f53\u80b2\u4f11\u95f2\u670d\u52a1;\u8fd0\u52a8\u573a\u9986;\u7bee\u7403\u573a\u9986", "pty": "0801"}}, {"type": "Feature", "geometry": {"type": "Point", "coordinates": [121.3994307438149, 31.231374626890172]}, "properties": {"name": "\u534e\u4e1c\u5e08\u8303\u5927\u5b66\u4e2d\u5c71\u5317\u8def\u6821\u533a\u7bee\u7403\u573a", "biz": "080104 \u4f53\u80b2\u4f11\u95f2\u670d\u52a1;\u8fd0\u52a8\u573a\u9986;\u7bee\u7403\u573a\u9986", "pty": "0801"}}, {"type": "Feature", "geometry": {"type": "Point", "coordinates": [121.3837045859191, 31.275015468186837]}, "properties": {"name": "\u540c\u6d4e\u5927\u5b66\u6caa\u897f\u6821\u533a\u7bee\u7403\u573a", "biz": "080104 \u4f53\u80b2\u4f11\u95f2\u670d\u52a1;\u8fd0\u52a8\u573a\u9986;\u7bee\u7403\u573a\u9986", "pty": "0801"}}, {"type": "Feature", "geometry": {"type": "Point", "coordinates": [121.40372278264657, 31.24170662278772]}, "properties": {"name": "\u66f9\u6768\u516c\u56ed-\u7bee\u7403\u573a", "biz": "080104 \u4f53\u80b2\u4f11\u95f2\u670d\u52a1;\u8fd0\u52a8\u573a\u9986;\u7bee\u7403\u573a\u9986", "pty": "0801"}}, {"type": "Feature", "geometry": {"type": "Point", "coordinates": [121.36433764676293, 31.24595753236273]}, "properties": {"name": "\u5448\u5eb7\u9752\u5c11\u5e74\u7bee\u7403\u4ff1\u4e50\u90e8(\u5404\u5730\u533a\u5747\u6709\u7403\u9986)", "biz": "080104 \u4f53\u80b2\u4f11\u95f2\u670d\u52a1;\u8fd0\u52a8\u573a\u9986;\u7bee\u7403\u573a\u9986", "pty": "0801"}}, {"type": "Feature", "geometry": {"type": "Point", "coordinates": [121.4812368438013, 31.289321550102077]}, "properties": {"name": "\u7cbe\u6b66\u516c\u56ed-\u7bee\u7403\u573a", "biz": "080104 \u4f53\u80b2\u4f11\u95f2\u670d\u52a1;\u8fd0\u52a8\u573a\u9986;\u7bee\u7403\u573a\u9986", "pty": "0801"}}, {"type": "Feature", "geometry": {"type": "Point", "coordinates": [121.46834079763636, 31.272402244156833]}, "properties": {"name": "\u8fd0\u52a8loft\u521b\u610f\u57fa\u5730-\u7bee\u7403\u9986", "biz": "080104 \u4f53\u80b2\u4f11\u95f2\u670d\u52a1;\u8fd0\u52a8\u573a\u9986;\u7bee\u7403\u573a\u9986", "pty": "0801"}}, {"type": "Feature", "geometry": {"type": "Point", "coordinates": [121.47646823341047, 31.2558779598898]}, "properties": {"name": "\u56db\u5ddd\u5317\u8def\u8857\u9053\u516c\u5171\u8fd0\u52a8\u573a", "biz": "080104 \u4f53\u80b2\u4f11\u95f2\u670d\u52a1;\u8fd0\u52a8\u573a\u9986;\u7bee\u7403\u573a\u9986", "pty": "0801"}}, {"type": "Feature", "geometry": {"type": "Point", "coordinates": [121.49110982538954, 31.26649729871604]}, "properties": {"name": "\u5065\u8d1d\u7bee\u7403\u4ff1\u4e50\u90e8", "biz": "080104 \u4f53\u80b2\u4f11\u95f2\u670d\u52a1;\u8fd0\u52a8\u573a\u9986;\u7bee\u7403\u573a\u9986", "pty": "0801"}}, {"type": "Feature", "geometry": {"type": "Point", "coordinates": [121.4973711205775, 31.292994029127332]}, "properties": {"name": "\u590d\u65e6\u5927\u5b66\u5357\u533a\u7bee\u7403\u573a", "biz": "080104 \u4f53\u80b2\u4f11\u95f2\u670d\u52a1;\u8fd0\u52a8\u573a\u9986;\u7bee\u7403\u573a\u9986", "pty": "0801"}}, {"type": "Feature", "geometry": {"type": "Point", "coordinates": [121.47609446209559, 31.273389342154008]}, "properties": {"name": "\u6d1b\u514b\u7bee\u7403\u516c\u56ed", "biz": "080104 \u4f53\u80b2\u4f11\u95f2\u670d\u52a1;\u8fd0\u52a8\u573a\u9986;\u7bee\u7403\u573a\u9986", "pty": "0801"}}, {"type": "Feature", "geometry": {"type": "Point", "coordinates": [121.47366371606812, 31.291243096646806]}, "properties": {"name": "\u6c76\u6c34\u4e1c\u8def\u516c\u5171\u8fd0\u52a8\u573a", "biz": "080104 \u4f53\u80b2\u4f11\u95f2\u670d\u52a1;\u8fd0\u52a8\u573a\u9986;\u7bee\u7403\u573a\u9986", "pty": "0801"}}, {"type": "Feature", "geometry": {"type": "Point", "coordinates": [121.47327235311761, 31.29184175924066]}, "properties": {"name": "\u5e0c\u5730\u7bee\u7403\u573a", "biz": "080104 \u4f53\u80b2\u4f11\u95f2\u670d\u52a1;\u8fd0\u52a8\u573a\u9986;\u7bee\u7403\u573a\u9986", "pty": "0801"}}, {"type": "Feature", "geometry": {"type": "Point", "coordinates": [121.47329944955773, 31.29177486200964]}, "properties": {"name": "\u946b\u7a7a\u7bee\u7403\u4ff1\u4e50\u90e8", "biz": "080104 \u4f53\u80b2\u4f11\u95f2\u670d\u52a1;\u8fd0\u52a8\u573a\u9986;\u7bee\u7403\u573a\u9986", "pty": "0801"}}, {"type": "Feature", "geometry": {"type": "Point", "coordinates": [121.47581703462768, 31.255662202705402]}, "properties": {"name": "\u5e0c\u5730\u7bee\u7403\u573a", "biz": "080104 \u4f53\u80b2\u4f11\u95f2\u670d\u52a1;\u8fd0\u52a8\u573a\u9986;\u7bee\u7403\u573a\u9986", "pty": "0801"}}, {"type": "Feature", "geometry": {"type": "Point", "coordinates": [121.45722822694411, 31.289680575421773]}, "properties": {"name": "\u51c9\u57ce\u793e\u533a\u516c\u5171\u7bee\u7403\u573a", "biz": "080104 \u4f53\u80b2\u4f11\u95f2\u670d\u52a1;\u8fd0\u52a8\u573a\u9986;\u7bee\u7403\u573a\u9986", "pty": "0801"}}, {"type": "Feature", "geometry": {"type": "Point", "coordinates": [121.4688323160495, 31.273236220364932]}, "properties": {"name": "\u5b8f\u8fdc\u4e0a\u6d77\u7bee\u7403\u57f9\u8bad\u5468\u672b\u73ed", "biz": "080104 \u4f53\u80b2\u4f11\u95f2\u670d\u52a1;\u8fd0\u52a8\u573a\u9986;\u7bee\u7403\u573a\u9986", "pty": "0801"}}, {"type": "Feature", "geometry": {"type": "Point", "coordinates": [121.46850805578092, 31.27569030848454]}, "properties": {"name": "\u4e0a\u6d77\u674e\u79cb\u5e73\u9752\u5c11\u5e74\u7bee\u7403\u8fd0\u52a8\u53d1\u5c55\u4e2d\u5fc3", "biz": "080104 \u4f53\u80b2\u4f11\u95f2\u670d\u52a1;\u8fd0\u52a8\u573a\u9986;\u7bee\u7403\u573a\u9986", "pty": "0801"}}, {"type": "Feature", "geometry": {"type": "Point", "coordinates": [121.52604417955477, 31.30874394650584]}, "properties": {"name": "\u4e8c\u519b\u5927\u7bee\u7403\u573a", "biz": "080104 \u4f53\u80b2\u4f11\u95f2\u670d\u52a1;\u8fd0\u52a8\u573a\u9986;\u7bee\u7403\u573a\u9986", "pty": "0801"}}, {"type": "Feature", "geometry": {"type": "Point", "coordinates": [121.52934381107316, 31.27034606802074]}, "properties": {"name": "\u5927\u6865\u793e\u533a\u516c\u5171\u7bee\u7403\u573a", "biz": "080104 \u4f53\u80b2\u4f11\u95f2\u670d\u52a1;\u8fd0\u52a8\u573a\u9986;\u7bee\u7403\u573a\u9986", "pty": "0801"}}, {"type": "Feature", "geometry": {"type": "Point", "coordinates": [121.52357982510189, 31.313311656946695]}, "properties": {"name": "\u4e0a\u6d77\u4f53\u80b2\u5b66\u9662\u7bee\u7403\u9986", "biz": "080104 \u4f53\u80b2\u4f11\u95f2\u670d\u52a1;\u8fd0\u52a8\u573a\u9986;\u7bee\u7403\u573a\u9986", "pty": "0801"}}, {"type": "Feature", "geometry": {"type": "Point", "coordinates": [121.54276045896113, 31.307738364207406]}, "properties": {"name": "WoWoW\u7bee\u7403\u9986", "biz": "080104 \u4f53\u80b2\u4f11\u95f2\u670d\u52a1;\u8fd0\u52a8\u573a\u9986;\u7bee\u7403\u573a\u9986", "pty": "0801"}}, {"type": "Feature", "geometry": {"type": "Point", "coordinates": [121.51019184187342, 31.29424953038004]}, "properties": {"name": "\u4e0a\u6d77\u5f00\u653e\u5927\u5b66\u7bee\u7403\u573a", "biz": "080104 \u4f53\u80b2\u4f11\u95f2\u670d\u52a1;\u8fd0\u52a8\u573a\u9986;\u7bee\u7403\u573a\u9986", "pty": "0801"}}, {"type": "Feature", "geometry": {"type": "Point", "coordinates": [121.49871576399462, 31.283593886117117]}, "properties": {"name": "\u540c\u6d4e\u5927\u5b66\u4e00\u4e8c\u4e5d\u7bee\u7403\u573a\u7bee\u7403\u573a(\u8d64\u5cf0\u8def)", "biz": "080104 \u4f53\u80b2\u4f11\u95f2\u670d\u52a1;\u8fd0\u52a8\u573a\u9986;\u7bee\u7403\u573a\u9986", "pty": "0801"}}, {"type": "Feature", "geometry": {"type": "Point", "coordinates": [121.4983618932516, 31.33776006540022]}, "properties": {"name": "\u590d\u65e6\u5927\u5b66\u6c5f\u6e7e\u6821\u533a\u7bee\u7403\u573a", "biz": "080104 \u4f53\u80b2\u4f11\u95f2\u670d\u52a1;\u8fd0\u52a8\u573a\u9986;\u7bee\u7403\u573a\u9986", "pty": "0801"}}, {"type": "Feature", "geometry": {"type": "Point", "coordinates": [121.55215280077795, 31.328750950097287]}, "properties": {"name": "\u4e0a\u6d77\u57ce\u5efa\u5b66\u9662-\u7bee\u7403\u573a", "biz": "080104 \u4f53\u80b2\u4f11\u95f2\u670d\u52a1;\u8fd0\u52a8\u573a\u9986;\u7bee\u7403\u573a\u9986", "pty": "0801"}}, {"type": "Feature", "geometry": {"type": "Point", "coordinates": [121.52328876575368, 31.314594388057305]}, "properties": {"name": "\u4e0a\u6d77\u4f53\u80b2\u5b66\u9662-\u98ce\u96e8\u7bee\u7403\u573a", "biz": "080104 \u4f53\u80b2\u4f11\u95f2\u670d\u52a1;\u8fd0\u52a8\u573a\u9986;\u7bee\u7403\u573a\u9986", "pty": "0801"}}, {"type": "Feature", "geometry": {"type": "Point", "coordinates": [121.5347632304209, 31.317912358664874]}, "properties": {"name": "\u4e0a\u6d77\u5e02\u4e2d\u539f\u4f53\u80b2\u573a-\u7bee\u7403\u573a", "biz": "080104 \u4f53\u80b2\u4f11\u95f2\u670d\u52a1;\u8fd0\u52a8\u573a\u9986;\u7bee\u7403\u573a\u9986", "pty": "0801"}}, {"type": "Feature", "geometry": {"type": "Point", "coordinates": [121.49647355116021, 31.308702148545905]}, "properties": {"name": "\u4e0a\u6d77\u8d22\u7ecf\u5927\u5b66\u7bee\u7403\u573a(\u4e0a\u6d77\u5e02\u804c\u4e1a\u75c5\u533b\u9662\u5317)", "biz": "080104 \u4f53\u80b2\u4f11\u95f2\u670d\u52a1;\u8fd0\u52a8\u573a\u9986;\u7bee\u7403\u573a\u9986", "pty": "0801"}}, {"type": "Feature", "geometry": {"type": "Point", "coordinates": [121.55459742987793, 31.28982420989438]}, "properties": {"name": "\u4e0a\u6d77\u7406\u5de5\u5927\u5b66\u519b\u5de5\u8def\u6821\u533a\u5357\u6821\u533a-\u7bee\u7403\u573a", "biz": "080104 \u4f53\u80b2\u4f11\u95f2\u670d\u52a1;\u8fd0\u52a8\u573a\u9986;\u7bee\u7403\u573a\u9986", "pty": "0801"}}, {"type": "Feature", "geometry": {"type": "Point", "coordinates": [121.5509360356529, 31.29252064585077]}, "properties": {"name": "\u4e0a\u6d77\u7406\u5de5\u5927\u5b66\u519b\u5de5\u8def\u6821\u533a-\u7bee\u7403\u573a", "biz": "080104 \u4f53\u80b2\u4f11\u95f2\u670d\u52a1;\u8fd0\u52a8\u573a\u9986;\u7bee\u7403\u573a\u9986", "pty": "0801"}}, {"type": "Feature", "geometry": {"type": "Point", "coordinates": [121.48938310917198, 31.30793122362737]}, "properties": {"name": "\u4e0a\u6d77\u8d22\u7ecf\u5927\u5b66\u7bee\u7403\u573a(\u653f\u7acb\u8def830\u5f04\u5c0f\u533a\u5357)", "biz": "080104 \u4f53\u80b2\u4f11\u95f2\u670d\u52a1;\u8fd0\u52a8\u573a\u9986;\u7bee\u7403\u573a\u9986", "pty": "0801"}}, {"type": "Feature", "geometry": {"type": "Point", "coordinates": [121.55227094019668, 31.29423937460801]}, "properties": {"name": "\u4e0a\u6d77\u7406\u5de5\u5927\u5b66\u519b\u5de5\u8def\u6821\u533a\u7bee\u7403\u573a(\u6e5b\u6069\u5927\u9053)", "biz": "080104 \u4f53\u80b2\u4f11\u95f2\u670d\u52a1;\u8fd0\u52a8\u573a\u9986;\u7bee\u7403\u573a\u9986", "pty": "0801"}}, {"type": "Feature", "geometry": {"type": "Point", "coordinates": [121.54165502809306, 31.30148542357409]}, "properties": {"name": "\u4e0a\u6d77\u7406\u5de5\u5927\u5b66\u519b\u5de5\u8def\u6821\u533a\u5317\u6821\u533a-\u7bee\u7403\u573a", "biz": "080104 \u4f53\u80b2\u4f11\u95f2\u670d\u52a1;\u8fd0\u52a8\u573a\u9986;\u7bee\u7403\u573a\u9986", "pty": "0801"}}, {"type": "Feature", "geometry": {"type": "Point", "coordinates": [121.25965073407492, 31.225913647155704]}, "properties": {"name": "\u536b\u661f\u6751\u7bee\u7403\u573a", "biz": "080104 \u4f53\u80b2\u4f11\u95f2\u670d\u52a1;\u8fd0\u52a8\u573a\u9986;\u7bee\u7403\u573a\u9986", "pty": "0801"}}, {"type": "Feature", "geometry": {"type": "Point", "coordinates": [121.35968025177127, 31.18576048836236]}, "properties": {"name": "\u534e\u90fd\u516c\u5bd3\u7bee\u7403\u573a", "biz": "080104 \u4f53\u80b2\u4f11\u95f2\u670d\u52a1;\u8fd0\u52a8\u573a\u9986;\u7bee\u7403\u573a\u9986", "pty": "0801"}}, {"type": "Feature", "geometry": {"type": "Point", "coordinates": [121.36753899287008, 31.14288747238454]}, "properties": {"name": "\u95f5\u884c\u4f53\u80b2\u9986\u7bee\u7403\u573a", "biz": "080104 \u4f53\u80b2\u4f11\u95f2\u670d\u52a1;\u8fd0\u52a8\u573a\u9986;\u7bee\u7403\u573a\u9986", "pty": "0801"}}, {"type": "Feature", "geometry": {"type": "Point", "coordinates": [121.39736422492713, 31.0520793772358]}, "properties": {"name": "KBT\u7bee\u7403\u8fd0\u52a8\u9986", "biz": "080104 \u4f53\u80b2\u4f11\u95f2\u670d\u52a1;\u8fd0\u52a8\u573a\u9986;\u7bee\u7403\u573a\u9986", "pty": "0801"}}, {"type": "Feature", "geometry": {"type": "Point", "coordinates": [121.34577966651719, 31.156460474478067]}, "properties": {"name": "YBDL\u7bee\u7403\u9986", "biz": "080104 \u4f53\u80b2\u4f11\u95f2\u670d\u52a1;\u8fd0\u52a8\u573a\u9986;\u7bee\u7403\u573a\u9986", "pty": "0801"}}, {"type": "Feature", "geometry": {"type": "Point", "coordinates": [121.34954863722024, 31.150857048343426]}, "properties": {"name": "\u542f\u8df3\u7bee\u7403", "biz": "080104 \u4f53\u80b2\u4f11\u95f2\u670d\u52a1;\u8fd0\u52a8\u573a\u9986;\u7bee\u7403\u573a\u9986", "pty": "0801"}}, {"type": "Feature", "geometry": {"type": "Point", "coordinates": [121.41609692215125, 31.127275684228522]}, "properties": {"name": "\u9526\u5b8f\u4ea7\u4e1a\u56ed-\u7bee\u7403\u573a", "biz": "080104 \u4f53\u80b2\u4f11\u95f2\u670d\u52a1;\u8fd0\u52a8\u573a\u9986;\u7bee\u7403\u573a\u9986", "pty": "0801"}}, {"type": "Feature", "geometry": {"type": "Point", "coordinates": [121.35923866579502, 31.10874584027604]}, "properties": {"name": "\u6d1b\u514b\u516c\u56ed\u8398\u6ca5\u8def\u7bee\u7403\u9986", "biz": "080104 \u4f53\u80b2\u4f11\u95f2\u670d\u52a1;\u8fd0\u52a8\u573a\u9986;\u7bee\u7403\u573a\u9986", "pty": "0801"}}, {"type": "Feature", "geometry": {"type": "Point", "coordinates": [121.40681470937471, 31.107846629805348]}, "properties": {"name": "\u661f\u8fd0\u52a8\u7bee\u7403\u9986(ET\u5e97)", "biz": "080104 \u4f53\u80b2\u4f11\u95f2\u670d\u52a1;\u8fd0\u52a8\u573a\u9986;\u7bee\u7403\u573a\u9986", "pty": "0801"}}, {"type": "Feature", "geometry": {"type": "Point", "coordinates": [121.35880099112232, 31.113484853164586]}, "properties": {"name": "\u6b63\u9053\u7bee\u7403\u4ff1\u4e50\u90e8", "biz": "080104 \u4f53\u80b2\u4f11\u95f2\u670d\u52a1;\u8fd0\u52a8\u573a\u9986;\u7bee\u7403\u573a\u9986", "pty": "0801"}}, {"type": "Feature", "geometry": {"type": "Point", "coordinates": [121.36028813181153, 31.11792830829795]}, "properties": {"name": "\u4e1c\u95f8\u8def\u7bee\u7403\u573a", "biz": "080104 \u4f53\u80b2\u4f11\u95f2\u670d\u52a1;\u8fd0\u52a8\u573a\u9986;\u7bee\u7403\u573a\u9986", "pty": "0801"}}, {"type": "Feature", "geometry": {"type": "Point", "coordinates": [121.39374534755189, 31.14681303588774]}, "properties": {"name": "\u4e07\u6e90\u57ce\u5c1a\u90e1\u5c0f\u533a\u7bee\u7403\u573a", "biz": "080104 \u4f53\u80b2\u4f11\u95f2\u670d\u52a1;\u8fd0\u52a8\u573a\u9986;\u7bee\u7403\u573a\u9986", "pty": "0801"}}, {"type": "Feature", "geometry": {"type": "Point", "coordinates": [121.33645459442407, 31.166357066189864]}, "properties": {"name": "\u4f18\u80af\u7bee\u7403\u4ff1\u4e50\u90e8(\u4e03\u5b9d\u6821\u533a)", "biz": "080104 \u4f53\u80b2\u4f11\u95f2\u670d\u52a1;\u8fd0\u52a8\u573a\u9986;\u7bee\u7403\u573a\u9986", "pty": "0801"}}, {"type": "Feature", "geometry": {"type": "Point", "coordinates": [121.42779082045331, 31.026107628501588]}, "properties": {"name": "\u4e0a\u6d77\u4ea4\u901a\u5927\u5b66\u7bee\u7403\u573a", "biz": "080104 \u4f53\u80b2\u4f11\u95f2\u670d\u52a1;\u8fd0\u52a8\u573a\u9986;\u7bee\u7403\u573a\u9986", "pty": "0801"}}, {"type": "Feature", "geometry": {"type": "Point", "coordinates": [121.42632435675768, 31.028171510126413]}, "properties": {"name": "\u4e0a\u6d77\u4ea4\u901a\u5927\u5b66\u7bee\u7403\u573a", "biz": "080104 \u4f53\u80b2\u4f11\u95f2\u670d\u52a1;\u8fd0\u52a8\u573a\u9986;\u7bee\u7403\u573a\u9986", "pty": "0801"}}, {"type": "Feature", "geometry": {"type": "Point", "coordinates": [121.396065250913, 31.144477988091236]}, "properties": {"name": "\u9752\u5c11\u5e74\u7bee\u7403\u8fd0\u52a8\u4e2d\u5fc3", "biz": "080104 \u4f53\u80b2\u4f11\u95f2\u670d\u52a1;\u8fd0\u52a8\u573a\u9986;\u7bee\u7403\u573a\u9986", "pty": "0801"}}, {"type": "Feature", "geometry": {"type": "Point", "coordinates": [121.25681315783444, 31.255166741615394]}, "properties": {"name": "\u8d75\u5bb6\u6751\u7bee\u7403\u573a", "biz": "080104 \u4f53\u80b2\u4f11\u95f2\u670d\u52a1;\u8fd0\u52a8\u573a\u9986;\u7bee\u7403\u573a\u9986", "pty": "0801"}}, {"type": "Feature", "geometry": {"type": "Point", "coordinates": [121.39567870823966, 31.139571634238116]}, "properties": {"name": "\u4e0a\u6d77\u620f\u5267\u5b66\u9662\u83b2\u82b1\u8def\u6821\u533a\u7bee\u7403\u573a", "biz": "080104 \u4f53\u80b2\u4f11\u95f2\u670d\u52a1;\u8fd0\u52a8\u573a\u9986;\u7bee\u7403\u573a\u9986", "pty": "0801"}}, {"type": "Feature", "geometry": {"type": "Point", "coordinates": [121.39693755358509, 31.105997838852762]}, "properties": {"name": "\u4e07\u79d1\u7bee\u7403\u573a", "biz": "080104 \u4f53\u80b2\u4f11\u95f2\u670d\u52a1;\u8fd0\u52a8\u573a\u9986;\u7bee\u7403\u573a\u9986", "pty": "0801"}}, {"type": "Feature", "geometry": {"type": "Point", "coordinates": [121.35372681842003, 31.149656957627343]}, "properties": {"name": "\u4e0a\u6d77\u4ea4\u901a\u5927\u5b66\u4e03\u5b9d\u6821\u533a\u7bee\u7403\u573a", "biz": "080104 \u4f53\u80b2\u4f11\u95f2\u670d\u52a1;\u8fd0\u52a8\u573a\u9986;\u7bee\u7403\u573a\u9986", "pty": "0801"}}, {"type": "Feature", "geometry": {"type": "Point", "coordinates": [121.49665146704253, 31.35255084013847]}, "properties": {"name": "\u7c73\u7bee\u7403\u9986", "biz": "080104 \u4f53\u80b2\u4f11\u95f2\u670d\u52a1;\u8fd0\u52a8\u573a\u9986;\u7bee\u7403\u573a\u9986", "pty": "0801"}}, {"type": "Feature", "geometry": {"type": "Point", "coordinates": [121.40714883156284, 31.292145165779843]}, "properties": {"name": "\u68a7\u6850\u57ce\u90a6\u7bee\u7403\u573a", "biz": "080104 \u4f53\u80b2\u4f11\u95f2\u670d\u52a1;\u8fd0\u52a8\u573a\u9986;\u7bee\u7403\u573a\u9986", "pty": "0801"}}, {"type": "Feature", "geometry": {"type": "Point", "coordinates": [121.39652148210881, 31.324924583925064]}, "properties": {"name": "\u90a6\u5fb7\u804c\u4e1a\u6280\u672f\u5b66\u9662-\u7bee\u7403\u573a", "biz": "080104 \u4f53\u80b2\u4f11\u95f2\u670d\u52a1;\u8fd0\u52a8\u573a\u9986;\u7bee\u7403\u573a\u9986", "pty": "0801"}}, {"type": "Feature", "geometry": {"type": "Point", "coordinates": [121.40572712220094, 31.281049153127984]}, "properties": {"name": "\u81ea\u7531\u8005\u7bee\u7403\u516c\u56ed", "biz": "080104 \u4f53\u80b2\u4f11\u95f2\u670d\u52a1;\u8fd0\u52a8\u573a\u9986;\u7bee\u7403\u573a\u9986", "pty": "0801"}}, {"type": "Feature", "geometry": {"type": "Point", "coordinates": [121.42856381458537, 31.374861836270835]}, "properties": {"name": "\u661f\u5149\u7bee\u7403", "biz": "080104 \u4f53\u80b2\u4f11\u95f2\u670d\u52a1;\u8fd0\u52a8\u573a\u9986;\u7bee\u7403\u573a\u9986", "pty": "0801"}}, {"type": "Feature", "geometry": {"type": "Point", "coordinates": [121.45348322439263, 31.329383467830706]}, "properties": {"name": "KC\u7bee\u7403\u516c\u56ed", "biz": "080104 \u4f53\u80b2\u4f11\u95f2\u670d\u52a1;\u8fd0\u52a8\u573a\u9986;\u7bee\u7403\u573a\u9986", "pty": "0801"}}, {"type": "Feature", "geometry": {"type": "Point", "coordinates": [121.4260413814734, 31.33422408527899]}, "properties": {"name": "\u5e99\u884c\u5171\u548c\u793e\u533a\u516c\u5171\u8fd0\u52a8\u573a-\u7bee\u7403\u573a", "biz": "080104 \u4f53\u80b2\u4f11\u95f2\u670d\u52a1;\u8fd0\u52a8\u573a\u9986;\u7bee\u7403\u573a\u9986", "pty": "0801"}}, {"type": "Feature", "geometry": {"type": "Point", "coordinates": [121.4701246378124, 31.411498800208133]}, "properties": {"name": "\u5b9d\u94a2\u4f53\u80b2\u4e2d\u5fc3-\u7bee\u7403\u573a", "biz": "080104 \u4f53\u80b2\u4f11\u95f2\u670d\u52a1;\u8fd0\u52a8\u573a\u9986;\u7bee\u7403\u573a\u9986", "pty": "0801"}}, {"type": "Feature", "geometry": {"type": "Point", "coordinates": [121.41850676576237, 31.284796829532013]}, "properties": {"name": "\u6caa\u592a\u8def\u793e\u533a\u516c\u5171\u8fd0\u52a8\u573a", "biz": "080104 \u4f53\u80b2\u4f11\u95f2\u670d\u52a1;\u8fd0\u52a8\u573a\u9986;\u7bee\u7403\u573a\u9986", "pty": "0801"}}, {"type": "Feature", "geometry": {"type": "Point", "coordinates": [121.37559708406006, 31.35015391290442]}, "properties": {"name": "\u9ed1\u767d\u7bee\u7403\u4e2d\u5fc3", "biz": "080104 \u4f53\u80b2\u4f11\u95f2\u670d\u52a1;\u8fd0\u52a8\u573a\u9986;\u7bee\u7403\u573a\u9986", "pty": "0801"}}, {"type": "Feature", "geometry": {"type": "Point", "coordinates": [121.46309381274651, 31.335391804784685]}, "properties": {"name": "\u4f0d\u661f\u5ba4\u5185\u7bee\u7403\u9986", "biz": "080104 \u4f53\u80b2\u4f11\u95f2\u670d\u52a1;\u8fd0\u52a8\u573a\u9986;\u7bee\u7403\u573a\u9986", "pty": "0801"}}, {"type": "Feature", "geometry": {"type": "Point", "coordinates": [121.49242454253218, 31.407515477579818]}, "properties": {"name": "\u884c\u77e5\u4e2d\u5b66-\u7bee\u7403\u573a", "biz": "080104 \u4f53\u80b2\u4f11\u95f2\u670d\u52a1;\u8fd0\u52a8\u573a\u9986;\u7bee\u7403\u573a\u9986", "pty": "0801"}}, {"type": "Feature", "geometry": {"type": "Point", "coordinates": [121.48769654748273, 31.396174516482297]}, "properties": {"name": "\u5c0f\u98de\u4eba\u7bee\u7403\u4ff1\u4e50\u90e8", "biz": "080104 \u4f53\u80b2\u4f11\u95f2\u670d\u52a1;\u8fd0\u52a8\u573a\u9986;\u7bee\u7403\u573a\u9986", "pty": "0801"}}, {"type": "Feature", "geometry": {"type": "Point", "coordinates": [121.48969776409511, 31.372117667501588]}, "properties": {"name": "\u5434\u6dde\u793e\u533a\u516c\u5171\u7bee\u7403\u573a", "biz": "080104 \u4f53\u80b2\u4f11\u95f2\u670d\u52a1;\u8fd0\u52a8\u573a\u9986;\u7bee\u7403\u573a\u9986", "pty": "0801"}}, {"type": "Feature", "geometry": {"type": "Point", "coordinates": [121.40889612030023, 31.300078802313806]}, "properties": {"name": "\u5927\u573a\u4f53\u80b2\u4e2d\u5fc3-\u7bee\u7403\u573a", "biz": "080104 \u4f53\u80b2\u4f11\u95f2\u670d\u52a1;\u8fd0\u52a8\u573a\u9986;\u7bee\u7403\u573a\u9986", "pty": "0801"}}, {"type": "Feature", "geometry": {"type": "Point", "coordinates": [121.45347088930312, 31.332864183852394]}, "properties": {"name": "\u6cd7\u5858\u7bee\u7403\u516c\u56ed\u7bee\u7403\u573a", "biz": "080104 \u4f53\u80b2\u4f11\u95f2\u670d\u52a1;\u8fd0\u52a8\u573a\u9986;\u7bee\u7403\u573a\u9986", "pty": "0801"}}, {"type": "Feature", "geometry": {"type": "Point", "coordinates": [121.44802533761349, 31.334299608270594]}, "properties": {"name": "\u7bee\u7403\u573a", "biz": "080104 \u4f53\u80b2\u4f11\u95f2\u670d\u52a1;\u8fd0\u52a8\u573a\u9986;\u7bee\u7403\u573a\u9986", "pty": "0801"}}, {"type": "Feature", "geometry": {"type": "Point", "coordinates": [121.48681236609265, 31.39649380064839]}, "properties": {"name": "\u5b9d\u5c71\u4f53\u80b2\u4e2d\u5fc3-\u7bee\u7403\u9986", "biz": "080104 \u4f53\u80b2\u4f11\u95f2\u670d\u52a1;\u8fd0\u52a8\u573a\u9986;\u7bee\u7403\u573a\u9986", "pty": "0801"}}, {"type": "Feature", "geometry": {"type": "Point", "coordinates": [121.32263626327493, 31.483962857680563]}, "properties": {"name": "\u7bee\u7403\u573a", "biz": "080104 \u4f53\u80b2\u4f11\u95f2\u670d\u52a1;\u8fd0\u52a8\u573a\u9986;\u7bee\u7403\u573a\u9986", "pty": "0801"}}, {"type": "Feature", "geometry": {"type": "Point", "coordinates": [121.40723284919076, 31.292441081939522]}, "properties": {"name": "\u68a6\u516c\u56ed\u7bee\u7403\u573a", "biz": "080104 \u4f53\u80b2\u4f11\u95f2\u670d\u52a1;\u8fd0\u52a8\u573a\u9986;\u7bee\u7403\u573a\u9986", "pty": "0801"}}, {"type": "Feature", "geometry": {"type": "Point", "coordinates": [121.47799554283392, 31.23154231791044]}, "properties": {"name": "\u9ec4\u6d66\u533a\u5ef6\u798f\u7eff\u5730\u7bee\u7403\u573a", "biz": "080104 \u4f53\u80b2\u4f11\u95f2\u670d\u52a1;\u8fd0\u52a8\u573a\u9986;\u7bee\u7403\u573a\u9986", "pty": "0801"}}, {"type": "Feature", "geometry": {"type": "Point", "coordinates": [121.45961596792986, 31.22295072713733]}, "properties": {"name": "\u5411\u660e\u4e2d\u5b66-\u7bee\u7403\u573a", "biz": "080104 \u4f53\u80b2\u4f11\u95f2\u670d\u52a1;\u8fd0\u52a8\u573a\u9986;\u7bee\u7403\u573a\u9986", "pty": "0801"}}, {"type": "Feature", "geometry": {"type": "Point", "coordinates": [121.4839162513021, 31.218896469433453]}, "properties": {"name": "\u656c\u4e1a\u4e2d\u5b66-\u7bee\u7403\u573a(\u6682\u505c\u8425\u4e1a)", "biz": "080104 \u4f53\u80b2\u4f11\u95f2\u670d\u52a1;\u8fd0\u52a8\u573a\u9986;\u7bee\u7403\u573a\u9986", "pty": "0801"}}, {"type": "Feature", "geometry": {"type": "Point", "coordinates": [121.47502629154945, 31.20958423422115]}, "properties": {"name": "\u4e3d\u56ed\u516c\u56ed\u793e\u533a\u516c\u5171\u7bee\u7403\u573a", "biz": "080104 \u4f53\u80b2\u4f11\u95f2\u670d\u52a1;\u8fd0\u52a8\u573a\u9986;\u7bee\u7403\u573a\u9986", "pty": "0801"}}, {"type": "Feature", "geometry": {"type": "Point", "coordinates": [121.46762039898242, 31.215032192896697]}, "properties": {"name": "\u4e0a\u6d77\u4ea4\u901a\u5927\u5b66\u533b\u5b66\u9662\u4e1c\u533a\u7bee\u7403\u573a", "biz": "080104 \u4f53\u80b2\u4f11\u95f2\u670d\u52a1;\u8fd0\u52a8\u573a\u9986;\u7bee\u7403\u573a\u9986", "pty": "0801"}}, {"type": "Feature", "geometry": {"type": "Point", "coordinates": [121.45888712737808, 31.20766521796536]}, "properties": {"name": "\u4e0a\u6d77\u5e02\u5362\u6e7e\u4f53\u80b2\u4e2d\u5fc3-\u7bee\u7403\u573a", "biz": "080104 \u4f53\u80b2\u4f11\u95f2\u670d\u52a1;\u8fd0\u52a8\u573a\u9986;\u7bee\u7403\u573a\u9986", "pty": "0801"}}, {"type": "Feature", "geometry": {"type": "Point", "coordinates": [121.47596487508669, 31.228307018529772]}, "properties": {"name": "\u5149\u660e\u4e2d\u5b66-\u7bee\u7403\u573a", "biz": "080104 \u4f53\u80b2\u4f11\u95f2\u670d\u52a1;\u8fd0\u52a8\u573a\u9986;\u7bee\u7403\u573a\u9986", "pty": "0801"}}, {"type": "Feature", "geometry": {"type": "Point", "coordinates": [121.4323630781344, 31.183125622744434]}, "properties": {"name": "\u4e0a\u4f53\u7bee\u7403\u516c\u56ed", "biz": "080104 \u4f53\u80b2\u4f11\u95f2\u670d\u52a1;\u8fd0\u52a8\u573a\u9986;\u7bee\u7403\u573a\u9986", "pty": "0801"}}, {"type": "Feature", "geometry": {"type": "Point", "coordinates": [121.41082646583067, 31.161534777783288]}, "properties": {"name": "\u4e0a\u6d77\u5e08\u8303\u5927\u5b66\u7bee\u7403\u573a(\u4e0a\u6d77\u5e08\u8303\u5927\u5b66\u6821\u533b\u9662\u897f\u5317)", "biz": "080104 \u4f53\u80b2\u4f11\u95f2\u670d\u52a1;\u8fd0\u52a8\u573a\u9986;\u7bee\u7403\u573a\u9986", "pty": "0801"}}, {"type": "Feature", "geometry": {"type": "Point", "coordinates": [121.46483601834488, 31.198192970214887]}, "properties": {"name": "\u659c\u571f\u793e\u533a\u7bee\u7403\u573a", "biz": "080104 \u4f53\u80b2\u4f11\u95f2\u670d\u52a1;\u8fd0\u52a8\u573a\u9986;\u7bee\u7403\u573a\u9986", "pty": "0801"}}, {"type": "Feature", "geometry": {"type": "Point", "coordinates": [121.45238972446734, 31.196281387632194]}, "properties": {"name": "\u590d\u65e6\u5927\u5b66\u62a4\u7406\u5b66\u9662\u7bee\u7403\u573a", "biz": "080104 \u4f53\u80b2\u4f11\u95f2\u670d\u52a1;\u8fd0\u52a8\u573a\u9986;\u7bee\u7403\u573a\u9986", "pty": "0801"}}, {"type": "Feature", "geometry": {"type": "Point", "coordinates": [121.43898674361733, 31.200323081551282]}, "properties": {"name": "\u5f90\u5bb6\u6c47\u516c\u56ed-\u7bee\u7403\u573a", "biz": "080104 \u4f53\u80b2\u4f11\u95f2\u670d\u52a1;\u8fd0\u52a8\u573a\u9986;\u7bee\u7403\u573a\u9986", "pty": "0801"}}, {"type": "Feature", "geometry": {"type": "Point", "coordinates": [121.41920273834063, 31.167784023131006]}, "properties": {"name": "\u5e94\u7528\u6280\u672f\u5927\u5b66\u7bee\u7403\u573a", "biz": "080104 \u4f53\u80b2\u4f11\u95f2\u670d\u52a1;\u8fd0\u52a8\u573a\u9986;\u7bee\u7403\u573a\u9986", "pty": "0801"}}, {"type": "Feature", "geometry": {"type": "Point", "coordinates": [121.41669632819288, 31.18713492602886]}, "properties": {"name": "\u4e0a\u6d77\u793e\u4f1a\u79d1\u5b66\u9662\u5206\u90e8\u7bee\u7403\u573a", "biz": "080104 \u4f53\u80b2\u4f11\u95f2\u670d\u52a1;\u8fd0\u52a8\u573a\u9986;\u7bee\u7403\u573a\u9986", "pty": "0801"}}, {"type": "Feature", "geometry": {"type": "Point", "coordinates": [121.45133810240681, 31.19388720232188]}, "properties": {"name": "\u6709\u673a\u6240\u7bee\u7403\u573a", "biz": "080104 \u4f53\u80b2\u4f11\u95f2\u670d\u52a1;\u8fd0\u52a8\u573a\u9986;\u7bee\u7403\u573a\u9986", "pty": "0801"}}, {"type": "Feature", "geometry": {"type": "Point", "coordinates": [121.44452817117968, 31.15554131628345]}, "properties": {"name": "\u690d\u7269\u56ed\u7bee\u7403\u573a", "biz": "080104 \u4f53\u80b2\u4f11\u95f2\u670d\u52a1;\u8fd0\u52a8\u573a\u9986;\u7bee\u7403\u573a\u9986", "pty": "0801"}}, {"type": "Feature", "geometry": {"type": "Point", "coordinates": [121.40412002599008, 31.1601056082462]}, "properties": {"name": "\u6842\u5e73\u5c0f\u533a\u7bee\u7403\u573a", "biz": "080104 \u4f53\u80b2\u4f11\u95f2\u670d\u52a1;\u8fd0\u52a8\u573a\u9986;\u7bee\u7403\u573a\u9986", "pty": "0801"}}, {"type": "Feature", "geometry": {"type": "Point", "coordinates": [121.42579461825774, 31.200818709773436]}, "properties": {"name": "\u4e0a\u6d77\u4ea4\u901a\u5927\u5b66\u5f90\u6c47\u6821\u533a\u7bee\u7403\u573a", "biz": "080104 \u4f53\u80b2\u4f11\u95f2\u670d\u52a1;\u8fd0\u52a8\u573a\u9986;\u7bee\u7403\u573a\u9986", "pty": "0801"}}, {"type": "Feature", "geometry": {"type": "Point", "coordinates": [121.41894003899611, 31.195387839654938]}, "properties": {"name": "\u575a\u679c\u7bee\u7403\u4ff1\u4e50\u90e8(\u51ef\u65cb\u8def)", "biz": "080104 \u4f53\u80b2\u4f11\u95f2\u670d\u52a1;\u8fd0\u52a8\u573a\u9986;\u7bee\u7403\u573a\u9986", "pty": "0801"}}, {"type": "Feature", "geometry": {"type": "Point", "coordinates": [121.42562341314353, 31.142577306857262]}, "properties": {"name": "\u4e0a\u6d77\u4f53\u80b2\u804c\u4e1a\u5b66\u9662\u7bee\u7403\u9986", "biz": "080104 \u4f53\u80b2\u4f11\u95f2\u670d\u52a1;\u8fd0\u52a8\u573a\u9986;\u7bee\u7403\u573a\u9986", "pty": "0801"}}, {"type": "Feature", "geometry": {"type": "Point", "coordinates": [121.45633625224306, 31.213216352438415]}, "properties": {"name": "\u4e0a\u6d77\u7406\u5de5\u5927\u5b66\u7bee\u7403\u573a", "biz": "080104 \u4f53\u80b2\u4f11\u95f2\u670d\u52a1;\u8fd0\u52a8\u573a\u9986;\u7bee\u7403\u573a\u9986", "pty": "0801"}}, {"type": "Feature", "geometry": {"type": "Point", "coordinates": [121.44538756408181, 31.19814739711643]}, "properties": {"name": "\u590d\u65e6\u5927\u5b66\u4e0a\u6d77\u533b\u5b66\u9662\u67ab\u6797\u8def\u6821\u533a\u897f\u533a\u7bee\u7403\u573a", "biz": "080104 \u4f53\u80b2\u4f11\u95f2\u670d\u52a1;\u8fd0\u52a8\u573a\u9986;\u7bee\u7403\u573a\u9986", "pty": "0801"}}, {"type": "Feature", "geometry": {"type": "Point", "coordinates": [121.44512493607297, 31.198057908865596]}, "properties": {"name": "\u590d\u65e6\u5927\u5b66\u67ab\u6797\u6821\u533a\u897f\u533a\u84dd\u6392\u7403\u573a", "biz": "080104 \u4f53\u80b2\u4f11\u95f2\u670d\u52a1;\u8fd0\u52a8\u573a\u9986;\u7bee\u7403\u573a\u9986", "pty": "0801"}}, {"type": "Feature", "geometry": {"type": "Point", "coordinates": [121.45334004897856, 31.17615264602904]}, "properties": {"name": "\u4e2d\u56fd\u5546\u98de\u6c11\u7528\u98de\u673a\u8bd5\u98de\u4e2d\u5fc3\u7bee\u7403\u573a", "biz": "080104 \u4f53\u80b2\u4f11\u95f2\u670d\u52a1;\u8fd0\u52a8\u573a\u9986;\u7bee\u7403\u573a\u9986", "pty": "0801"}}, {"type": "Feature", "geometry": {"type": "Point", "coordinates": [121.42418583349719, 31.182866672921023]}, "properties": {"name": "\u4e0a\u6d77\u7acb\u4fe1\u4f1a\u8ba1\u91d1\u878d\u5b66\u9662\u5f90\u6c47\u6821\u533a\u7bee\u7403\u573a", "biz": "080104 \u4f53\u80b2\u4f11\u95f2\u670d\u52a1;\u8fd0\u52a8\u573a\u9986;\u7bee\u7403\u573a\u9986", "pty": "0801"}}, {"type": "Feature", "geometry": {"type": "Point", "coordinates": [121.41684246605686, 31.18727498049303]}, "properties": {"name": "\u745e\u88d5\u5bbe\u9986\u767d\u7389\u5170\u9152\u5e97\u4e2d\u5c71\u897f\u8def\u5e97-\u7bee\u7403\u573a", "biz": "080104 \u4f53\u80b2\u4f11\u95f2\u670d\u52a1;\u8fd0\u52a8\u573a\u9986;\u7bee\u7403\u573a\u9986", "pty": "0801"}}, {"type": "Feature", "geometry": {"type": "Point", "coordinates": [121.41802725509463, 31.146610990020736]}, "properties": {"name": "\u534e\u4e1c\u7406\u5de5\u5927\u5b66\u5f90\u6c47\u6821\u533a\u7bee\u7403\u573a(\u7559\u5b66\u751f\u516c\u5bd32\u4e1c\u5317)", "biz": "080104 \u4f53\u80b2\u4f11\u95f2\u670d\u52a1;\u8fd0\u52a8\u573a\u9986;\u7bee\u7403\u573a\u9986", "pty": "0801"}}, {"type": "Feature", "geometry": {"type": "Point", "coordinates": [121.2455367352529, 31.34446706529003]}, "properties": {"name": "\u7d2b\u6c14\u4e1c\u6765\u4f53\u80b2\u516c\u56ed\u7bee\u7403\u573a", "biz": "080104 \u4f53\u80b2\u4f11\u95f2\u670d\u52a1;\u8fd0\u52a8\u573a\u9986;\u7bee\u7403\u573a\u9986", "pty": "0801"}}, {"type": "Feature", "geometry": {"type": "Point", "coordinates": [121.23666363283884, 31.3855554797577]}, "properties": {"name": "\u513f\u7ae5\u516c\u56ed-\u7bee\u7403\u573a", "biz": "080104 \u4f53\u80b2\u4f11\u95f2\u670d\u52a1;\u8fd0\u52a8\u573a\u9986;\u7bee\u7403\u573a\u9986", "pty": "0801"}}, {"type": "Feature", "geometry": {"type": "Point", "coordinates": [121.29132735076729, 31.35636316474034]}, "properties": {"name": "\u613f\u4e50\u7bee\u7403\u9986", "biz": "080104 \u4f53\u80b2\u4f11\u95f2\u670d\u52a1;\u8fd0\u52a8\u573a\u9986;\u7bee\u7403\u573a\u9986", "pty": "0801"}}, {"type": "Feature", "geometry": {"type": "Point", "coordinates": [121.37337352936592, 31.258652658234105]}, "properties": {"name": "\u53cc\u6cb3\u8def\u7bee\u7403\u573a", "biz": "080104 \u4f53\u80b2\u4f11\u95f2\u670d\u52a1;\u8fd0\u52a8\u573a\u9986;\u7bee\u7403\u573a\u9986", "pty": "0801"}}, {"type": "Feature", "geometry": {"type": "Point", "coordinates": [121.31929047138169, 31.304404563392605]}, "properties": {"name": "YBDL\u9752\u5c11\u5e74\u7bee\u7403\u53d1\u5c55\u8054\u76df(\u82b3\u6797\u8def\u7bee\u7403\u9986)", "biz": "080104 \u4f53\u80b2\u4f11\u95f2\u670d\u52a1;\u8fd0\u52a8\u573a\u9986;\u7bee\u7403\u573a\u9986", "pty": "0801"}}, {"type": "Feature", "geometry": {"type": "Point", "coordinates": [121.31915680929596, 31.257643219409886]}, "properties": {"name": "\u8ffd\u68a6\u7bee\u7403\u8bad\u7ec3\u8425", "biz": "080104 \u4f53\u80b2\u4f11\u95f2\u670d\u52a1;\u8fd0\u52a8\u573a\u9986;\u7bee\u7403\u573a\u9986", "pty": "0801"}}, {"type": "Feature", "geometry": {"type": "Point", "coordinates": [121.21030985152092, 31.28948064818146]}, "properties": {"name": "\u540c\u6d4e\u5927\u5b66\u5609\u5b9a\u6821\u533a\u7bee\u7403\u573a", "biz": "080104 \u4f53\u80b2\u4f11\u95f2\u670d\u52a1;\u8fd0\u52a8\u573a\u9986;\u7bee\u7403\u573a\u9986", "pty": "0801"}}, {"type": "Feature", "geometry": {"type": "Point", "coordinates": [121.26908292304725, 31.37958395813292]}, "properties": {"name": "\u5609\u5b9a\u4f53\u80b2\u4e2d\u5fc3\u7bee\u7403\u7ec3\u4e60\u573a", "biz": "080104 \u4f53\u80b2\u4f11\u95f2\u670d\u52a1;\u8fd0\u52a8\u573a\u9986;\u7bee\u7403\u573a\u9986", "pty": "0801"}}, {"type": "Feature", "geometry": {"type": "Point", "coordinates": [121.2458017853226, 31.378724900307304]}, "properties": {"name": "\u4e0a\u6d77\u5927\u5b66\u5609\u5b9a\u6821\u533a\u7bee\u7403\u573a", "biz": "080104 \u4f53\u80b2\u4f11\u95f2\u670d\u52a1;\u8fd0\u52a8\u573a\u9986;\u7bee\u7403\u573a\u9986", "pty": "0801"}}, {"type": "Feature", "geometry": {"type": "Point", "coordinates": [121.48734501916456, 31.14093800737943]}, "properties": {"name": "\u6d1b\u514b\u516c\u56ed\u51cc\u5146\u9986", "biz": "080104 \u4f53\u80b2\u4f11\u95f2\u670d\u52a1;\u8fd0\u52a8\u573a\u9986;\u7bee\u7403\u573a\u9986", "pty": "0801"}}, {"type": "Feature", "geometry": {"type": "Point", "coordinates": [121.53250071767783, 31.231519233834486]}, "properties": {"name": "\u6e90\u6df1\u7bee\u7403\u516c\u56ed", "biz": "080104 \u4f53\u80b2\u4f11\u95f2\u670d\u52a1;\u8fd0\u52a8\u573a\u9986;\u7bee\u7403\u573a\u9986", "pty": "0801"}}, {"type": "Feature", "geometry": {"type": "Point", "coordinates": [121.54820980171422, 31.205564287340017]}, "properties": {"name": "\u82b1\u6728\u516c\u56ed\u516c\u5171\u8fd0\u52a8\u573a", "biz": "080104 \u4f53\u80b2\u4f11\u95f2\u670d\u52a1;\u8fd0\u52a8\u573a\u9986;\u7bee\u7403\u573a\u9986", "pty": "0801"}}, {"type": "Feature", "geometry": {"type": "Point", "coordinates": [121.61614809405306, 31.19726461621413]}, "properties": {"name": "\u7c73\u9ad8\u8fd0\u52a8\u9986(\u8521\u4f26\u8def\u5e97)", "biz": "080104 \u4f53\u80b2\u4f11\u95f2\u670d\u52a1;\u8fd0\u52a8\u573a\u9986;\u7bee\u7403\u573a\u9986", "pty": "0801"}}, {"type": "Feature", "geometry": {"type": "Point", "coordinates": [121.60649320429997, 31.2936864189698]}, "properties": {"name": "\u6d1b\u514b\u516c\u56ed\u7bee\u7403\u9986", "biz": "080104 \u4f53\u80b2\u4f11\u95f2\u670d\u52a1;\u8fd0\u52a8\u573a\u9986;\u7bee\u7403\u573a\u9986", "pty": "0801"}}, {"type": "Feature", "geometry": {"type": "Point", "coordinates": [121.51015425703258, 31.216537613142314]}, "properties": {"name": "\u5bb6\u5316\u6ee8\u6c5f\u82d1\u7bee\u7403\u573a", "biz": "080104 \u4f53\u80b2\u4f11\u95f2\u670d\u52a1;\u8fd0\u52a8\u573a\u9986;\u7bee\u7403\u573a\u9986", "pty": "0801"}}, {"type": "Feature", "geometry": {"type": "Point", "coordinates": [121.57515474395639, 31.262990489091614]}, "properties": {"name": "NO-NO\u7bee\u7403\u8857\u533a", "biz": "080104 \u4f53\u80b2\u4f11\u95f2\u670d\u52a1;\u8fd0\u52a8\u573a\u9986;\u7bee\u7403\u573a\u9986", "pty": "0801"}}, {"type": "Feature", "geometry": {"type": "Point", "coordinates": [121.52403592068973, 31.222549682561144]}, "properties": {"name": "\u5609\u534e\u4f53\u80b2\u7bee\u7403\u4ff1\u4e50\u90e8", "biz": "080104 \u4f53\u80b2\u4f11\u95f2\u670d\u52a1;\u8fd0\u52a8\u573a\u9986;\u7bee\u7403\u573a\u9986", "pty": "0801"}}, {"type": "Feature", "geometry": {"type": "Point", "coordinates": [121.66497549067242, 31.240306997401042]}, "properties": {"name": "\u5947\u6b22\u7bee\u7403\u9986", "biz": "080104 \u4f53\u80b2\u4f11\u95f2\u670d\u52a1;\u8fd0\u52a8\u573a\u9986;\u7bee\u7403\u573a\u9986", "pty": "0801"}}, {"type": "Feature", "geometry": {"type": "Point", "coordinates": [121.56847743085801, 31.160497193879383]}, "properties": {"name": "\u7c73\u9ad8\u7bee\u7403\u4ff1\u4e50\u90e8", "biz": "080104 \u4f53\u80b2\u4f11\u95f2\u670d\u52a1;\u8fd0\u52a8\u573a\u9986;\u7bee\u7403\u573a\u9986", "pty": "0801"}}, {"type": "Feature", "geometry": {"type": "Point", "coordinates": [121.54868079310802, 31.207335338582926]}, "properties": {"name": "CJ\u7bee\u7403\u4ff1\u4e50\u90e8", "biz": "080104 \u4f53\u80b2\u4f11\u95f2\u670d\u52a1;\u8fd0\u52a8\u573a\u9986;\u7bee\u7403\u573a\u9986", "pty": "0801"}}, {"type": "Feature", "geometry": {"type": "Point", "coordinates": [121.55684668433837, 31.150664491947303]}, "properties": {"name": "\u7c73\u9ad8\u7bee\u7403\u9986(\u5fa1\u6865\u5e97)", "biz": "080104 \u4f53\u80b2\u4f11\u95f2\u670d\u52a1;\u8fd0\u52a8\u573a\u9986;\u7bee\u7403\u573a\u9986", "pty": "0801"}}, {"type": "Feature", "geometry": {"type": "Point", "coordinates": [121.60643017225308, 31.294389171286745]}, "properties": {"name": "\u6d1b\u514b\u516c\u56ed", "biz": "080104 \u4f53\u80b2\u4f11\u95f2\u670d\u52a1;\u8fd0\u52a8\u573a\u9986;\u7bee\u7403\u573a\u9986", "pty": "0801"}}, {"type": "Feature", "geometry": {"type": "Point", "coordinates": [121.53777308916285, 31.184012761629464]}, "properties": {"name": "\u6d77\u4e0a\u56fd\u9645\u82b1\u56ed\u7bee\u7403\u573a", "biz": "080104 \u4f53\u80b2\u4f11\u95f2\u670d\u52a1;\u8fd0\u52a8\u573a\u9986;\u7bee\u7403\u573a\u9986", "pty": "0801"}}, {"type": "Feature", "geometry": {"type": "Point", "coordinates": [121.50264841725969, 31.182837012406704]}, "properties": {"name": "\u4e09\u6797\u4f53\u80b2\u4e2d\u5fc3-\u7bee\u7403\u573a", "biz": "080104 \u4f53\u80b2\u4f11\u95f2\u670d\u52a1;\u8fd0\u52a8\u573a\u9986;\u7bee\u7403\u573a\u9986", "pty": "0801"}}, {"type": "Feature", "geometry": {"type": "Point", "coordinates": [121.78466869229116, 31.048522461851654]}, "properties": {"name": "\u4e0a\u6d77\u7535\u529b\u5b66\u9662-\u7bee\u7403\u573a", "biz": "080104 \u4f53\u80b2\u4f11\u95f2\u670d\u52a1;\u8fd0\u52a8\u573a\u9986;\u7bee\u7403\u573a\u9986", "pty": "0801"}}, {"type": "Feature", "geometry": {"type": "Point", "coordinates": [121.53424974516447, 31.209810751467298]}, "properties": {"name": "\u5efa\u5e73\u4e2d\u5b66\u7bee\u7403\u573a", "biz": "080104 \u4f53\u80b2\u4f11\u95f2\u670d\u52a1;\u8fd0\u52a8\u573a\u9986;\u7bee\u7403\u573a\u9986", "pty": "0801"}}, {"type": "Feature", "geometry": {"type": "Point", "coordinates": [121.89901104493572, 30.88132715812189]}, "properties": {"name": "\u4e0a\u6d77\u6d77\u4e8b\u5927\u5b66\u7bee\u7403\u573a", "biz": "080104 \u4f53\u80b2\u4f11\u95f2\u670d\u52a1;\u8fd0\u52a8\u573a\u9986;\u7bee\u7403\u573a\u9986", "pty": "0801"}}, {"type": "Feature", "geometry": {"type": "Point", "coordinates": [121.55406186075645, 31.234581266129577]}, "properties": {"name": "\u66fc\u4e91\u7bee\u7403\u9986", "biz": "080104 \u4f53\u80b2\u4f11\u95f2\u670d\u52a1;\u8fd0\u52a8\u573a\u9986;\u7bee\u7403\u573a\u9986", "pty": "0801"}}, {"type": "Feature", "geometry": {"type": "Point", "coordinates": [121.51683002671372, 31.149352561781825]}, "properties": {"name": "\u4e09\u6797\u516c\u56ed-\u7bee\u7403\u573a", "biz": "080104 \u4f53\u80b2\u4f11\u95f2\u670d\u52a1;\u8fd0\u52a8\u573a\u9986;\u7bee\u7403\u573a\u9986", "pty": "0801"}}, {"type": "Feature", "geometry": {"type": "Point", "coordinates": [121.52783628075936, 31.220266745481908]}, "properties": {"name": "\u4e0a\u6d77\u5168\u5065\u9752\u5c11\u5e74\u7bee\u7403\u4ff1\u4e50\u90e8", "biz": "080104 \u4f53\u80b2\u4f11\u95f2\u670d\u52a1;\u8fd0\u52a8\u573a\u9986;\u7bee\u7403\u573a\u9986", "pty": "0801"}}, {"type": "Feature", "geometry": {"type": "Point", "coordinates": [121.55760126462792, 31.113736603287986]}, "properties": {"name": "\u6893\u6f7c\u4f1a\u6240\u7bee\u7403\u573a", "biz": "080104 \u4f53\u80b2\u4f11\u95f2\u670d\u52a1;\u8fd0\u52a8\u573a\u9986;\u7bee\u7403\u573a\u9986", "pty": "0801"}}, {"type": "Feature", "geometry": {"type": "Point", "coordinates": [121.53327077172837, 31.23457670573744]}, "properties": {"name": "\u4e0a\u6d77\u4e1c\u65b9\u7bee\u7403\u4ff1\u4e50\u90e8", "biz": "080104 \u4f53\u80b2\u4f11\u95f2\u670d\u52a1;\u8fd0\u52a8\u573a\u9986;\u7bee\u7403\u573a\u9986", "pty": "0801"}}, {"type": "Feature", "geometry": {"type": "Point", "coordinates": [121.54891630113598, 31.208030454232848]}, "properties": {"name": "\u62fe\u5c24\u7fbd\u6bdb\u7403\u7bee\u7403\u8bad\u7ec3\u8425", "biz": "080104 \u4f53\u80b2\u4f11\u95f2\u670d\u52a1;\u8fd0\u52a8\u573a\u9986;\u7bee\u7403\u573a\u9986", "pty": "0801"}}, {"type": "Feature", "geometry": {"type": "Point", "coordinates": [121.64854041374359, 31.207133234307403]}, "properties": {"name": "\u6587\u5316\u516c\u56ed\u516c\u5171\u8fd0\u52a8\u573a", "biz": "080104 \u4f53\u80b2\u4f11\u95f2\u670d\u52a1;\u8fd0\u52a8\u573a\u9986;\u7bee\u7403\u573a\u9986", "pty": "0801"}}, {"type": "Feature", "geometry": {"type": "Point", "coordinates": [121.89907168770512, 30.873628639082725]}, "properties": {"name": "\u4e0a\u6d77\u6d77\u4e8b\u5927\u5b66\u5357\u533a\u7bee\u7403\u573a", "biz": "080104 \u4f53\u80b2\u4f11\u95f2\u670d\u52a1;\u8fd0\u52a8\u573a\u9986;\u7bee\u7403\u573a\u9986", "pty": "0801"}}, {"type": "Feature", "geometry": {"type": "Point", "coordinates": [121.66246405220697, 31.29192458442846]}, "properties": {"name": "\u66f9\u8def\u4f53\u80b2\u4e2d\u5fc3-\u7bee\u7403\u573a", "biz": "080104 \u4f53\u80b2\u4f11\u95f2\u670d\u52a1;\u8fd0\u52a8\u573a\u9986;\u7bee\u7403\u573a\u9986", "pty": "0801"}}, {"type": "Feature", "geometry": {"type": "Point", "coordinates": [121.54888916480338, 31.19683886930386]}, "properties": {"name": "\u5fb7\u5fc5\u8fd0\u52a8YBDL\u7bee\u7403\u9986", "biz": "080104 \u4f53\u80b2\u4f11\u95f2\u670d\u52a1;\u8fd0\u52a8\u573a\u9986;\u7bee\u7403\u573a\u9986", "pty": "0801"}}, {"type": "Feature", "geometry": {"type": "Point", "coordinates": [121.57925853101055, 31.244721548289345]}, "properties": {"name": "\u78a7\u4e91\u4f53\u80b2\u516c\u56ed-\u7bee\u7403\u573a", "biz": "080104 \u4f53\u80b2\u4f11\u95f2\u670d\u52a1;\u8fd0\u52a8\u573a\u9986;\u7bee\u7403\u573a\u9986", "pty": "0801"}}, {"type": "Feature", "geometry": {"type": "Point", "coordinates": [121.57992454839858, 31.2881462878648]}, "properties": {"name": "\u7eff\u6ce2\u56ed\u7bee\u7403\u573a", "biz": "080104 \u4f53\u80b2\u4f11\u95f2\u670d\u52a1;\u8fd0\u52a8\u573a\u9986;\u7bee\u7403\u573a\u9986", "pty": "0801"}}, {"type": "Feature", "geometry": {"type": "Point", "coordinates": [121.67797891452832, 31.245334913821083]}, "properties": {"name": "\u5510\u9547\u4e00\u5fc3\u6751\u7bee\u7403\u573a", "biz": "080104 \u4f53\u80b2\u4f11\u95f2\u670d\u52a1;\u8fd0\u52a8\u573a\u9986;\u7bee\u7403\u573a\u9986", "pty": "0801"}}, {"type": "Feature", "geometry": {"type": "Point", "coordinates": [121.48935580018545, 31.180966183728824]}, "properties": {"name": "\u6d1b\u514b\u516c\u56ed", "biz": "080104 \u4f53\u80b2\u4f11\u95f2\u670d\u52a1;\u8fd0\u52a8\u573a\u9986;\u7bee\u7403\u573a\u9986", "pty": "0801"}}, {"type": "Feature", "geometry": {"type": "Point", "coordinates": [121.62066990090646, 31.29362474693089]}, "properties": {"name": "\u9ad8\u4e1c\u65b0\u9ad8\u82d1\u7bee\u7403\u573a", "biz": "080104 \u4f53\u80b2\u4f11\u95f2\u670d\u52a1;\u8fd0\u52a8\u573a\u9986;\u7bee\u7403\u573a\u9986", "pty": "0801"}}, {"type": "Feature", "geometry": {"type": "Point", "coordinates": [121.61003579468463, 31.28940594022191]}, "properties": {"name": "\u9ad8\u884c\u6865\u5e95\u7bee\u7403\u573a", "biz": "080104 \u4f53\u80b2\u4f11\u95f2\u670d\u52a1;\u8fd0\u52a8\u573a\u9986;\u7bee\u7403\u573a\u9986", "pty": "0801"}}, {"type": "Feature", "geometry": {"type": "Point", "coordinates": [121.62348526067615, 31.216828418667212]}, "properties": {"name": "\u5929\u4e4b\u5a07\u5b50\u521b\u4e1a\u516c\u5bd3-\u7bee\u7403\u9986", "biz": "080104 \u4f53\u80b2\u4f11\u95f2\u670d\u52a1;\u8fd0\u52a8\u573a\u9986;\u7bee\u7403\u573a\u9986", "pty": "0801"}}, {"type": "Feature", "geometry": {"type": "Point", "coordinates": [121.6333461347717, 31.02835225276575]}, "properties": {"name": "\u65b0\u573a\u53e4\u9547\u4f53\u80b2\u5065\u8eab\u6d3b\u52a8\u4e2d\u5fc3(\u6caa\u5357\u516c\u8def\u5e97)", "biz": "080104 \u4f53\u80b2\u4f11\u95f2\u670d\u52a1;\u8fd0\u52a8\u573a\u9986;\u7bee\u7403\u573a\u9986", "pty": "0801"}}, {"type": "Feature", "geometry": {"type": "Point", "coordinates": [121.59455304450412, 31.24252697544893]}, "properties": {"name": "\u4e2d\u6b27\u56fd\u9645\u5de5\u5546\u5b66\u9662-\u7bee\u7403\u573a", "biz": "080104 \u4f53\u80b2\u4f11\u95f2\u670d\u52a1;\u8fd0\u52a8\u573a\u9986;\u7bee\u7403\u573a\u9986", "pty": "0801"}}, {"type": "Feature", "geometry": {"type": "Point", "coordinates": [121.68049744799252, 31.20650540596998]}, "properties": {"name": "\u91d1\u6865\u9633\u5149\u82b1\u82d1\u7bee\u7403\u573a", "biz": "080104 \u4f53\u80b2\u4f11\u95f2\u670d\u52a1;\u8fd0\u52a8\u573a\u9986;\u7bee\u7403\u573a\u9986", "pty": "0801"}}, {"type": "Feature", "geometry": {"type": "Point", "coordinates": [121.52624455498024, 31.19245909233265]}, "properties": {"name": "\u563f\u7329\u7329\u7fbd\u6bdb\u7403\u7bee\u7403\u8bad\u7ec3\u8425(\u7531\u7531\u9986)", "biz": "080104 \u4f53\u80b2\u4f11\u95f2\u670d\u52a1;\u8fd0\u52a8\u573a\u9986;\u7bee\u7403\u573a\u9986", "pty": "0801"}}, {"type": "Feature", "geometry": {"type": "Point", "coordinates": [121.60741176608909, 31.269988719850037]}, "properties": {"name": "\u5448\u5eb7\u7bee\u7403\u4ff1\u4e50\u90e8(\u91d1\u6865\u7403\u9986)", "biz": "080104 \u4f53\u80b2\u4f11\u95f2\u670d\u52a1;\u8fd0\u52a8\u573a\u9986;\u7bee\u7403\u573a\u9986", "pty": "0801"}}, {"type": "Feature", "geometry": {"type": "Point", "coordinates": [121.31607594815884, 30.740113567293324]}, "properties": {"name": "\u534e\u4e1c\u7406\u5de5\u5927\u5b66\u7bee\u7403\u573a", "biz": "080104 \u4f53\u80b2\u4f11\u95f2\u670d\u52a1;\u8fd0\u52a8\u573a\u9986;\u7bee\u7403\u573a\u9986", "pty": "0801"}}, {"type": "Feature", "geometry": {"type": "Point", "coordinates": [121.33425345256168, 31.0967257009867]}, "properties": {"name": "\u7ea2\u706f\u7bee\u7403\u4ff1\u4e50\u90e8(RED LIGHT)", "biz": "080104 \u4f53\u80b2\u4f11\u95f2\u670d\u52a1;\u8fd0\u52a8\u573a\u9986;\u7bee\u7403\u573a\u9986", "pty": "0801"}}, {"type": "Feature", "geometry": {"type": "Point", "coordinates": [121.2528326971994, 31.10809205880555]}, "properties": {"name": "\u677e\u6c5f\u533a\u6cd7\u6cfe\u9547\u6da6\u6c5f\u82b1\u82d1\u516c\u5171\u8fd0\u52a8\u573a", "biz": "080104 \u4f53\u80b2\u4f11\u95f2\u670d\u52a1;\u8fd0\u52a8\u573a\u9986;\u7bee\u7403\u573a\u9986", "pty": "0801"}}, {"type": "Feature", "geometry": {"type": "Point", "coordinates": [121.21484120399332, 31.05443057059947]}, "properties": {"name": "\u4e1c\u534e\u5927\u5b66\u677e\u6c5f\u6821\u533a\u7bee\u7403\u573a", "biz": "080104 \u4f53\u80b2\u4f11\u95f2\u670d\u52a1;\u8fd0\u52a8\u573a\u9986;\u7bee\u7403\u573a\u9986", "pty": "0801"}}, {"type": "Feature", "geometry": {"type": "Point", "coordinates": [121.32506174639923, 31.14831508786969]}, "properties": {"name": "\u53c1\u4ec1\u4f53\u80b2\u7bee\u7403\u9986", "biz": "080104 \u4f53\u80b2\u4f11\u95f2\u670d\u52a1;\u8fd0\u52a8\u573a\u9986;\u7bee\u7403\u573a\u9986", "pty": "0801"}}, {"type": "Feature", "geometry": {"type": "Point", "coordinates": [121.2196384108511, 31.0519338303765]}, "properties": {"name": "\u4e0a\u6d77\u5916\u56fd\u8bed\u5927\u5b66\u677e\u6c5f\u6821\u533a\u7bee\u7403\u573a", "biz": "080104 \u4f53\u80b2\u4f11\u95f2\u670d\u52a1;\u8fd0\u52a8\u573a\u9986;\u7bee\u7403\u573a\u9986", "pty": "0801"}}, {"type": "Feature", "geometry": {"type": "Point", "coordinates": [121.2360974532369, 31.06688879150728]}, "properties": {"name": "\u4e0a\u6d77\u9633\u5149\u5eb7\u590d\u4e2d\u5fc3-\u7bee\u7403\u573a", "biz": "080104 \u4f53\u80b2\u4f11\u95f2\u670d\u52a1;\u8fd0\u52a8\u573a\u9986;\u7bee\u7403\u573a\u9986", "pty": "0801"}}, {"type": "Feature", "geometry": {"type": "Point", "coordinates": [121.20691586984044, 31.046365730547173]}, "properties": {"name": "\u4e0a\u6d77\u5927\u5b66\u751f\u4f53\u80b2\u4e2d\u5fc3-\u7bee\u7403\u573a", "biz": "080104 \u4f53\u80b2\u4f11\u95f2\u670d\u52a1;\u8fd0\u52a8\u573a\u9986;\u7bee\u7403\u573a\u9986", "pty": "0801"}}, {"type": "Feature", "geometry": {"type": "Point", "coordinates": [121.19965609503734, 31.056892449358948]}, "properties": {"name": "\u4e0a\u6d77\u5de5\u7a0b\u6280\u672f\u5927\u5b66\u677e\u6c5f\u6821\u533a\u7bee\u7403\u573a", "biz": "080104 \u4f53\u80b2\u4f11\u95f2\u670d\u52a1;\u8fd0\u52a8\u573a\u9986;\u7bee\u7403\u573a\u9986", "pty": "0801"}}, {"type": "Feature", "geometry": {"type": "Point", "coordinates": [121.19871909905379, 31.05077956383296]}, "properties": {"name": "\u4e0a\u6d77\u89c6\u89c9\u827a\u672f\u5b66\u9662\u7bee\u7403\u573a", "biz": "080104 \u4f53\u80b2\u4f11\u95f2\u670d\u52a1;\u8fd0\u52a8\u573a\u9986;\u7bee\u7403\u573a\u9986", "pty": "0801"}}, {"type": "Feature", "geometry": {"type": "Point", "coordinates": [121.11556598564034, 31.154472146984144]}, "properties": {"name": "\u4e0a\u6d77\u5e02\u9752\u6d66\u533a\u4f53\u80b2\u573a\u7bee\u7403\u573a", "biz": "080104 \u4f53\u80b2\u4f11\u95f2\u670d\u52a1;\u8fd0\u52a8\u573a\u9986;\u7bee\u7403\u573a\u9986", "pty": "0801"}}, {"type": "Feature", "geometry": {"type": "Point", "coordinates": [121.18554069561799, 31.20456408942626]}, "properties": {"name": "\u91cd\u56fa\u4f53\u80b2\u516c\u56ed\u7bee\u7403\u573a", "biz": "080104 \u4f53\u80b2\u4f11\u95f2\u670d\u52a1;\u8fd0\u52a8\u573a\u9986;\u7bee\u7403\u573a\u9986", "pty": "0801"}}, {"type": "Feature", "geometry": {"type": "Point", "coordinates": [121.4636763227711, 30.906129909601745]}, "properties": {"name": "\u5949\u8d24\u4f53\u80b2\u4e2d\u5fc3-\u7bee\u7403\u573a", "biz": "080104 \u4f53\u80b2\u4f11\u95f2\u670d\u52a1;\u8fd0\u52a8\u573a\u9986;\u7bee\u7403\u573a\u9986", "pty": "0801"}}, {"type": "Feature", "geometry": {"type": "Point", "coordinates": [121.5128299247831, 30.841450761874214]}, "properties": {"name": "\u98ce\u96e8\u7bee\u7403\u573a", "biz": "080104 \u4f53\u80b2\u4f11\u95f2\u670d\u52a1;\u8fd0\u52a8\u573a\u9986;\u7bee\u7403\u573a\u9986", "pty": "0801"}}, {"type": "Feature", "geometry": {"type": "Point", "coordinates": [121.50891870637113, 30.848164574202492]}, "properties": {"name": "\u4e0a\u6d77\u5e94\u7528\u6280\u672f\u5927\u5b66\u5949\u8d24\u6821\u533a\u7bee\u7403\u573a", "biz": "080104 \u4f53\u80b2\u4f11\u95f2\u670d\u52a1;\u8fd0\u52a8\u573a\u9986;\u7bee\u7403\u573a\u9986", "pty": "0801"}}, {"type": "Feature", "geometry": {"type": "Point", "coordinates": [121.66606964266191, 31.58063214689219]}, "properties": {"name": "\u4e0a\u6d77\u805a\u94f6\u5e84\u56ed\u5ea6\u5047\u6751-\u7bee\u7403\u573a", "biz": "080104 \u4f53\u80b2\u4f11\u95f2\u670d\u52a1;\u8fd0\u52a8\u573a\u9986;\u7bee\u7403\u573a\u9986", "pty": "0801"}}]}