{"type": "FeatureCollection", "features": [{"type": "Feature", "geometry": {"type": "Point", "coordinates": [121.37007007833212, 31.218132588003744]}, "properties": {"name": "\u4e2d\u56fd\u79fb\u52a8(\u5929\u5c71\u897f\u8def\u8425\u4e1a\u5385)", "biz": "070603|060305 \u751f\u6d3b\u670d\u52a1;\u7535\u8baf\u8425\u4e1a\u5385;\u4e2d\u56fd\u79fb\u52a8\u8425\u4e1a\u5385|\u8d2d\u7269\u670d\u52a1;\u5bb6\u7535\u7535\u5b50\u5356\u573a;\u624b\u673a\u9500\u552e", "pty": "0706"}}, {"type": "Feature", "geometry": {"type": "Point", "coordinates": [121.42603231547058, 31.21993880303684]}, "properties": {"name": "\u4e2d\u56fd\u79fb\u52a8(\u6c5f\u82cf\u8def\u8425\u4e1a\u5385)", "biz": "070603|060305 \u751f\u6d3b\u670d\u52a1;\u7535\u8baf\u8425\u4e1a\u5385;\u4e2d\u56fd\u79fb\u52a8\u8425\u4e1a\u5385|\u8d2d\u7269\u670d\u52a1;\u5bb6\u7535\u7535\u5b50\u5356\u573a;\u624b\u673a\u9500\u552e", "pty": "0706"}}, {"type": "Feature", "geometry": {"type": "Point", "coordinates": [121.36381540720456, 31.211816089307522]}, "properties": {"name": "\u4e2d\u56fd\u79fb\u52a8(\u5251\u6cb3\u8def)", "biz": "070603|060305 \u751f\u6d3b\u670d\u52a1;\u7535\u8baf\u8425\u4e1a\u5385;\u4e2d\u56fd\u79fb\u52a8\u8425\u4e1a\u5385|\u8d2d\u7269\u670d\u52a1;\u5bb6\u7535\u7535\u5b50\u5356\u573a;\u624b\u673a\u9500\u552e", "pty": "0706"}}, {"type": "Feature", "geometry": {"type": "Point", "coordinates": [121.42641087013881, 31.22017717028339]}, "properties": {"name": "\u4e2d\u56fd\u8054\u901a(\u821c\u5143\u00b7\u5f18\u57fa\u5929\u5730)(\u88c5\u4fee\u4e2d)", "biz": "070604|060305 \u751f\u6d3b\u670d\u52a1;\u7535\u8baf\u8425\u4e1a\u5385;\u4e2d\u56fd\u8054\u901a\u8425\u4e1a\u5385|\u8d2d\u7269\u670d\u52a1;\u5bb6\u7535\u7535\u5b50\u5356\u573a;\u624b\u673a\u9500\u552e", "pty": "0706"}}, {"type": "Feature", "geometry": {"type": "Point", "coordinates": [121.35348611727713, 31.220510787853506]}, "properties": {"name": "\u4e2d\u56fd\u7535\u4fe1(\u5929\u5c71\u897f\u8def\u5929\u7ffc\u4e13\u8425\u5e97)", "biz": "070601|060305 \u751f\u6d3b\u670d\u52a1;\u7535\u8baf\u8425\u4e1a\u5385;\u4e2d\u56fd\u7535\u4fe1\u8425\u4e1a\u5385|\u8d2d\u7269\u670d\u52a1;\u5bb6\u7535\u7535\u5b50\u5356\u573a;\u624b\u673a\u9500\u552e", "pty": "0706"}}, {"type": "Feature", "geometry": {"type": "Point", "coordinates": [121.4270459942505, 31.21853776607072]}, "properties": {"name": "\u4e2d\u56fd\u7535\u4fe1(\u6c5f\u82cf\u8def\u8425\u4e1a\u5385)", "biz": "070601 \u751f\u6d3b\u670d\u52a1;\u7535\u8baf\u8425\u4e1a\u5385;\u4e2d\u56fd\u7535\u4fe1\u8425\u4e1a\u5385", "pty": "0706"}}, {"type": "Feature", "geometry": {"type": "Point", "coordinates": [121.37728896121718, 31.217384943843218]}, "properties": {"name": "\u4e2d\u56fd\u7535\u4fe1(\u5929\u5c71\u8def\u8425\u4e1a\u5385)", "biz": "070601 \u751f\u6d3b\u670d\u52a1;\u7535\u8baf\u8425\u4e1a\u5385;\u4e2d\u56fd\u7535\u4fe1\u8425\u4e1a\u5385", "pty": "0706"}}, {"type": "Feature", "geometry": {"type": "Point", "coordinates": [121.3958224055979, 31.20035343141485]}, "properties": {"name": "\u4e2d\u56fd\u7535\u4fe1(\u91d1\u73e0\u8def\u8425\u4e1a\u5385)", "biz": "070601 \u751f\u6d3b\u670d\u52a1;\u7535\u8baf\u8425\u4e1a\u5385;\u4e2d\u56fd\u7535\u4fe1\u8425\u4e1a\u5385", "pty": "0706"}}, {"type": "Feature", "geometry": {"type": "Point", "coordinates": [121.36844494577437, 31.209745425790395]}, "properties": {"name": "\u4e2d\u56fd\u7535\u4fe1(\u4ed9\u971e\u8def\u8425\u4e1a\u5385)", "biz": "070601 \u751f\u6d3b\u670d\u52a1;\u7535\u8baf\u8425\u4e1a\u5385;\u4e2d\u56fd\u7535\u4fe1\u8425\u4e1a\u5385", "pty": "0706"}}, {"type": "Feature", "geometry": {"type": "Point", "coordinates": [121.40095592365016, 31.22039792955414]}, "properties": {"name": "\u4e2d\u56fd\u7535\u4fe1", "biz": "070601 \u751f\u6d3b\u670d\u52a1;\u7535\u8baf\u8425\u4e1a\u5385;\u4e2d\u56fd\u7535\u4fe1\u8425\u4e1a\u5385", "pty": "0706"}}, {"type": "Feature", "geometry": {"type": "Point", "coordinates": [121.41399692749359, 31.219696931930837]}, "properties": {"name": "\u82cf\u5b81\u6613\u8d2d\u901a\u8baf\u7535\u4fe1\u8425\u4e1a\u5385", "biz": "070601 \u751f\u6d3b\u670d\u52a1;\u7535\u8baf\u8425\u4e1a\u5385;\u4e2d\u56fd\u7535\u4fe1\u8425\u4e1a\u5385", "pty": "0706"}}, {"type": "Feature", "geometry": {"type": "Point", "coordinates": [121.41406697176191, 31.219897887920848]}, "properties": {"name": "\u4e2d\u56fd\u7535\u4fe1(\u5146\u4e30\u5e7f\u573a)", "biz": "070601 \u751f\u6d3b\u670d\u52a1;\u7535\u8baf\u8425\u4e1a\u5385;\u4e2d\u56fd\u7535\u4fe1\u8425\u4e1a\u5385", "pty": "0706"}}, {"type": "Feature", "geometry": {"type": "Point", "coordinates": [121.41191421232733, 31.219675523072286]}, "properties": {"name": "\u4e2d\u56fd\u7535\u4fe1(\u957f\u5b81\u8def\u8425\u4e1a\u5385)", "biz": "070601 \u751f\u6d3b\u670d\u52a1;\u7535\u8baf\u8425\u4e1a\u5385;\u4e2d\u56fd\u7535\u4fe1\u8425\u4e1a\u5385", "pty": "0706"}}, {"type": "Feature", "geometry": {"type": "Point", "coordinates": [121.36936993349917, 31.218740074715324]}, "properties": {"name": "\u4e2d\u56fd\u7535\u4fe1(\u516c\u60e0\u5929\u5c71\u897f\u8def\u8425\u4e1a\u5385)", "biz": "070601 \u751f\u6d3b\u670d\u52a1;\u7535\u8baf\u8425\u4e1a\u5385;\u4e2d\u56fd\u7535\u4fe1\u8425\u4e1a\u5385", "pty": "0706"}}, {"type": "Feature", "geometry": {"type": "Point", "coordinates": [121.39510791570657, 31.206797362295216]}, "properties": {"name": "\u4e2d\u56fd\u79fb\u52a8(\u53e4\u5317\u8425\u4e1a\u5385)", "biz": "070603 \u751f\u6d3b\u670d\u52a1;\u7535\u8baf\u8425\u4e1a\u5385;\u4e2d\u56fd\u79fb\u52a8\u8425\u4e1a\u5385", "pty": "0706"}}, {"type": "Feature", "geometry": {"type": "Point", "coordinates": [121.41776681035286, 31.21753302198414]}, "properties": {"name": "\u4e2d\u56fd\u79fb\u52a8(\u4e2d\u5c71\u516c\u56ed\u8425\u4e1a\u5385)", "biz": "070603 \u751f\u6d3b\u670d\u52a1;\u7535\u8baf\u8425\u4e1a\u5385;\u4e2d\u56fd\u79fb\u52a8\u8425\u4e1a\u5385", "pty": "0706"}}, {"type": "Feature", "geometry": {"type": "Point", "coordinates": [121.41820128313049, 31.206050930312895]}, "properties": {"name": "\u4e2d\u56fd\u79fb\u52a8(\u65b0\u534e\u8def\u8425\u4e1a\u5385)", "biz": "070603 \u751f\u6d3b\u670d\u52a1;\u7535\u8baf\u8425\u4e1a\u5385;\u4e2d\u56fd\u79fb\u52a8\u8425\u4e1a\u5385", "pty": "0706"}}, {"type": "Feature", "geometry": {"type": "Point", "coordinates": [121.40328115928179, 31.212821988779293]}, "properties": {"name": "\u4e2d\u56fd\u79fb\u52a8(\u9075\u4e49\u8def\u8425\u4e1a\u5385)", "biz": "070603 \u751f\u6d3b\u670d\u52a1;\u7535\u8baf\u8425\u4e1a\u5385;\u4e2d\u56fd\u79fb\u52a8\u8425\u4e1a\u5385", "pty": "0706"}}, {"type": "Feature", "geometry": {"type": "Point", "coordinates": [121.38320100804322, 31.21690287609707]}, "properties": {"name": "\u4e2d\u56fd\u79fb\u52a8(\u5a01\u5b81\u8def\u8425\u4e1a\u5385)", "biz": "070603 \u751f\u6d3b\u670d\u52a1;\u7535\u8baf\u8425\u4e1a\u5385;\u4e2d\u56fd\u79fb\u52a8\u8425\u4e1a\u5385", "pty": "0706"}}, {"type": "Feature", "geometry": {"type": "Point", "coordinates": [121.39241660193748, 31.216188314053863]}, "properties": {"name": "\u4e2d\u56fd\u79fb\u52a8(\u6052\u8702\u5e97)", "biz": "070603 \u751f\u6d3b\u670d\u52a1;\u7535\u8baf\u8425\u4e1a\u5385;\u4e2d\u56fd\u79fb\u52a8\u8425\u4e1a\u5385", "pty": "0706"}}, {"type": "Feature", "geometry": {"type": "Point", "coordinates": [121.41226847716939, 31.21980069141018]}, "properties": {"name": "\u4e2d\u56fd\u8054\u901a(\u957f\u5b81\u8def\u8425\u4e1a\u5385)", "biz": "070604 \u751f\u6d3b\u670d\u52a1;\u7535\u8baf\u8425\u4e1a\u5385;\u4e2d\u56fd\u8054\u901a\u8425\u4e1a\u5385", "pty": "0706"}}, {"type": "Feature", "geometry": {"type": "Point", "coordinates": [121.39892172583585, 31.196623215843612]}, "properties": {"name": "\u4e2d\u56fd\u8054\u901a(\u9ec4\u91d1\u57ce\u9053\u8425\u4e1a\u5385)", "biz": "070604 \u751f\u6d3b\u670d\u52a1;\u7535\u8baf\u8425\u4e1a\u5385;\u4e2d\u56fd\u8054\u901a\u8425\u4e1a\u5385", "pty": "0706"}}, {"type": "Feature", "geometry": {"type": "Point", "coordinates": [121.38229574349357, 31.21604185623132]}, "properties": {"name": "\u4e2d\u56fd\u8054\u901a(\u5a01\u5b81\u8def\u8425\u4e1a\u5385)", "biz": "070604 \u751f\u6d3b\u670d\u52a1;\u7535\u8baf\u8425\u4e1a\u5385;\u4e2d\u56fd\u8054\u901a\u8425\u4e1a\u5385", "pty": "0706"}}, {"type": "Feature", "geometry": {"type": "Point", "coordinates": [121.36924085872728, 31.210059370239488]}, "properties": {"name": "\u4e2d\u56fd\u8054\u901a(\u4ed9\u971e\u8def\u8425\u4e1a\u5385)", "biz": "070604 \u751f\u6d3b\u670d\u52a1;\u7535\u8baf\u8425\u4e1a\u5385;\u4e2d\u56fd\u8054\u901a\u8425\u4e1a\u5385", "pty": "0706"}}, {"type": "Feature", "geometry": {"type": "Point", "coordinates": [121.3645945664613, 31.21948842972077]}, "properties": {"name": "\u4e2d\u56fd\u8054\u901a(\u5317\u65b0\u6cfe\u8425\u4e1a\u5385)", "biz": "070604 \u751f\u6d3b\u670d\u52a1;\u7535\u8baf\u8425\u4e1a\u5385;\u4e2d\u56fd\u8054\u901a\u8425\u4e1a\u5385", "pty": "0706"}}, {"type": "Feature", "geometry": {"type": "Point", "coordinates": [121.41900911115633, 31.206970239354806]}, "properties": {"name": "\u4e2d\u56fd\u8054\u901a(\u5b9a\u897f\u8def\u8425\u4e1a\u5385)", "biz": "070604 \u751f\u6d3b\u670d\u52a1;\u7535\u8baf\u8425\u4e1a\u5385;\u4e2d\u56fd\u8054\u901a\u8425\u4e1a\u5385", "pty": "0706"}}, {"type": "Feature", "geometry": {"type": "Point", "coordinates": [121.35693671720455, 31.22273047108038]}, "properties": {"name": "\u4e2d\u56fd\u8054\u901a(\u6dde\u8679\u8def\u8425\u4e1a\u5385)", "biz": "070604 \u751f\u6d3b\u670d\u52a1;\u7535\u8baf\u8425\u4e1a\u5385;\u4e2d\u56fd\u8054\u901a\u8425\u4e1a\u5385", "pty": "0706"}}, {"type": "Feature", "geometry": {"type": "Point", "coordinates": [121.38012241974084, 31.193831153150732]}, "properties": {"name": "\u4e2d\u56fd\u8054\u901a(\u7a0b\u5bb6\u6865\u8425\u4e1a\u5385)", "biz": "070604 \u751f\u6d3b\u670d\u52a1;\u7535\u8baf\u8425\u4e1a\u5385;\u4e2d\u56fd\u8054\u901a\u8425\u4e1a\u5385", "pty": "0706"}}, {"type": "Feature", "geometry": {"type": "Point", "coordinates": [121.40066755184716, 31.21260060382126]}, "properties": {"name": "\u4e2d\u56fd\u8054\u901a(\u5929\u5c71\u8def\u8425\u4e1a\u5385)", "biz": "070604 \u751f\u6d3b\u670d\u52a1;\u7535\u8baf\u8425\u4e1a\u5385;\u4e2d\u56fd\u8054\u901a\u8425\u4e1a\u5385", "pty": "0706"}}, {"type": "Feature", "geometry": {"type": "Point", "coordinates": [121.41644002975873, 31.19907479049704]}, "properties": {"name": "\u4e2d\u56fd\u8054\u901a(\u5730\u94c1\u8679\u6865\u8def\u7ad9\u8425\u4e1a\u5385)", "biz": "070604 \u751f\u6d3b\u670d\u52a1;\u7535\u8baf\u8425\u4e1a\u5385;\u4e2d\u56fd\u8054\u901a\u8425\u4e1a\u5385", "pty": "0706"}}, {"type": "Feature", "geometry": {"type": "Point", "coordinates": [121.3706722611614, 31.2187276520674]}, "properties": {"name": "\u4e2d\u56fd\u8054\u901a(\u5929\u5c71\u897f\u8def\u8425\u4e1a\u5385)", "biz": "070604 \u751f\u6d3b\u670d\u52a1;\u7535\u8baf\u8425\u4e1a\u5385;\u4e2d\u56fd\u8054\u901a\u8425\u4e1a\u5385", "pty": "0706"}}, {"type": "Feature", "geometry": {"type": "Point", "coordinates": [121.39292526756026, 31.207133552646216]}, "properties": {"name": "\u4e2d\u56fd\u8054\u901a(\u79fb\u52a8\u4e92\u8054\u7f51\u56fd\u9645\u521b\u4e1a\u4e2d\u5fc3)", "biz": "070604 \u751f\u6d3b\u670d\u52a1;\u7535\u8baf\u8425\u4e1a\u5385;\u4e2d\u56fd\u8054\u901a\u8425\u4e1a\u5385", "pty": "0706"}}, {"type": "Feature", "geometry": {"type": "Point", "coordinates": [121.41612503777287, 31.19535636004476]}, "properties": {"name": "\u4e2d\u56fd\u94c1\u901a(\u957f\u5b81\u5206\u516c\u53f8)", "biz": "070605 \u751f\u6d3b\u670d\u52a1;\u7535\u8baf\u8425\u4e1a\u5385;\u4e2d\u56fd\u94c1\u901a\u8425\u4e1a\u5385", "pty": "0706"}}, {"type": "Feature", "geometry": {"type": "Point", "coordinates": [121.42909239940998, 31.217351086289824]}, "properties": {"name": "\u548c\u8bb0\u7535\u8baf", "biz": "070607 \u751f\u6d3b\u670d\u52a1;\u7535\u8baf\u8425\u4e1a\u5385;\u548c\u8bb0\u7535\u8baf", "pty": "0706"}}, {"type": "Feature", "geometry": {"type": "Point", "coordinates": [121.44431650876854, 31.261542831980496]}, "properties": {"name": "\u4e2d\u56fd\u79fb\u52a8\u901a\u8baf(\u6cf0\u5c71\u652f\u8def)", "biz": "060305|070603 \u8d2d\u7269\u670d\u52a1;\u5bb6\u7535\u7535\u5b50\u5356\u573a;\u624b\u673a\u9500\u552e|\u751f\u6d3b\u670d\u52a1;\u7535\u8baf\u8425\u4e1a\u5385;\u4e2d\u56fd\u79fb\u52a8\u8425\u4e1a\u5385", "pty": "0603"}}, {"type": "Feature", "geometry": {"type": "Point", "coordinates": [121.45476395486497, 31.24631726139999]}, "properties": {"name": "\u4e2d\u56fd\u7535\u4fe1(\u5171\u548c\u8def\u8425\u4e1a\u5385)", "biz": "070601 \u751f\u6d3b\u670d\u52a1;\u7535\u8baf\u8425\u4e1a\u5385;\u4e2d\u56fd\u7535\u4fe1\u8425\u4e1a\u5385", "pty": "0706"}}, {"type": "Feature", "geometry": {"type": "Point", "coordinates": [121.4544412359643, 31.232593758160544]}, "properties": {"name": "\u4e2d\u56fd\u7535\u4fe1(\u6cf0\u5174\u8def\u8425\u4e1a\u5385)", "biz": "070601 \u751f\u6d3b\u670d\u52a1;\u7535\u8baf\u8425\u4e1a\u5385;\u4e2d\u56fd\u7535\u4fe1\u8425\u4e1a\u5385", "pty": "0706"}}, {"type": "Feature", "geometry": {"type": "Point", "coordinates": [121.42600398321855, 31.234779842720037]}, "properties": {"name": "\u4e2d\u56fd\u7535\u4fe1(\u6b66\u5b81\u5357\u8def\u8425\u4e1a\u5385)", "biz": "170208|070601 \u516c\u53f8\u4f01\u4e1a;\u516c\u53f8;\u7535\u4fe1\u516c\u53f8|\u751f\u6d3b\u670d\u52a1;\u7535\u8baf\u8425\u4e1a\u5385;\u4e2d\u56fd\u7535\u4fe1\u8425\u4e1a\u5385", "pty": "1702"}}, {"type": "Feature", "geometry": {"type": "Point", "coordinates": [121.45580054695151, 31.319680460711815]}, "properties": {"name": "\u4e2d\u56fd\u7535\u4fe1(\u4fdd\u5fb7\u8def\u8425\u4e1a\u5385)", "biz": "070601 \u751f\u6d3b\u670d\u52a1;\u7535\u8baf\u8425\u4e1a\u5385;\u4e2d\u56fd\u7535\u4fe1\u8425\u4e1a\u5385", "pty": "0706"}}, {"type": "Feature", "geometry": {"type": "Point", "coordinates": [121.45369458455765, 31.27409966991746]}, "properties": {"name": "\u4e2d\u56fd\u7535\u4fe1(\u5929\u7ffc\u8425\u4e1a\u5385)", "biz": "070601 \u751f\u6d3b\u670d\u52a1;\u7535\u8baf\u8425\u4e1a\u5385;\u4e2d\u56fd\u7535\u4fe1\u8425\u4e1a\u5385", "pty": "0706"}}, {"type": "Feature", "geometry": {"type": "Point", "coordinates": [121.43653762264792, 31.315755421871277]}, "properties": {"name": "\u4e2d\u56fd\u7535\u4fe1(\u4e09\u6cc9\u8def\u8425\u4e1a\u5385)", "biz": "070601 \u751f\u6d3b\u670d\u52a1;\u7535\u8baf\u8425\u4e1a\u5385;\u4e2d\u56fd\u7535\u4fe1\u8425\u4e1a\u5385", "pty": "0706"}}, {"type": "Feature", "geometry": {"type": "Point", "coordinates": [121.44437436587631, 31.241673769577897]}, "properties": {"name": "\u4e2d\u56fd\u7535\u4fe1(\u6d77\u9632\u8def\u8425\u4e1a\u5385)", "biz": "070601 \u751f\u6d3b\u670d\u52a1;\u7535\u8baf\u8425\u4e1a\u5385;\u4e2d\u56fd\u7535\u4fe1\u8425\u4e1a\u5385", "pty": "0706"}}, {"type": "Feature", "geometry": {"type": "Point", "coordinates": [121.44825756056699, 31.315466027273562]}, "properties": {"name": "\u4e2d\u56fd\u7535\u4fe1(\u6c7e\u897f\u8def\u8425\u4e1a\u5385)", "biz": "070601 \u751f\u6d3b\u670d\u52a1;\u7535\u8baf\u8425\u4e1a\u5385;\u4e2d\u56fd\u7535\u4fe1\u8425\u4e1a\u5385", "pty": "0706"}}, {"type": "Feature", "geometry": {"type": "Point", "coordinates": [121.46229856713724, 31.26344519018176]}, "properties": {"name": "\u4e2d\u56fd\u7535\u4fe1(\u516c\u60e0\u897f\u85cf\u5317\u8def\u8425\u4e1a\u5385)", "biz": "070601 \u751f\u6d3b\u670d\u52a1;\u7535\u8baf\u8425\u4e1a\u5385;\u4e2d\u56fd\u7535\u4fe1\u8425\u4e1a\u5385", "pty": "0706"}}, {"type": "Feature", "geometry": {"type": "Point", "coordinates": [121.44963603207857, 31.28173736487055]}, "properties": {"name": "\u4e2d\u56fd\u7535\u4fe1(\u5e7f\u4e2d\u8def\u8425\u4e1a\u5385)", "biz": "070601 \u751f\u6d3b\u670d\u52a1;\u7535\u8baf\u8425\u4e1a\u5385;\u4e2d\u56fd\u7535\u4fe1\u8425\u4e1a\u5385", "pty": "0706"}}, {"type": "Feature", "geometry": {"type": "Point", "coordinates": [121.42268604150566, 31.29470708190042]}, "properties": {"name": "\u4e2d\u56fd\u7535\u4fe1(\u9ad8\u5e73\u8def\u8425\u4e1a\u5385)", "biz": "070601 \u751f\u6d3b\u670d\u52a1;\u7535\u8baf\u8425\u4e1a\u5385;\u4e2d\u56fd\u7535\u4fe1\u8425\u4e1a\u5385", "pty": "0706"}}, {"type": "Feature", "geometry": {"type": "Point", "coordinates": [121.46970783646813, 31.253727037905925]}, "properties": {"name": "\u4e2d\u56fd\u7535\u4fe1", "biz": "070601 \u751f\u6d3b\u670d\u52a1;\u7535\u8baf\u8425\u4e1a\u5385;\u4e2d\u56fd\u7535\u4fe1\u8425\u4e1a\u5385", "pty": "0706"}}, {"type": "Feature", "geometry": {"type": "Point", "coordinates": [121.45175370977688, 31.257730285218624]}, "properties": {"name": "\u4e2d\u56fd\u7535\u4fe1(\u666e\u5584\u8def\u8425\u4e1a\u5385)", "biz": "070601 \u751f\u6d3b\u670d\u52a1;\u7535\u8baf\u8425\u4e1a\u5385;\u4e2d\u56fd\u7535\u4fe1\u8425\u4e1a\u5385", "pty": "0706"}}, {"type": "Feature", "geometry": {"type": "Point", "coordinates": [121.44571967459338, 31.28717685792021]}, "properties": {"name": "\u4e0a\u6d77\u5e02\u5317\u533a\u7535\u4fe1\u5c40", "biz": "070601 \u751f\u6d3b\u670d\u52a1;\u7535\u8baf\u8425\u4e1a\u5385;\u4e2d\u56fd\u7535\u4fe1\u8425\u4e1a\u5385", "pty": "0706"}}, {"type": "Feature", "geometry": {"type": "Point", "coordinates": [121.43832265450871, 31.231241160945853]}, "properties": {"name": "\u4e2d\u56fd\u7535\u4fe1(\u80f6\u5dde\u8def\u8425\u4e1a\u5385)", "biz": "070601 \u751f\u6d3b\u670d\u52a1;\u7535\u8baf\u8425\u4e1a\u5385;\u4e2d\u56fd\u7535\u4fe1\u8425\u4e1a\u5385", "pty": "0706"}}, {"type": "Feature", "geometry": {"type": "Point", "coordinates": [121.4498013269829, 31.2485959999821]}, "properties": {"name": "\u4e2d\u56fd\u79fb\u52a8(\u5929\u76ee\u897f\u8def\u8425\u4e1a\u5385)", "biz": "070603 \u751f\u6d3b\u670d\u52a1;\u7535\u8baf\u8425\u4e1a\u5385;\u4e2d\u56fd\u79fb\u52a8\u8425\u4e1a\u5385", "pty": "0706"}}, {"type": "Feature", "geometry": {"type": "Point", "coordinates": [121.4543430179882, 31.231947827641076]}, "properties": {"name": "\u4e2d\u56fd\u79fb\u52a8(\u5357\u4eac\u897f\u8def\u8425\u4e1a\u5385)", "biz": "070603 \u751f\u6d3b\u670d\u52a1;\u7535\u8baf\u8425\u4e1a\u5385;\u4e2d\u56fd\u79fb\u52a8\u8425\u4e1a\u5385", "pty": "0706"}}, {"type": "Feature", "geometry": {"type": "Point", "coordinates": [121.42345690790988, 31.22785698268411]}, "properties": {"name": "\u4e2d\u56fd\u79fb\u52a8(\u957f\u5b81\u8def\u8425\u4e1a\u5385)", "biz": "070603 \u751f\u6d3b\u670d\u52a1;\u7535\u8baf\u8425\u4e1a\u5385;\u4e2d\u56fd\u79fb\u52a8\u8425\u4e1a\u5385", "pty": "0706"}}, {"type": "Feature", "geometry": {"type": "Point", "coordinates": [121.45859234565296, 31.2763973812168]}, "properties": {"name": "\u4e2d\u56fd\u79fb\u52a8(\u5ef6\u957f\u8def\u8425\u4e1a\u5385)", "biz": "070603 \u751f\u6d3b\u670d\u52a1;\u7535\u8baf\u8425\u4e1a\u5385;\u4e2d\u56fd\u79fb\u52a8\u8425\u4e1a\u5385", "pty": "0706"}}, {"type": "Feature", "geometry": {"type": "Point", "coordinates": [121.4703687593031, 31.2565146166324]}, "properties": {"name": "\u4e2d\u56fd\u79fb\u52a8(\u6c38\u5174\u8def\u8425\u4e1a\u5385)", "biz": "070603 \u751f\u6d3b\u670d\u52a1;\u7535\u8baf\u8425\u4e1a\u5385;\u4e2d\u56fd\u79fb\u52a8\u8425\u4e1a\u5385", "pty": "0706"}}, {"type": "Feature", "geometry": {"type": "Point", "coordinates": [121.43086127660469, 31.32257789232206]}, "properties": {"name": "\u4e2d\u56fd\u79fb\u52a8(\u5e99\u884c\u8425\u4e1a\u5385)", "biz": "070603 \u751f\u6d3b\u670d\u52a1;\u7535\u8baf\u8425\u4e1a\u5385;\u4e2d\u56fd\u79fb\u52a8\u8425\u4e1a\u5385", "pty": "0706"}}, {"type": "Feature", "geometry": {"type": "Point", "coordinates": [121.44619966081503, 31.312471850475923]}, "properties": {"name": "\u4e2d\u56fd\u79fb\u52a8(\u4e34\u6c7e\u8def\u8425\u4e1a\u5385)", "biz": "070603 \u751f\u6d3b\u670d\u52a1;\u7535\u8baf\u8425\u4e1a\u5385;\u4e2d\u56fd\u79fb\u52a8\u8425\u4e1a\u5385", "pty": "0706"}}, {"type": "Feature", "geometry": {"type": "Point", "coordinates": [121.4442573742626, 31.31917238520583]}, "properties": {"name": "\u4e2d\u56fd\u79fb\u52a8\u6388\u6743\u4ee3\u7406\u5e97", "biz": "070603 \u751f\u6d3b\u670d\u52a1;\u7535\u8baf\u8425\u4e1a\u5385;\u4e2d\u56fd\u79fb\u52a8\u8425\u4e1a\u5385", "pty": "0706"}}, {"type": "Feature", "geometry": {"type": "Point", "coordinates": [121.45873829938171, 31.258695324117284]}, "properties": {"name": "\u4e2d\u56fd\u79fb\u52a8(\u82b7\u6c5f\u897f\u8def\u8425\u4e1a\u5385)", "biz": "070603 \u751f\u6d3b\u670d\u52a1;\u7535\u8baf\u8425\u4e1a\u5385;\u4e2d\u56fd\u79fb\u52a8\u8425\u4e1a\u5385", "pty": "0706"}}, {"type": "Feature", "geometry": {"type": "Point", "coordinates": [121.42693791436768, 31.286525526398012]}, "properties": {"name": "\u4e2d\u56fd\u79fb\u52a8(\u9633\u57ce\u8def\u8425\u4e1a\u5385)", "biz": "070603 \u751f\u6d3b\u670d\u52a1;\u7535\u8baf\u8425\u4e1a\u5385;\u4e2d\u56fd\u79fb\u52a8\u8425\u4e1a\u5385", "pty": "0706"}}, {"type": "Feature", "geometry": {"type": "Point", "coordinates": [121.43317036742802, 31.28917536217279]}, "properties": {"name": "\u4e2d\u56fd\u79fb\u52a8\u6388\u6743\u4ee3\u7406\u5e97", "biz": "070603 \u751f\u6d3b\u670d\u52a1;\u7535\u8baf\u8425\u4e1a\u5385;\u4e2d\u56fd\u79fb\u52a8\u8425\u4e1a\u5385", "pty": "0706"}}, {"type": "Feature", "geometry": {"type": "Point", "coordinates": [121.45573653526709, 31.23656897754527]}, "properties": {"name": "\u4e2d\u56fd\u79fb\u52a8(\u77f3\u95e8\u4e8c\u8def\u8425\u4e1a\u5385)", "biz": "070603 \u751f\u6d3b\u670d\u52a1;\u7535\u8baf\u8425\u4e1a\u5385;\u4e2d\u56fd\u79fb\u52a8\u8425\u4e1a\u5385", "pty": "0706"}}, {"type": "Feature", "geometry": {"type": "Point", "coordinates": [121.43796549664128, 31.23593237004599]}, "properties": {"name": "\u4e2d\u56fd\u79fb\u52a8(\u5e38\u5fb7\u8def\u8425\u4e1a\u5385)", "biz": "070603 \u751f\u6d3b\u670d\u52a1;\u7535\u8baf\u8425\u4e1a\u5385;\u4e2d\u56fd\u79fb\u52a8\u8425\u4e1a\u5385", "pty": "0706"}}, {"type": "Feature", "geometry": {"type": "Point", "coordinates": [121.44166014606489, 31.32138151564572]}, "properties": {"name": "\u4e2d\u56fd\u79fb\u52a8", "biz": "070603 \u751f\u6d3b\u670d\u52a1;\u7535\u8baf\u8425\u4e1a\u5385;\u4e2d\u56fd\u79fb\u52a8\u8425\u4e1a\u5385", "pty": "0706"}}, {"type": "Feature", "geometry": {"type": "Point", "coordinates": [121.44883897012416, 31.281723644666386]}, "properties": {"name": "\u4e2d\u56fd\u79fb\u52a8(\u5171\u548c\u65b0\u8def\u8425\u4e1a\u5385)", "biz": "070603 \u751f\u6d3b\u670d\u52a1;\u7535\u8baf\u8425\u4e1a\u5385;\u4e2d\u56fd\u79fb\u52a8\u8425\u4e1a\u5385", "pty": "0706"}}, {"type": "Feature", "geometry": {"type": "Point", "coordinates": [121.47476517273631, 31.247455870124618]}, "properties": {"name": "\u4e2d\u56fd\u79fb\u52a8(\u4e03\u6d66\u8def\u8425\u4e1a\u5385)", "biz": "070603 \u751f\u6d3b\u670d\u52a1;\u7535\u8baf\u8425\u4e1a\u5385;\u4e2d\u56fd\u79fb\u52a8\u8425\u4e1a\u5385", "pty": "0706"}}, {"type": "Feature", "geometry": {"type": "Point", "coordinates": [121.42076933795185, 31.28590459273341]}, "properties": {"name": "\u4e2d\u56fd\u79fb\u52a8(\u56fd\u660e\u624b\u673a\u901a\u4fe1)", "biz": "070603 \u751f\u6d3b\u670d\u52a1;\u7535\u8baf\u8425\u4e1a\u5385;\u4e2d\u56fd\u79fb\u52a8\u8425\u4e1a\u5385", "pty": "0706"}}, {"type": "Feature", "geometry": {"type": "Point", "coordinates": [121.46636037680477, 31.261681541193948]}, "properties": {"name": "\u4e2d\u56fd\u79fb\u52a8(\u5317\u533a\u65f6\u5149\u901a\u8baf\u76f4\u4f9b\u5e97)", "biz": "070603 \u751f\u6d3b\u670d\u52a1;\u7535\u8baf\u8425\u4e1a\u5385;\u4e2d\u56fd\u79fb\u52a8\u8425\u4e1a\u5385", "pty": "0706"}}, {"type": "Feature", "geometry": {"type": "Point", "coordinates": [121.46970783646813, 31.253727037905925]}, "properties": {"name": "\u4e2d\u56fd\u79fb\u52a8", "biz": "070603 \u751f\u6d3b\u670d\u52a1;\u7535\u8baf\u8425\u4e1a\u5385;\u4e2d\u56fd\u79fb\u52a8\u8425\u4e1a\u5385", "pty": "0706"}}, {"type": "Feature", "geometry": {"type": "Point", "coordinates": [121.45354303841458, 31.29874023810982]}, "properties": {"name": "\u4e2d\u56fd\u79fb\u52a8(\u534f\u4fe1\u661f\u5149\u5e7f\u573a\u5e97)", "biz": "070603 \u751f\u6d3b\u670d\u52a1;\u7535\u8baf\u8425\u4e1a\u5385;\u4e2d\u56fd\u79fb\u52a8\u8425\u4e1a\u5385", "pty": "0706"}}, {"type": "Feature", "geometry": {"type": "Point", "coordinates": [121.44657619972378, 31.24767854289781]}, "properties": {"name": "\u4e2d\u56fd\u8054\u901a(\u5929\u76ee\u897f\u8def\u8425\u4e1a\u5385)", "biz": "070604 \u751f\u6d3b\u670d\u52a1;\u7535\u8baf\u8425\u4e1a\u5385;\u4e2d\u56fd\u8054\u901a\u8425\u4e1a\u5385", "pty": "0706"}}, {"type": "Feature", "geometry": {"type": "Point", "coordinates": [121.4508103842482, 31.313348383247014]}, "properties": {"name": "\u4e2d\u56fd\u8054\u901a(\u5f6d\u6d66\u8425\u4e1a\u5385)", "biz": "070604 \u751f\u6d3b\u670d\u52a1;\u7535\u8baf\u8425\u4e1a\u5385;\u4e2d\u56fd\u8054\u901a\u8425\u4e1a\u5385", "pty": "0706"}}, {"type": "Feature", "geometry": {"type": "Point", "coordinates": [121.43793643185698, 31.23597729850924]}, "properties": {"name": "\u4e2d\u56fd\u8054\u901a(\u5e38\u5fb7\u8def\u8425\u4e1a\u5385)", "biz": "070604 \u751f\u6d3b\u670d\u52a1;\u7535\u8baf\u8425\u4e1a\u5385;\u4e2d\u56fd\u8054\u901a\u8425\u4e1a\u5385", "pty": "0706"}}, {"type": "Feature", "geometry": {"type": "Point", "coordinates": [121.4622459339766, 31.2689366953499]}, "properties": {"name": "\u4e2d\u56fd\u8054\u901a(\u5e73\u578b\u5173\u8def\u8425\u4e1a\u5385)", "biz": "070604 \u751f\u6d3b\u670d\u52a1;\u7535\u8baf\u8425\u4e1a\u5385;\u4e2d\u56fd\u8054\u901a\u8425\u4e1a\u5385", "pty": "0706"}}, {"type": "Feature", "geometry": {"type": "Point", "coordinates": [121.4531604069252, 31.2475389954522]}, "properties": {"name": "OPPO\u8054\u901a\u5408\u4f5c\u8425\u4e1a\u5385", "biz": "070604 \u751f\u6d3b\u670d\u52a1;\u7535\u8baf\u8425\u4e1a\u5385;\u4e2d\u56fd\u8054\u901a\u8425\u4e1a\u5385", "pty": "0706"}}, {"type": "Feature", "geometry": {"type": "Point", "coordinates": [121.46642695363028, 31.245774749047186]}, "properties": {"name": "\u4e2d\u56fd\u8054\u901a(\u897f\u85cf\u5317\u8def\u8425\u4e1a\u5385)", "biz": "070604 \u751f\u6d3b\u670d\u52a1;\u7535\u8baf\u8425\u4e1a\u5385;\u4e2d\u56fd\u8054\u901a\u8425\u4e1a\u5385", "pty": "0706"}}, {"type": "Feature", "geometry": {"type": "Point", "coordinates": [121.45286067690054, 31.26967463093131]}, "properties": {"name": "\u4e2d\u56fd\u8054\u901a(\u4e0a\u6d77\u8054\u901a\u7279\u7ea6\u7ecf\u9500\u70b9)", "biz": "070604 \u751f\u6d3b\u670d\u52a1;\u7535\u8baf\u8425\u4e1a\u5385;\u4e2d\u56fd\u8054\u901a\u8425\u4e1a\u5385", "pty": "0706"}}, {"type": "Feature", "geometry": {"type": "Point", "coordinates": [121.46115272052506, 31.23281497937764]}, "properties": {"name": "\u4e2d\u56fd\u8054\u901a(\u5357\u4eac\u897f\u8def\u8425\u4e1a\u5385)", "biz": "070604 \u751f\u6d3b\u670d\u52a1;\u7535\u8baf\u8425\u4e1a\u5385;\u4e2d\u56fd\u8054\u901a\u8425\u4e1a\u5385", "pty": "0706"}}, {"type": "Feature", "geometry": {"type": "Point", "coordinates": [121.46970783646813, 31.253727037905925]}, "properties": {"name": "\u4e2d\u56fd\u8054\u901a(\u866c\u6c5f\u8def)", "biz": "070604 \u751f\u6d3b\u670d\u52a1;\u7535\u8baf\u8425\u4e1a\u5385;\u4e2d\u56fd\u8054\u901a\u8425\u4e1a\u5385", "pty": "0706"}}, {"type": "Feature", "geometry": {"type": "Point", "coordinates": [121.43945656225922, 31.22566278649306]}, "properties": {"name": "\u4e2d\u56fd\u8054\u901a(\u9759\u5b89\u5bfa\u8425\u4e1a\u5385)", "biz": "070604 \u751f\u6d3b\u670d\u52a1;\u7535\u8baf\u8425\u4e1a\u5385;\u4e2d\u56fd\u8054\u901a\u8425\u4e1a\u5385", "pty": "0706"}}, {"type": "Feature", "geometry": {"type": "Point", "coordinates": [121.44806782794747, 31.27213601247854]}, "properties": {"name": "\u6237\u5916\u804c\u5de5\u7231\u5fc3\u63a5\u529b\u7ad9\u00b7\u4e0a\u6d77\u8054\u901a\u5ef6\u957f\u4e2d\u8def\u8425\u4e1a\u5385", "biz": "070604 \u751f\u6d3b\u670d\u52a1;\u7535\u8baf\u8425\u4e1a\u5385;\u4e2d\u56fd\u8054\u901a\u8425\u4e1a\u5385", "pty": "0706"}}, {"type": "Feature", "geometry": {"type": "Point", "coordinates": [121.44669526960425, 31.284963774561948]}, "properties": {"name": "\u4e2d\u56fd\u8054\u901a(\u5171\u548c\u65b0\u8def\u8425\u4e1a\u5385)", "biz": "070604 \u751f\u6d3b\u670d\u52a1;\u7535\u8baf\u8425\u4e1a\u5385;\u4e2d\u56fd\u8054\u901a\u8425\u4e1a\u5385", "pty": "0706"}}, {"type": "Feature", "geometry": {"type": "Point", "coordinates": [121.46608308759355, 31.266454744212513]}, "properties": {"name": "\u4e2d\u56fd\u94c1\u901a(\u4e2d\u5c71\u5317\u8def)", "biz": "070605 \u751f\u6d3b\u670d\u52a1;\u7535\u8baf\u8425\u4e1a\u5385;\u4e2d\u56fd\u94c1\u901a\u8425\u4e1a\u5385", "pty": "0706"}}, {"type": "Feature", "geometry": {"type": "Point", "coordinates": [121.4172567319237, 31.23516432767324]}, "properties": {"name": "\u4e2d\u56fd\u79fb\u52a8\u7279\u7ea6\u76f4\u9500\u70b9", "biz": "070603|060305 \u751f\u6d3b\u670d\u52a1;\u7535\u8baf\u8425\u4e1a\u5385;\u4e2d\u56fd\u79fb\u52a8\u8425\u4e1a\u5385|\u8d2d\u7269\u670d\u52a1;\u5bb6\u7535\u7535\u5b50\u5356\u573a;\u624b\u673a\u9500\u552e", "pty": "0706"}}, {"type": "Feature", "geometry": {"type": "Point", "coordinates": [121.34299691399185, 31.289151115768536]}, "properties": {"name": "\u4e2d\u56fd\u79fb\u52a8(\u6843\u6d66\u8425\u4e1a\u5385)", "biz": "060305|070603 \u8d2d\u7269\u670d\u52a1;\u5bb6\u7535\u7535\u5b50\u5356\u573a;\u624b\u673a\u9500\u552e|\u751f\u6d3b\u670d\u52a1;\u7535\u8baf\u8425\u4e1a\u5385;\u4e2d\u56fd\u79fb\u52a8\u8425\u4e1a\u5385", "pty": "0603"}}, {"type": "Feature", "geometry": {"type": "Point", "coordinates": [121.40012816776428, 31.238972198351608]}, "properties": {"name": "\u4e2d\u56fd\u7535\u4fe1(\u5929\u7ffc\u624b\u673a\u5356\u573a)", "biz": "070601|060305 \u751f\u6d3b\u670d\u52a1;\u7535\u8baf\u8425\u4e1a\u5385;\u4e2d\u56fd\u7535\u4fe1\u8425\u4e1a\u5385|\u8d2d\u7269\u670d\u52a1;\u5bb6\u7535\u7535\u5b50\u5356\u573a;\u624b\u673a\u9500\u552e", "pty": "0706"}}, {"type": "Feature", "geometry": {"type": "Point", "coordinates": [121.343807781293, 31.2827153241055]}, "properties": {"name": "\u4e2d\u56fd\u79fb\u52a8(\u65b0\u90bb\u5929\u5730\u5e97)", "biz": "060305|070603 \u8d2d\u7269\u670d\u52a1;\u5bb6\u7535\u7535\u5b50\u5356\u573a;\u624b\u673a\u9500\u552e|\u751f\u6d3b\u670d\u52a1;\u7535\u8baf\u8425\u4e1a\u5385;\u4e2d\u56fd\u79fb\u52a8\u8425\u4e1a\u5385", "pty": "0603"}}, {"type": "Feature", "geometry": {"type": "Point", "coordinates": [121.40388201280845, 31.239682585544635]}, "properties": {"name": "\u4e2d\u56fd\u7535\u4fe1(\u66f9\u6768\u8425\u4e1a\u5385)", "biz": "070601 \u751f\u6d3b\u670d\u52a1;\u7535\u8baf\u8425\u4e1a\u5385;\u4e2d\u56fd\u7535\u4fe1\u8425\u4e1a\u5385", "pty": "0706"}}, {"type": "Feature", "geometry": {"type": "Point", "coordinates": [121.41651719665245, 31.266969555803755]}, "properties": {"name": "\u4e2d\u56fd\u7535\u4fe1(\u65b0\u6751\u8def\u8425\u4e1a\u5385)", "biz": "070601 \u751f\u6d3b\u670d\u52a1;\u7535\u8baf\u8425\u4e1a\u5385;\u4e2d\u56fd\u7535\u4fe1\u8425\u4e1a\u5385", "pty": "0706"}}, {"type": "Feature", "geometry": {"type": "Point", "coordinates": [121.40950962041943, 31.241448031676683]}, "properties": {"name": "\u4e2d\u56fd\u7535\u4fe1\u624b\u673a\u7ef4\u4fee", "biz": "070601 \u751f\u6d3b\u670d\u52a1;\u7535\u8baf\u8425\u4e1a\u5385;\u4e2d\u56fd\u7535\u4fe1\u8425\u4e1a\u5385", "pty": "0706"}}, {"type": "Feature", "geometry": {"type": "Point", "coordinates": [121.40593330699994, 31.26853050036702]}, "properties": {"name": "\u4e2d\u56fd\u7535\u4fe1(\u771f\u534e\u8def\u8425\u4e1a\u5385)", "biz": "070601 \u751f\u6d3b\u670d\u52a1;\u7535\u8baf\u8425\u4e1a\u5385;\u4e2d\u56fd\u7535\u4fe1\u8425\u4e1a\u5385", "pty": "0706"}}, {"type": "Feature", "geometry": {"type": "Point", "coordinates": [121.3458580207619, 31.28894820005934]}, "properties": {"name": "\u4e2d\u56fd\u7535\u4fe1", "biz": "070601 \u751f\u6d3b\u670d\u52a1;\u7535\u8baf\u8425\u4e1a\u5385;\u4e2d\u56fd\u7535\u4fe1\u8425\u4e1a\u5385", "pty": "0706"}}, {"type": "Feature", "geometry": {"type": "Point", "coordinates": [121.40845991021891, 31.242216155887455]}, "properties": {"name": "\u7535\u4fe1\u8425\u4e1a\u5385", "biz": "070601 \u751f\u6d3b\u670d\u52a1;\u7535\u8baf\u8425\u4e1a\u5385;\u4e2d\u56fd\u7535\u4fe1\u8425\u4e1a\u5385", "pty": "0706"}}, {"type": "Feature", "geometry": {"type": "Point", "coordinates": [121.38965456397716, 31.261313532262214]}, "properties": {"name": "\u4e2d\u56fd\u7535\u4fe1\u6843\u6d66\u8def\u8425\u4e1a\u5385", "biz": "070601 \u751f\u6d3b\u670d\u52a1;\u7535\u8baf\u8425\u4e1a\u5385;\u4e2d\u56fd\u7535\u4fe1\u8425\u4e1a\u5385", "pty": "0706"}}, {"type": "Feature", "geometry": {"type": "Point", "coordinates": [121.37574993745845, 31.235536793362712]}, "properties": {"name": "\u4e2d\u56fd\u7535\u4fe1(\u91d1\u6c99\u6c5f\u8def\u8425\u4e1a\u5385)", "biz": "070601 \u751f\u6d3b\u670d\u52a1;\u7535\u8baf\u8425\u4e1a\u5385;\u4e2d\u56fd\u7535\u4fe1\u8425\u4e1a\u5385", "pty": "0706"}}, {"type": "Feature", "geometry": {"type": "Point", "coordinates": [121.36600555423446, 31.241812314882093]}, "properties": {"name": "\u4e2d\u56fd\u7535\u4fe1(\u5409\u9547\u8def\u5929\u7ffc\u8425\u4e1a\u5385)", "biz": "070601 \u751f\u6d3b\u670d\u52a1;\u7535\u8baf\u8425\u4e1a\u5385;\u4e2d\u56fd\u7535\u4fe1\u8425\u4e1a\u5385", "pty": "0706"}}, {"type": "Feature", "geometry": {"type": "Point", "coordinates": [121.42466253235928, 31.25171353933416]}, "properties": {"name": "\u4e2d\u56fd\u7535\u4fe1", "biz": "070601 \u751f\u6d3b\u670d\u52a1;\u7535\u8baf\u8425\u4e1a\u5385;\u4e2d\u56fd\u7535\u4fe1\u8425\u4e1a\u5385", "pty": "0706"}}, {"type": "Feature", "geometry": {"type": "Point", "coordinates": [121.43246313806121, 31.265244287692717]}, "properties": {"name": "\u4e2d\u56fd\u7535\u4fe1(\u5b9c\u5ddd\u8def\u8425\u4e1a\u5385)", "biz": "070601 \u751f\u6d3b\u670d\u52a1;\u7535\u8baf\u8425\u4e1a\u5385;\u4e2d\u56fd\u7535\u4fe1\u8425\u4e1a\u5385", "pty": "0706"}}, {"type": "Feature", "geometry": {"type": "Point", "coordinates": [121.4368694094106, 31.24537118339356]}, "properties": {"name": "\u4e2d\u56fd\u79fb\u52a8(\u957f\u5bff\u8def\u8425\u4e1a\u5385)", "biz": "070603 \u751f\u6d3b\u670d\u52a1;\u7535\u8baf\u8425\u4e1a\u5385;\u4e2d\u56fd\u79fb\u52a8\u8425\u4e1a\u5385", "pty": "0706"}}, {"type": "Feature", "geometry": {"type": "Point", "coordinates": [121.39282673141291, 31.2479365449735]}, "properties": {"name": "\u4e2d\u56fd\u79fb\u52a8(\u5927\u6e21\u6cb3\u8def\u8425\u4e1a\u5385)", "biz": "070603 \u751f\u6d3b\u670d\u52a1;\u7535\u8baf\u8425\u4e1a\u5385;\u4e2d\u56fd\u79fb\u52a8\u8425\u4e1a\u5385", "pty": "0706"}}, {"type": "Feature", "geometry": {"type": "Point", "coordinates": [121.42427626401113, 31.271428515550372]}, "properties": {"name": "\u4e2d\u56fd\u79fb\u52a8\u901a\u4fe1(\u5e73\u5229\u8def\u8425\u4e1a\u5385)", "biz": "070603 \u751f\u6d3b\u670d\u52a1;\u7535\u8baf\u8425\u4e1a\u5385;\u4e2d\u56fd\u79fb\u52a8\u8425\u4e1a\u5385", "pty": "0706"}}, {"type": "Feature", "geometry": {"type": "Point", "coordinates": [121.39591217480096, 31.283130944919844]}, "properties": {"name": "\u4e2d\u56fd\u79fb\u52a8(\u53e4\u6d6a\u8def\u8425\u4e1a\u5385)", "biz": "070603 \u751f\u6d3b\u670d\u52a1;\u7535\u8baf\u8425\u4e1a\u5385;\u4e2d\u56fd\u79fb\u52a8\u8425\u4e1a\u5385", "pty": "0706"}}, {"type": "Feature", "geometry": {"type": "Point", "coordinates": [121.41937164390569, 31.240144998816753]}, "properties": {"name": "\u4e2d\u56fd\u79fb\u52a8(\u6b66\u5b81\u8def\u8425\u4e1a\u5385)", "biz": "070603 \u751f\u6d3b\u670d\u52a1;\u7535\u8baf\u8425\u4e1a\u5385;\u4e2d\u56fd\u79fb\u52a8\u8425\u4e1a\u5385", "pty": "0706"}}, {"type": "Feature", "geometry": {"type": "Point", "coordinates": [121.40021316961283, 31.239092152810088]}, "properties": {"name": "\u4e2d\u56fd\u79fb\u52a8(\u67a3\u9633\u8425\u4e1a\u5385)", "biz": "070603 \u751f\u6d3b\u670d\u52a1;\u7535\u8baf\u8425\u4e1a\u5385;\u4e2d\u56fd\u79fb\u52a8\u8425\u4e1a\u5385", "pty": "0706"}}, {"type": "Feature", "geometry": {"type": "Point", "coordinates": [121.37307108815487, 31.233311347859903]}, "properties": {"name": "\u4e2d\u56fd\u79fb\u52a8", "biz": "070603 \u751f\u6d3b\u670d\u52a1;\u7535\u8baf\u8425\u4e1a\u5385;\u4e2d\u56fd\u79fb\u52a8\u8425\u4e1a\u5385", "pty": "0706"}}, {"type": "Feature", "geometry": {"type": "Point", "coordinates": [121.42350374903225, 31.26491140221377]}, "properties": {"name": "\u4e2d\u56fd\u79fb\u52a8(\u897f\u533a\u73b2\u73b2\u4fe1\u901a\u76f4\u4f9b\u5e97)", "biz": "070603 \u751f\u6d3b\u670d\u52a1;\u7535\u8baf\u8425\u4e1a\u5385;\u4e2d\u56fd\u79fb\u52a8\u8425\u4e1a\u5385", "pty": "0706"}}, {"type": "Feature", "geometry": {"type": "Point", "coordinates": [121.36222542310276, 31.239921029955756]}, "properties": {"name": "\u4e2d\u56fd\u79fb\u52a8(\u7941\u8fde\u5c71\u5357\u8def\u8425\u4e1a\u5385)", "biz": "070603 \u751f\u6d3b\u670d\u52a1;\u7535\u8baf\u8425\u4e1a\u5385;\u4e2d\u56fd\u79fb\u52a8\u8425\u4e1a\u5385", "pty": "0706"}}, {"type": "Feature", "geometry": {"type": "Point", "coordinates": [121.43575986440423, 31.260419647632695]}, "properties": {"name": "\u4e2d\u56fd\u79fb\u52a8(\u5b9c\u5ddd\u8def\u8425\u4e1a\u5385)", "biz": "070603 \u751f\u6d3b\u670d\u52a1;\u7535\u8baf\u8425\u4e1a\u5385;\u4e2d\u56fd\u79fb\u52a8\u8425\u4e1a\u5385", "pty": "0706"}}, {"type": "Feature", "geometry": {"type": "Point", "coordinates": [121.34588695879586, 31.288983135995895]}, "properties": {"name": "\u4e2d\u56fd\u79fb\u52a8(\u7279\u7ea6\u76f4\u9500\u5e97)", "biz": "070603 \u751f\u6d3b\u670d\u52a1;\u7535\u8baf\u8425\u4e1a\u5385;\u4e2d\u56fd\u79fb\u52a8\u8425\u4e1a\u5385", "pty": "0706"}}, {"type": "Feature", "geometry": {"type": "Point", "coordinates": [121.37958518694658, 31.247711106474306]}, "properties": {"name": "\u4e2d\u56fd\u79fb\u52a8\u771f\u5149\u8def\u8425\u4e1a\u5385(\u767e\u8054\u4e2d\u73af\u8d2d\u7269\u5e7f\u573a)", "biz": "070603 \u751f\u6d3b\u670d\u52a1;\u7535\u8baf\u8425\u4e1a\u5385;\u4e2d\u56fd\u79fb\u52a8\u8425\u4e1a\u5385", "pty": "0706"}}, {"type": "Feature", "geometry": {"type": "Point", "coordinates": [121.38121041508721, 31.286745198100974]}, "properties": {"name": "\u4e2d\u56fd\u79fb\u52a8(\u674e\u5b50\u56ed\u522b\u5885\u5317)", "biz": "070603 \u751f\u6d3b\u670d\u52a1;\u7535\u8baf\u8425\u4e1a\u5385;\u4e2d\u56fd\u79fb\u52a8\u8425\u4e1a\u5385", "pty": "0706"}}, {"type": "Feature", "geometry": {"type": "Point", "coordinates": [121.39656222279014, 31.259239052511806]}, "properties": {"name": "\u4e2d\u56fd\u79fb\u52a8(\u7279\u7ea6\u9500\u552e\u5904)", "biz": "070603 \u751f\u6d3b\u670d\u52a1;\u7535\u8baf\u8425\u4e1a\u5385;\u4e2d\u56fd\u79fb\u52a8\u8425\u4e1a\u5385", "pty": "0706"}}, {"type": "Feature", "geometry": {"type": "Point", "coordinates": [121.40148498021159, 31.2782582075981]}, "properties": {"name": "\u4e2d\u56fd\u79fb\u52a8(\u53e4\u6d6a\u8def\u8425\u4e1a\u5385)", "biz": "070603 \u751f\u6d3b\u670d\u52a1;\u7535\u8baf\u8425\u4e1a\u5385;\u4e2d\u56fd\u79fb\u52a8\u8425\u4e1a\u5385", "pty": "0706"}}, {"type": "Feature", "geometry": {"type": "Point", "coordinates": [121.43661588506838, 31.245457712336805]}, "properties": {"name": "\u4e2d\u56fd\u79fb\u52a824\u5c0f\u65f6\u81ea\u52a9\u670d\u52a1\u5385(\u9655\u897f\u5317\u8def)", "biz": "070603|170208 \u751f\u6d3b\u670d\u52a1;\u7535\u8baf\u8425\u4e1a\u5385;\u4e2d\u56fd\u79fb\u52a8\u8425\u4e1a\u5385|\u516c\u53f8\u4f01\u4e1a;\u516c\u53f8;\u7535\u4fe1\u516c\u53f8", "pty": "0706"}}, {"type": "Feature", "geometry": {"type": "Point", "coordinates": [121.40505545569961, 31.23961096959507]}, "properties": {"name": "\u4e2d\u56fd\u8054\u901a(\u5170\u6eaa\u8def\u8425\u4e1a\u5385)", "biz": "070604 \u751f\u6d3b\u670d\u52a1;\u7535\u8baf\u8425\u4e1a\u5385;\u4e2d\u56fd\u8054\u901a\u8425\u4e1a\u5385", "pty": "0706"}}, {"type": "Feature", "geometry": {"type": "Point", "coordinates": [121.38977750715476, 31.261412446860483]}, "properties": {"name": "\u4e2d\u56fd\u8054\u901a(\u771f\u5317\u8def\u8425\u4e1a\u5385)", "biz": "070604 \u751f\u6d3b\u670d\u52a1;\u7535\u8baf\u8425\u4e1a\u5385;\u4e2d\u56fd\u8054\u901a\u8425\u4e1a\u5385", "pty": "0706"}}, {"type": "Feature", "geometry": {"type": "Point", "coordinates": [121.39263763912761, 31.28385813750991]}, "properties": {"name": "\u4e2d\u56fd\u8054\u901a(\u53e4\u6d6a\u8def\u8425\u4e1a\u5385)", "biz": "070604 \u751f\u6d3b\u670d\u52a1;\u7535\u8baf\u8425\u4e1a\u5385;\u4e2d\u56fd\u8054\u901a\u8425\u4e1a\u5385", "pty": "0706"}}, {"type": "Feature", "geometry": {"type": "Point", "coordinates": [121.36881815083919, 31.236100595208804]}, "properties": {"name": "\u4e2d\u56fd\u8054\u901a(\u91d1\u6c99\u6c5f\u8def\u8425\u4e1a\u5385)", "biz": "070604 \u751f\u6d3b\u670d\u52a1;\u7535\u8baf\u8425\u4e1a\u5385;\u4e2d\u56fd\u8054\u901a\u8425\u4e1a\u5385", "pty": "0706"}}, {"type": "Feature", "geometry": {"type": "Point", "coordinates": [121.41549784147438, 31.236542226877233]}, "properties": {"name": "\u4e2d\u56fd\u8054\u901a(\u5b81\u590f\u8def\u8425\u4e1a\u5385)", "biz": "070604 \u751f\u6d3b\u670d\u52a1;\u7535\u8baf\u8425\u4e1a\u5385;\u4e2d\u56fd\u8054\u901a\u8425\u4e1a\u5385", "pty": "0706"}}, {"type": "Feature", "geometry": {"type": "Point", "coordinates": [121.4266794774462, 31.263957685715123]}, "properties": {"name": "\u4e2d\u56fd\u8054\u901a(\u5fd7\u4e39\u8def\u8425\u4e1a\u5385)", "biz": "070604 \u751f\u6d3b\u670d\u52a1;\u7535\u8baf\u8425\u4e1a\u5385;\u4e2d\u56fd\u8054\u901a\u8425\u4e1a\u5385", "pty": "0706"}}, {"type": "Feature", "geometry": {"type": "Point", "coordinates": [121.39424755289873, 31.246740821774196]}, "properties": {"name": "\u4e2d\u56fd\u8054\u901a(\u771f\u5982\u8425\u4e1a\u5385)", "biz": "070604 \u751f\u6d3b\u670d\u52a1;\u7535\u8baf\u8425\u4e1a\u5385;\u4e2d\u56fd\u8054\u901a\u8425\u4e1a\u5385", "pty": "0706"}}, {"type": "Feature", "geometry": {"type": "Point", "coordinates": [121.43327175991826, 31.263823152539093]}, "properties": {"name": "\u4e2d\u56fd\u8054\u901a(\u5b9c\u5ddd\u8def\u8425\u4e1a\u5385)", "biz": "070604 \u751f\u6d3b\u670d\u52a1;\u7535\u8baf\u8425\u4e1a\u5385;\u4e2d\u56fd\u8054\u901a\u8425\u4e1a\u5385", "pty": "0706"}}, {"type": "Feature", "geometry": {"type": "Point", "coordinates": [121.42955399449417, 31.253956933388658]}, "properties": {"name": "\u4e2d\u56fd\u8054\u901a\u6d66\u53d1\u5e7f\u573a\u8425\u4e1a\u5385", "biz": "070604 \u751f\u6d3b\u670d\u52a1;\u7535\u8baf\u8425\u4e1a\u5385;\u4e2d\u56fd\u8054\u901a\u8425\u4e1a\u5385", "pty": "0706"}}, {"type": "Feature", "geometry": {"type": "Point", "coordinates": [121.42414875785282, 31.252186718206016]}, "properties": {"name": "\u4e2d\u56fd\u8054\u901a(\u9547\u576a\u8def\u8425\u4e1a\u5385)", "biz": "070604 \u751f\u6d3b\u670d\u52a1;\u7535\u8baf\u8425\u4e1a\u5385;\u4e2d\u56fd\u8054\u901a\u8425\u4e1a\u5385", "pty": "0706"}}, {"type": "Feature", "geometry": {"type": "Point", "coordinates": [121.39063962899385, 31.233476684095805]}, "properties": {"name": "\u4e2d\u56fd\u8054\u901a(\u91d1\u6c99\u6c5f\u8def\u8425\u4e1a\u5385)", "biz": "070604 \u751f\u6d3b\u670d\u52a1;\u7535\u8baf\u8425\u4e1a\u5385;\u4e2d\u56fd\u8054\u901a\u8425\u4e1a\u5385", "pty": "0706"}}, {"type": "Feature", "geometry": {"type": "Point", "coordinates": [121.38698498891145, 31.270539639788364]}, "properties": {"name": "\u4e2d\u56fd\u8054\u901a(\u674e\u5b50\u56ed\u8425\u4e1a\u5385)", "biz": "070604 \u751f\u6d3b\u670d\u52a1;\u7535\u8baf\u8425\u4e1a\u5385;\u4e2d\u56fd\u8054\u901a\u8425\u4e1a\u5385", "pty": "0706"}}, {"type": "Feature", "geometry": {"type": "Point", "coordinates": [121.41529197882132, 31.267138486252176]}, "properties": {"name": "\u4e2d\u56fd\u8054\u901a(\u65b0\u6751\u8def\u8425\u4e1a\u5385)", "biz": "070604 \u751f\u6d3b\u670d\u52a1;\u7535\u8baf\u8425\u4e1a\u5385;\u4e2d\u56fd\u8054\u901a\u8425\u4e1a\u5385", "pty": "0706"}}, {"type": "Feature", "geometry": {"type": "Point", "coordinates": [121.43838147502487, 31.25782428344747]}, "properties": {"name": "\u4e2d\u56fd\u8054\u901a(\u4e0a\u6d77\u5e02\u5206\u516c\u53f8\u5e02\u5317\u6838\u5fc3\u673a\u623f)", "biz": "070604 \u751f\u6d3b\u670d\u52a1;\u7535\u8baf\u8425\u4e1a\u5385;\u4e2d\u56fd\u8054\u901a\u8425\u4e1a\u5385", "pty": "0706"}}, {"type": "Feature", "geometry": {"type": "Point", "coordinates": [121.37980298400765, 31.247862875477473]}, "properties": {"name": "\u4e2d\u56fd\u8054\u901a\u4e2d\u73af\u767e\u8054\u8425\u4e1a\u5385(\u767e\u8054\u4e2d\u73af\u8d2d\u7269\u5e7f\u573a)", "biz": "070604 \u751f\u6d3b\u670d\u52a1;\u7535\u8baf\u8425\u4e1a\u5385;\u4e2d\u56fd\u8054\u901a\u8425\u4e1a\u5385", "pty": "0706"}}, {"type": "Feature", "geometry": {"type": "Point", "coordinates": [121.38959258933546, 31.261304557780594]}, "properties": {"name": "\u6237\u5916\u804c\u5de5\u7231\u5fc3\u63a5\u529b\u7ad9\u00b7\u4e0a\u6d77\u8054\u901a\u771f\u5317\u8425\u4e1a\u5385", "biz": "070604 \u751f\u6d3b\u670d\u52a1;\u7535\u8baf\u8425\u4e1a\u5385;\u4e2d\u56fd\u8054\u901a\u8425\u4e1a\u5385", "pty": "0706"}}, {"type": "Feature", "geometry": {"type": "Point", "coordinates": [121.42495933513929, 31.23592502535594]}, "properties": {"name": "\u4e2d\u56fd\u8054\u901a(\u957f\u5bff\u8def\u8425\u4e1a\u5385)", "biz": "070604 \u751f\u6d3b\u670d\u52a1;\u7535\u8baf\u8425\u4e1a\u5385;\u4e2d\u56fd\u8054\u901a\u8425\u4e1a\u5385", "pty": "0706"}}, {"type": "Feature", "geometry": {"type": "Point", "coordinates": [121.43269763817699, 31.241417187831573]}, "properties": {"name": "\u4e2d\u56fd\u8054\u901a(\u4e9a\u65b0\u751f\u6d3b\u5e7f\u573a\u5408\u4f5c\u5385)", "biz": "070604 \u751f\u6d3b\u670d\u52a1;\u7535\u8baf\u8425\u4e1a\u5385;\u4e2d\u56fd\u8054\u901a\u8425\u4e1a\u5385", "pty": "0706"}}, {"type": "Feature", "geometry": {"type": "Point", "coordinates": [121.43861435523152, 31.253368657869327]}, "properties": {"name": "\u4e2d\u56fd\u8054\u901a(\u4e2d\u6f6d\u8def\u8425\u4e1a\u5385)", "biz": "070604 \u751f\u6d3b\u670d\u52a1;\u7535\u8baf\u8425\u4e1a\u5385;\u4e2d\u56fd\u8054\u901a\u8425\u4e1a\u5385", "pty": "0706"}}, {"type": "Feature", "geometry": {"type": "Point", "coordinates": [121.3788218988629, 31.247365846820845]}, "properties": {"name": "\u4e2d\u56fd\u8054\u901a\u624b\u673a\u7ef4\u4fee(\u767e\u8054\u4e2d\u73af\u8d2d\u7269\u5e7f\u573a)", "biz": "070604|071200 \u751f\u6d3b\u670d\u52a1;\u7535\u8baf\u8425\u4e1a\u5385;\u4e2d\u56fd\u8054\u901a\u8425\u4e1a\u5385|\u751f\u6d3b\u670d\u52a1;\u7ef4\u4fee\u7ad9\u70b9;\u7ef4\u4fee\u7ad9\u70b9", "pty": "0706"}}, {"type": "Feature", "geometry": {"type": "Point", "coordinates": [121.41349476002837, 31.239587332165137]}, "properties": {"name": "\u4e2d\u56fd\u94c1\u901a(\u666e\u9640\u5206\u516c\u53f8)", "biz": "070605 \u751f\u6d3b\u670d\u52a1;\u7535\u8baf\u8425\u4e1a\u5385;\u4e2d\u56fd\u94c1\u901a\u8425\u4e1a\u5385", "pty": "0706"}}, {"type": "Feature", "geometry": {"type": "Point", "coordinates": [121.46813167927758, 31.289217701521224]}, "properties": {"name": "\u4e2d\u56fd\u79fb\u52a8", "biz": "060305|070603 \u8d2d\u7269\u670d\u52a1;\u5bb6\u7535\u7535\u5b50\u5356\u573a;\u624b\u673a\u9500\u552e|\u751f\u6d3b\u670d\u52a1;\u7535\u8baf\u8425\u4e1a\u5385;\u4e2d\u56fd\u79fb\u52a8\u8425\u4e1a\u5385", "pty": "0603"}}, {"type": "Feature", "geometry": {"type": "Point", "coordinates": [121.50069061967145, 31.262973510333367]}, "properties": {"name": "\u4e2d\u56fd\u79fb\u52a8(\u5468\u5bb6\u5634\u8def\u8425\u4e1a\u5385)", "biz": "060305|070603 \u8d2d\u7269\u670d\u52a1;\u5bb6\u7535\u7535\u5b50\u5356\u573a;\u624b\u673a\u9500\u552e|\u751f\u6d3b\u670d\u52a1;\u7535\u8baf\u8425\u4e1a\u5385;\u4e2d\u56fd\u79fb\u52a8\u8425\u4e1a\u5385", "pty": "0603"}}, {"type": "Feature", "geometry": {"type": "Point", "coordinates": [121.5071591483756, 31.258359716229617]}, "properties": {"name": "\u4e2d\u56fd\u7535\u4fe1(\u5929\u7ffc\u4e13\u8425\u5e97\u4fdd\u5b9a\u8def\u5e97)", "biz": "060305|070601 \u8d2d\u7269\u670d\u52a1;\u5bb6\u7535\u7535\u5b50\u5356\u573a;\u624b\u673a\u9500\u552e|\u751f\u6d3b\u670d\u52a1;\u7535\u8baf\u8425\u4e1a\u5385;\u4e2d\u56fd\u7535\u4fe1\u8425\u4e1a\u5385", "pty": "0603"}}, {"type": "Feature", "geometry": {"type": "Point", "coordinates": [121.46109648973614, 31.28002210389773]}, "properties": {"name": "\u4e2d\u56fd\u8054\u901a(\u682a\u6d32\u8def\u8425\u4e1a\u5385)", "biz": "070604|060305 \u751f\u6d3b\u670d\u52a1;\u7535\u8baf\u8425\u4e1a\u5385;\u4e2d\u56fd\u8054\u901a\u8425\u4e1a\u5385|\u8d2d\u7269\u670d\u52a1;\u5bb6\u7535\u7535\u5b50\u5356\u573a;\u624b\u673a\u9500\u552e", "pty": "0706"}}, {"type": "Feature", "geometry": {"type": "Point", "coordinates": [121.47869838533775, 31.26174078824294]}, "properties": {"name": "\u4e2d\u56fd\u7535\u4fe1(\u56db\u5ddd\u5317\u8def\u8425\u4e1a\u5385)", "biz": "070601 \u751f\u6d3b\u670d\u52a1;\u7535\u8baf\u8425\u4e1a\u5385;\u4e2d\u56fd\u7535\u4fe1\u8425\u4e1a\u5385", "pty": "0706"}}, {"type": "Feature", "geometry": {"type": "Point", "coordinates": [121.48143093476601, 31.284487092068538]}, "properties": {"name": "\u4e2d\u56fd\u7535\u4fe1(\u8d64\u5cf0\u8def\u8425\u4e1a\u5385)", "biz": "070601 \u751f\u6d3b\u670d\u52a1;\u7535\u8baf\u8425\u4e1a\u5385;\u4e2d\u56fd\u7535\u4fe1\u8425\u4e1a\u5385", "pty": "0706"}}, {"type": "Feature", "geometry": {"type": "Point", "coordinates": [121.495852516929, 31.25914469021475]}, "properties": {"name": "\u4e2d\u56fd\u7535\u4fe1(\u5468\u5bb6\u5634\u8def\u8425\u4e1a\u5385)", "biz": "070601 \u751f\u6d3b\u670d\u52a1;\u7535\u8baf\u8425\u4e1a\u5385;\u4e2d\u56fd\u7535\u4fe1\u8425\u4e1a\u5385", "pty": "0706"}}, {"type": "Feature", "geometry": {"type": "Point", "coordinates": [121.48471856160698, 31.2954592863119]}, "properties": {"name": "\u4e2d\u56fd\u7535\u4fe1(\u9038\u4ed9\u8def\u8425\u4e1a\u5385)", "biz": "070601 \u751f\u6d3b\u670d\u52a1;\u7535\u8baf\u8425\u4e1a\u5385;\u4e2d\u56fd\u7535\u4fe1\u8425\u4e1a\u5385", "pty": "0706"}}, {"type": "Feature", "geometry": {"type": "Point", "coordinates": [121.49498052649494, 31.292707978700356]}, "properties": {"name": "\u4e2d\u56fd\u7535\u4fe1(\u590d\u65e6\u6821\u56ed\u5e97)", "biz": "070601 \u751f\u6d3b\u670d\u52a1;\u7535\u8baf\u8425\u4e1a\u5385;\u4e2d\u56fd\u7535\u4fe1\u8425\u4e1a\u5385", "pty": "0706"}}, {"type": "Feature", "geometry": {"type": "Point", "coordinates": [121.48854944486017, 31.268954605564957]}, "properties": {"name": "\u4e2d\u56fd\u7535\u4fe1(\u56db\u5e73\u8def\u8425\u4e1a\u5385)", "biz": "070601 \u751f\u6d3b\u670d\u52a1;\u7535\u8baf\u8425\u4e1a\u5385;\u4e2d\u56fd\u7535\u4fe1\u8425\u4e1a\u5385", "pty": "0706"}}, {"type": "Feature", "geometry": {"type": "Point", "coordinates": [121.49470538320337, 31.270935169012496]}, "properties": {"name": "\u4e2d\u56fd\u7535\u4fe1", "biz": "070601 \u751f\u6d3b\u670d\u52a1;\u7535\u8baf\u8425\u4e1a\u5385;\u4e2d\u56fd\u7535\u4fe1\u8425\u4e1a\u5385", "pty": "0706"}}, {"type": "Feature", "geometry": {"type": "Point", "coordinates": [121.4784444648691, 31.250555975109744]}, "properties": {"name": "\u4e2d\u56fd\u7535\u4fe1(\u6c5f\u897f\u5317\u8def\u8425\u4e1a\u5385)", "biz": "070601 \u751f\u6d3b\u670d\u52a1;\u7535\u8baf\u8425\u4e1a\u5385;\u4e2d\u56fd\u7535\u4fe1\u8425\u4e1a\u5385", "pty": "0706"}}, {"type": "Feature", "geometry": {"type": "Point", "coordinates": [121.46733545184306, 31.28536613586717]}, "properties": {"name": "\u4e2d\u56fd\u7535\u4fe1(\u5e7f\u7075\u4e8c\u8def\u8425\u4e1a\u5385)", "biz": "070601 \u751f\u6d3b\u670d\u52a1;\u7535\u8baf\u8425\u4e1a\u5385;\u4e2d\u56fd\u7535\u4fe1\u8425\u4e1a\u5385", "pty": "0706"}}, {"type": "Feature", "geometry": {"type": "Point", "coordinates": [121.49935381556018, 31.274703501686965]}, "properties": {"name": "\u4e2d\u56fd\u7535\u4fe1(\u5927\u8fde\u8def\u8425\u4e1a\u5385)", "biz": "070601 \u751f\u6d3b\u670d\u52a1;\u7535\u8baf\u8425\u4e1a\u5385;\u4e2d\u56fd\u7535\u4fe1\u8425\u4e1a\u5385", "pty": "0706"}}, {"type": "Feature", "geometry": {"type": "Point", "coordinates": [121.48715774826469, 31.265800819574874]}, "properties": {"name": "\u4e2d\u56fd\u7535\u4fe1(\u4e34\u5e73\u5317\u8def\u8425\u4e1a\u5385)", "biz": "070601 \u751f\u6d3b\u670d\u52a1;\u7535\u8baf\u8425\u4e1a\u5385;\u4e2d\u56fd\u7535\u4fe1\u8425\u4e1a\u5385", "pty": "0706"}}, {"type": "Feature", "geometry": {"type": "Point", "coordinates": [121.49092112691848, 31.278510646192014]}, "properties": {"name": "\u4e2d\u56fd\u7535\u4fe1(\u667a\u80fd\u516c\u8bdd\u7ad9)", "biz": "070601 \u751f\u6d3b\u670d\u52a1;\u7535\u8baf\u8425\u4e1a\u5385;\u4e2d\u56fd\u7535\u4fe1\u8425\u4e1a\u5385", "pty": "0706"}}, {"type": "Feature", "geometry": {"type": "Point", "coordinates": [121.46718436221978, 31.280780624152005]}, "properties": {"name": "\u4e2d\u56fd\u79fb\u52a8(\u5e7f\u4e2d\u8def\u8425\u4e1a\u5385)", "biz": "070603 \u751f\u6d3b\u670d\u52a1;\u7535\u8baf\u8425\u4e1a\u5385;\u4e2d\u56fd\u79fb\u52a8\u8425\u4e1a\u5385", "pty": "0706"}}, {"type": "Feature", "geometry": {"type": "Point", "coordinates": [121.49914766167815, 31.255942966262285]}, "properties": {"name": "\u4e2d\u56fd\u79fb\u52a8\u7279\u7ea6\u7ef4\u4fee\u70b9", "biz": "070603 \u751f\u6d3b\u670d\u52a1;\u7535\u8baf\u8425\u4e1a\u5385;\u4e2d\u56fd\u79fb\u52a8\u8425\u4e1a\u5385", "pty": "0706"}}, {"type": "Feature", "geometry": {"type": "Point", "coordinates": [121.49709862270778, 31.251889620622425]}, "properties": {"name": "\u4e2d\u56fd\u79fb\u52a8(\u4e1c\u5927\u540d\u8def\u8425\u4e1a\u5385)", "biz": "070603 \u751f\u6d3b\u670d\u52a1;\u7535\u8baf\u8425\u4e1a\u5385;\u4e2d\u56fd\u79fb\u52a8\u8425\u4e1a\u5385", "pty": "0706"}}, {"type": "Feature", "geometry": {"type": "Point", "coordinates": [121.47655022811973, 31.305960423121444]}, "properties": {"name": "\u4e2d\u56fd\u79fb\u52a8(\u6c5f\u6e7e\u9547\u8425\u4e1a\u5385)", "biz": "070603 \u751f\u6d3b\u670d\u52a1;\u7535\u8baf\u8425\u4e1a\u5385;\u4e2d\u56fd\u79fb\u52a8\u8425\u4e1a\u5385", "pty": "0706"}}, {"type": "Feature", "geometry": {"type": "Point", "coordinates": [121.46752404978403, 31.28544161014591]}, "properties": {"name": "\u4e2d\u56fd\u79fb\u52a8(\u5317\u533a\u6d77\u8679\u79fb\u52a8\u76f4\u4f9b\u5e97)", "biz": "070603 \u751f\u6d3b\u670d\u52a1;\u7535\u8baf\u8425\u4e1a\u5385;\u4e2d\u56fd\u79fb\u52a8\u8425\u4e1a\u5385", "pty": "0706"}}, {"type": "Feature", "geometry": {"type": "Point", "coordinates": [121.47722812733683, 31.252408661695586]}, "properties": {"name": "\u4e2d\u56fd\u79fb\u52a8\u901a\u4fe1(\u7279\u7ea6\u76f4\u9500\u5e97)", "biz": "070603 \u751f\u6d3b\u670d\u52a1;\u7535\u8baf\u8425\u4e1a\u5385;\u4e2d\u56fd\u79fb\u52a8\u8425\u4e1a\u5385", "pty": "0706"}}, {"type": "Feature", "geometry": {"type": "Point", "coordinates": [121.50998748948135, 31.254318775068402]}, "properties": {"name": "\u4e2d\u56fd\u79fb\u52a8(\u5927\u5ef7\u4e13\u8425\u5e97)", "biz": "070603 \u751f\u6d3b\u670d\u52a1;\u7535\u8baf\u8425\u4e1a\u5385;\u4e2d\u56fd\u79fb\u52a8\u8425\u4e1a\u5385", "pty": "0706"}}, {"type": "Feature", "geometry": {"type": "Point", "coordinates": [121.46804723253949, 31.30289001732126]}, "properties": {"name": "\u4e2d\u56fd\u79fb\u52a8(\u5317\u533a\u7279\u7ea6\u76f4\u9500\u5e97)", "biz": "070603 \u751f\u6d3b\u670d\u52a1;\u7535\u8baf\u8425\u4e1a\u5385;\u4e2d\u56fd\u79fb\u52a8\u8425\u4e1a\u5385", "pty": "0706"}}, {"type": "Feature", "geometry": {"type": "Point", "coordinates": [121.46041135682616, 31.280863031227614]}, "properties": {"name": "\u4e2d\u56fd\u79fb\u52a8", "biz": "070603 \u751f\u6d3b\u670d\u52a1;\u7535\u8baf\u8425\u4e1a\u5385;\u4e2d\u56fd\u79fb\u52a8\u8425\u4e1a\u5385", "pty": "0706"}}, {"type": "Feature", "geometry": {"type": "Point", "coordinates": [121.46952455027166, 31.296720456071704]}, "properties": {"name": "\u4e2d\u56fd\u79fb\u52a8(\u624b\u673a\u4e13\u5356\u5e97)", "biz": "070603 \u751f\u6d3b\u670d\u52a1;\u7535\u8baf\u8425\u4e1a\u5385;\u4e2d\u56fd\u79fb\u52a8\u8425\u4e1a\u5385", "pty": "0706"}}, {"type": "Feature", "geometry": {"type": "Point", "coordinates": [121.46250921287026, 31.298290273253166]}, "properties": {"name": "\u4e2d\u56fd\u79fb\u52a8(\u5317\u533a\u7279\u7ea6\u76f4\u9500\u5e97)", "biz": "070603 \u751f\u6d3b\u670d\u52a1;\u7535\u8baf\u8425\u4e1a\u5385;\u4e2d\u56fd\u79fb\u52a8\u8425\u4e1a\u5385", "pty": "0706"}}, {"type": "Feature", "geometry": {"type": "Point", "coordinates": [121.47924682152806, 31.255407140819052]}, "properties": {"name": "\u4e2d\u56fd\u79fb\u52a8(\u56db\u5ddd\u5317\u8def\u8425\u4e1a\u5385)", "biz": "070603 \u751f\u6d3b\u670d\u52a1;\u7535\u8baf\u8425\u4e1a\u5385;\u4e2d\u56fd\u79fb\u52a8\u8425\u4e1a\u5385", "pty": "0706"}}, {"type": "Feature", "geometry": {"type": "Point", "coordinates": [121.47964133896757, 31.26534995060649]}, "properties": {"name": "\u4e2d\u56fd\u8054\u901a(\u56db\u5ddd\u5317\u8def\u8425\u4e1a\u5385)", "biz": "070604 \u751f\u6d3b\u670d\u52a1;\u7535\u8baf\u8425\u4e1a\u5385;\u4e2d\u56fd\u8054\u901a\u8425\u4e1a\u5385", "pty": "0706"}}, {"type": "Feature", "geometry": {"type": "Point", "coordinates": [121.49388513413903, 31.26262327907335]}, "properties": {"name": "\u4e2d\u56fd\u8054\u901a(\u745e\u8679\u8425\u4e1a\u5385)", "biz": "070604 \u751f\u6d3b\u670d\u52a1;\u7535\u8baf\u8425\u4e1a\u5385;\u4e2d\u56fd\u8054\u901a\u8425\u4e1a\u5385", "pty": "0706"}}, {"type": "Feature", "geometry": {"type": "Point", "coordinates": [121.48033585928722, 31.252361640716625]}, "properties": {"name": "\u4e2d\u56fd\u8054\u901a(\u6d77\u5b81\u8def\u8425\u4e1a\u5385)", "biz": "070604 \u751f\u6d3b\u670d\u52a1;\u7535\u8baf\u8425\u4e1a\u5385;\u4e2d\u56fd\u8054\u901a\u8425\u4e1a\u5385", "pty": "0706"}}, {"type": "Feature", "geometry": {"type": "Point", "coordinates": [121.47643608369714, 31.303097214775146]}, "properties": {"name": "\u4e2d\u56fd\u8054\u901a(\u9686\u76db\u901a\u8baf)", "biz": "070604 \u751f\u6d3b\u670d\u52a1;\u7535\u8baf\u8425\u4e1a\u5385;\u4e2d\u56fd\u8054\u901a\u8425\u4e1a\u5385", "pty": "0706"}}, {"type": "Feature", "geometry": {"type": "Point", "coordinates": [121.5272430266999, 31.32033967578934]}, "properties": {"name": "\u4e2d\u56fd\u79fb\u52a8(\u4e2d\u539f\u8425\u4e1a\u5385)", "biz": "070603|060305 \u751f\u6d3b\u670d\u52a1;\u7535\u8baf\u8425\u4e1a\u5385;\u4e2d\u56fd\u79fb\u52a8\u8425\u4e1a\u5385|\u8d2d\u7269\u670d\u52a1;\u5bb6\u7535\u7535\u5b50\u5356\u573a;\u624b\u673a\u9500\u552e", "pty": "0706"}}, {"type": "Feature", "geometry": {"type": "Point", "coordinates": [121.53289742910079, 31.27319172541635]}, "properties": {"name": "\u4e2d\u56fd\u79fb\u52a8(\u7231\u5f3a\u901a\u4fe1\u76f4\u4f9b\u5e97)", "biz": "060305|070603 \u8d2d\u7269\u670d\u52a1;\u5bb6\u7535\u7535\u5b50\u5356\u573a;\u624b\u673a\u9500\u552e|\u751f\u6d3b\u670d\u52a1;\u7535\u8baf\u8425\u4e1a\u5385;\u4e2d\u56fd\u79fb\u52a8\u8425\u4e1a\u5385", "pty": "0603"}}, {"type": "Feature", "geometry": {"type": "Point", "coordinates": [121.52605736212338, 31.33090270254975]}, "properties": {"name": "\u4e2d\u56fd\u7535\u4fe1(\u6bb7\u884c\u8def\u4e13\u8425\u5e97)", "biz": "060305|070601 \u8d2d\u7269\u670d\u52a1;\u5bb6\u7535\u7535\u5b50\u5356\u573a;\u624b\u673a\u9500\u552e|\u751f\u6d3b\u670d\u52a1;\u7535\u8baf\u8425\u4e1a\u5385;\u4e2d\u56fd\u7535\u4fe1\u8425\u4e1a\u5385", "pty": "0603"}}, {"type": "Feature", "geometry": {"type": "Point", "coordinates": [121.53749683019014, 31.261735576162177]}, "properties": {"name": "\u4e2d\u56fd\u79fb\u52a8\u901a\u4fe1(\u677e\u6f58\u8def)", "biz": "060305|070603 \u8d2d\u7269\u670d\u52a1;\u5bb6\u7535\u7535\u5b50\u5356\u573a;\u624b\u673a\u9500\u552e|\u751f\u6d3b\u670d\u52a1;\u7535\u8baf\u8425\u4e1a\u5385;\u4e2d\u56fd\u79fb\u52a8\u8425\u4e1a\u5385", "pty": "0603"}}, {"type": "Feature", "geometry": {"type": "Point", "coordinates": [121.53991545308914, 31.287523193269326]}, "properties": {"name": "\u4e2d\u56fd\u79fb\u52a8\u901a\u4fe1(\u7279\u7ea6\u76f4\u9500\u5e97)", "biz": "070603|060305 \u751f\u6d3b\u670d\u52a1;\u7535\u8baf\u8425\u4e1a\u5385;\u4e2d\u56fd\u79fb\u52a8\u8425\u4e1a\u5385|\u8d2d\u7269\u670d\u52a1;\u5bb6\u7535\u7535\u5b50\u5356\u573a;\u624b\u673a\u9500\u552e", "pty": "0706"}}, {"type": "Feature", "geometry": {"type": "Point", "coordinates": [121.51275404541718, 31.303327346917428]}, "properties": {"name": "\u4e2d\u56fd\u7535\u4fe1", "biz": "060305|070600 \u8d2d\u7269\u670d\u52a1;\u5bb6\u7535\u7535\u5b50\u5356\u573a;\u624b\u673a\u9500\u552e|\u751f\u6d3b\u670d\u52a1;\u7535\u8baf\u8425\u4e1a\u5385;\u7535\u8baf\u8425\u4e1a\u5385", "pty": "0603"}}, {"type": "Feature", "geometry": {"type": "Point", "coordinates": [121.53149037462443, 31.330562712799438]}, "properties": {"name": "\u5148\u950b\u901a\u8baf(\u6bb7\u884c\u8def\u5e97)", "biz": "060305|070603 \u8d2d\u7269\u670d\u52a1;\u5bb6\u7535\u7535\u5b50\u5356\u573a;\u624b\u673a\u9500\u552e|\u751f\u6d3b\u670d\u52a1;\u7535\u8baf\u8425\u4e1a\u5385;\u4e2d\u56fd\u79fb\u52a8\u8425\u4e1a\u5385", "pty": "0603"}}, {"type": "Feature", "geometry": {"type": "Point", "coordinates": [121.54470186504321, 31.291713783910872]}, "properties": {"name": "\u7533\u529b\u79fb\u52a8\u901a\u4fe1", "biz": "060305|070603 \u8d2d\u7269\u670d\u52a1;\u5bb6\u7535\u7535\u5b50\u5356\u573a;\u624b\u673a\u9500\u552e|\u751f\u6d3b\u670d\u52a1;\u7535\u8baf\u8425\u4e1a\u5385;\u4e2d\u56fd\u79fb\u52a8\u8425\u4e1a\u5385", "pty": "0603"}}, {"type": "Feature", "geometry": {"type": "Point", "coordinates": [121.5031293355098, 31.275286522640386]}, "properties": {"name": "\u4e2d\u56fd\u7535\u4fe1(\u6253\u864e\u5c71\u8def\u8425\u4e1a\u5385)", "biz": "070601 \u751f\u6d3b\u670d\u52a1;\u7535\u8baf\u8425\u4e1a\u5385;\u4e2d\u56fd\u7535\u4fe1\u8425\u4e1a\u5385", "pty": "0706"}}, {"type": "Feature", "geometry": {"type": "Point", "coordinates": [121.51256825325753, 31.293183838774915]}, "properties": {"name": "\u4e2d\u56fd\u7535\u4fe1(\u56fd\u987a\u8def\u8425\u4e1a\u5385)", "biz": "070601|170208 \u751f\u6d3b\u670d\u52a1;\u7535\u8baf\u8425\u4e1a\u5385;\u4e2d\u56fd\u7535\u4fe1\u8425\u4e1a\u5385|\u516c\u53f8\u4f01\u4e1a;\u516c\u53f8;\u7535\u4fe1\u516c\u53f8", "pty": "0706"}}, {"type": "Feature", "geometry": {"type": "Point", "coordinates": [121.5199682832009, 31.32035717959757]}, "properties": {"name": "\u4e2d\u56fd\u7535\u4fe1(\u56fd\u548c\u8def\u8425\u4e1a\u5385)", "biz": "070601 \u751f\u6d3b\u670d\u52a1;\u7535\u8baf\u8425\u4e1a\u5385;\u4e2d\u56fd\u7535\u4fe1\u8425\u4e1a\u5385", "pty": "0706"}}, {"type": "Feature", "geometry": {"type": "Point", "coordinates": [121.52166164201552, 31.264174465196113]}, "properties": {"name": "\u4e2d\u56fd\u7535\u4fe1(\u6d4e\u5b81\u8def\u8425\u4e1a\u5385)", "biz": "070601 \u751f\u6d3b\u670d\u52a1;\u7535\u8baf\u8425\u4e1a\u5385;\u4e2d\u56fd\u7535\u4fe1\u8425\u4e1a\u5385", "pty": "0706"}}, {"type": "Feature", "geometry": {"type": "Point", "coordinates": [121.5403419588929, 31.271538802173673]}, "properties": {"name": "\u4e2d\u56fd\u7535\u4fe1(\u5e73\u51c9\u8def\u8425\u4e1a\u5385)", "biz": "070601 \u751f\u6d3b\u670d\u52a1;\u7535\u8baf\u8425\u4e1a\u5385;\u4e2d\u56fd\u7535\u4fe1\u8425\u4e1a\u5385", "pty": "0706"}}, {"type": "Feature", "geometry": {"type": "Point", "coordinates": [121.526965315119, 31.282531833090577]}, "properties": {"name": "\u4e2d\u56fd\u7535\u4fe1(\u63a7\u6c5f\u8def\u8425\u4e1a\u5385)", "biz": "070601 \u751f\u6d3b\u670d\u52a1;\u7535\u8baf\u8425\u4e1a\u5385;\u4e2d\u56fd\u7535\u4fe1\u8425\u4e1a\u5385", "pty": "0706"}}, {"type": "Feature", "geometry": {"type": "Point", "coordinates": [121.53984276977528, 31.293308685492335]}, "properties": {"name": "\u4e2d\u56fd\u7535\u4fe1(\u5171\u8054\u516c\u53f8\u5ef6\u5409\u4e1c\u8def\u8425\u4e1a\u5385)", "biz": "070601 \u751f\u6d3b\u670d\u52a1;\u7535\u8baf\u8425\u4e1a\u5385;\u4e2d\u56fd\u7535\u4fe1\u8425\u4e1a\u5385", "pty": "0706"}}, {"type": "Feature", "geometry": {"type": "Point", "coordinates": [121.49098967333994, 31.310246128660932]}, "properties": {"name": "\u5929\u7ffc(\u653f\u7acb\u8def\u8425\u4e1a\u5385)", "biz": "070601 \u751f\u6d3b\u670d\u52a1;\u7535\u8baf\u8425\u4e1a\u5385;\u4e2d\u56fd\u7535\u4fe1\u8425\u4e1a\u5385", "pty": "0706"}}, {"type": "Feature", "geometry": {"type": "Point", "coordinates": [121.53845417819662, 31.278018827518736]}, "properties": {"name": "\u4e2d\u56fd\u7535\u4fe1(\u9686\u660c\u8def\u8425\u4e1a\u5385)", "biz": "070601 \u751f\u6d3b\u670d\u52a1;\u7535\u8baf\u8425\u4e1a\u5385;\u4e2d\u56fd\u7535\u4fe1\u8425\u4e1a\u5385", "pty": "0706"}}, {"type": "Feature", "geometry": {"type": "Point", "coordinates": [121.54826173421378, 31.28007869133377]}, "properties": {"name": "\u4e2d\u56fd\u7535\u4fe1(\u7231\u56fd\u8def\u8425\u4e1a\u5385)", "biz": "070601 \u751f\u6d3b\u670d\u52a1;\u7535\u8baf\u8425\u4e1a\u5385;\u4e2d\u56fd\u7535\u4fe1\u8425\u4e1a\u5385", "pty": "0706"}}, {"type": "Feature", "geometry": {"type": "Point", "coordinates": [121.54814745710233, 31.28007347162641]}, "properties": {"name": "\u4e2d\u56fd\u7535\u4fe1\u4e0a\u6d77\u516c\u53f8\u4e1c\u533a\u5c40\u5b9a\u6d77\u7535\u8bdd\u7ad9", "biz": "070601 \u751f\u6d3b\u670d\u52a1;\u7535\u8baf\u8425\u4e1a\u5385;\u4e2d\u56fd\u7535\u4fe1\u8425\u4e1a\u5385", "pty": "0706"}}, {"type": "Feature", "geometry": {"type": "Point", "coordinates": [121.51256825325753, 31.293183838774915]}, "properties": {"name": "\u4e2d\u56fd\u7535\u4fe1\u4e0a\u6d77\u516c\u53f8\u4e1c\u533a\u7535\u4fe1\u5c40\u9ec4\u5174\u7535\u8bdd\u7ad9", "biz": "070601|170208 \u751f\u6d3b\u670d\u52a1;\u7535\u8baf\u8425\u4e1a\u5385;\u4e2d\u56fd\u7535\u4fe1\u8425\u4e1a\u5385|\u516c\u53f8\u4f01\u4e1a;\u516c\u53f8;\u7535\u4fe1\u516c\u53f8", "pty": "0706"}}, {"type": "Feature", "geometry": {"type": "Point", "coordinates": [121.55289514982232, 31.296505575584238]}, "properties": {"name": "\u4e2d\u56fd\u7535\u4fe1(\u4e0a\u7406\u6821\u56ed\u5e97)", "biz": "070601 \u751f\u6d3b\u670d\u52a1;\u7535\u8baf\u8425\u4e1a\u5385;\u4e2d\u56fd\u7535\u4fe1\u8425\u4e1a\u5385", "pty": "0706"}}, {"type": "Feature", "geometry": {"type": "Point", "coordinates": [121.51316223440497, 31.30606945045837]}, "properties": {"name": "\u4e2d\u56fd\u79fb\u52a8(\u4e94\u89d2\u573a\u8425\u4e1a\u5385)", "biz": "070603 \u751f\u6d3b\u670d\u52a1;\u7535\u8baf\u8425\u4e1a\u5385;\u4e2d\u56fd\u79fb\u52a8\u8425\u4e1a\u5385", "pty": "0706"}}, {"type": "Feature", "geometry": {"type": "Point", "coordinates": [121.52657909483577, 31.2824288686685]}, "properties": {"name": "\u4e2d\u56fd\u79fb\u52a8(\u6768\u6d66\u516c\u56ed\u8425\u4e1a\u5385)", "biz": "070603 \u751f\u6d3b\u670d\u52a1;\u7535\u8baf\u8425\u4e1a\u5385;\u4e2d\u56fd\u79fb\u52a8\u8425\u4e1a\u5385", "pty": "0706"}}, {"type": "Feature", "geometry": {"type": "Point", "coordinates": [121.5075049446419, 31.275320451872464]}, "properties": {"name": "\u4e2d\u56fd\u79fb\u52a8(\u63a7\u6c5f\u8def\u8425\u4e1a\u5385)", "biz": "070603 \u751f\u6d3b\u670d\u52a1;\u7535\u8baf\u8425\u4e1a\u5385;\u4e2d\u56fd\u79fb\u52a8\u8425\u4e1a\u5385", "pty": "0706"}}, {"type": "Feature", "geometry": {"type": "Point", "coordinates": [121.53133655920068, 31.28693215667151]}, "properties": {"name": "\u4e2d\u56fd\u79fb\u52a8(\u9686\u660c\u8def\u8425\u4e1a\u5385)", "biz": "070603 \u751f\u6d3b\u670d\u52a1;\u7535\u8baf\u8425\u4e1a\u5385;\u4e2d\u56fd\u79fb\u52a8\u8425\u4e1a\u5385", "pty": "0706"}}, {"type": "Feature", "geometry": {"type": "Point", "coordinates": [121.50313466952728, 31.283387163119347]}, "properties": {"name": "\u4e2d\u56fd\u79fb\u52a8(\u5f70\u6b66\u8def\u8425\u4e1a\u5385)", "biz": "070603 \u751f\u6d3b\u670d\u52a1;\u7535\u8baf\u8425\u4e1a\u5385;\u4e2d\u56fd\u79fb\u52a8\u8425\u4e1a\u5385", "pty": "0706"}}, {"type": "Feature", "geometry": {"type": "Point", "coordinates": [121.53219425376757, 31.261924829407644]}, "properties": {"name": "\u4e2d\u56fd\u79fb\u52a8\u901a\u4fe1", "biz": "070603 \u751f\u6d3b\u670d\u52a1;\u7535\u8baf\u8425\u4e1a\u5385;\u4e2d\u56fd\u79fb\u52a8\u8425\u4e1a\u5385", "pty": "0706"}}, {"type": "Feature", "geometry": {"type": "Point", "coordinates": [121.49837619015229, 31.27592706050868]}, "properties": {"name": "\u4e2d\u56fd\u79fb\u52a8(\u5927\u8fde\u8def\u8425\u4e1a\u5385)", "biz": "070603 \u751f\u6d3b\u670d\u52a1;\u7535\u8baf\u8425\u4e1a\u5385;\u4e2d\u56fd\u79fb\u52a8\u8425\u4e1a\u5385", "pty": "0706"}}, {"type": "Feature", "geometry": {"type": "Point", "coordinates": [121.536874406269, 31.26948679474681]}, "properties": {"name": "\u4e2d\u56fd\u79fb\u52a8", "biz": "070603 \u751f\u6d3b\u670d\u52a1;\u7535\u8baf\u8425\u4e1a\u5385;\u4e2d\u56fd\u79fb\u52a8\u8425\u4e1a\u5385", "pty": "0706"}}, {"type": "Feature", "geometry": {"type": "Point", "coordinates": [121.52889468842281, 31.326729567329117]}, "properties": {"name": "\u4e2d\u56fd\u79fb\u52a8(\u5f00\u9c81\u8def\u8425\u4e1a\u5385)", "biz": "070603 \u751f\u6d3b\u670d\u52a1;\u7535\u8baf\u8425\u4e1a\u5385;\u4e2d\u56fd\u79fb\u52a8\u8425\u4e1a\u5385", "pty": "0706"}}, {"type": "Feature", "geometry": {"type": "Point", "coordinates": [121.52777568381391, 31.30874245545889]}, "properties": {"name": "\u4e2d\u56fd\u79fb\u52a8(\u4e2d\u539f\u8def\u8425\u4e1a\u5385)", "biz": "070603 \u751f\u6d3b\u670d\u52a1;\u7535\u8baf\u8425\u4e1a\u5385;\u4e2d\u56fd\u79fb\u52a8\u8425\u4e1a\u5385", "pty": "0706"}}, {"type": "Feature", "geometry": {"type": "Point", "coordinates": [121.54300438953346, 31.29232697539332]}, "properties": {"name": "\u4e2d\u56fd\u79fb\u52a8(\u957f\u767d\u8def\u8425\u4e1a\u5385)", "biz": "070603 \u751f\u6d3b\u670d\u52a1;\u7535\u8baf\u8425\u4e1a\u5385;\u4e2d\u56fd\u79fb\u52a8\u8425\u4e1a\u5385", "pty": "0706"}}, {"type": "Feature", "geometry": {"type": "Point", "coordinates": [121.52491645778221, 31.26215908583051]}, "properties": {"name": "\u4e2d\u56fd\u79fb\u52a8(\u6ee8\u6c5f\u8425\u4e1a\u5385)", "biz": "070603 \u751f\u6d3b\u670d\u52a1;\u7535\u8baf\u8425\u4e1a\u5385;\u4e2d\u56fd\u79fb\u52a8\u8425\u4e1a\u5385", "pty": "0706"}}, {"type": "Feature", "geometry": {"type": "Point", "coordinates": [121.51262206959453, 31.273850966648276]}, "properties": {"name": "\u4e2d\u56fd\u79fb\u52a8(\u5929\u5b87\u6570\u7801\u901a\u4fe1)", "biz": "070603 \u751f\u6d3b\u670d\u52a1;\u7535\u8baf\u8425\u4e1a\u5385;\u4e2d\u56fd\u79fb\u52a8\u8425\u4e1a\u5385", "pty": "0706"}}, {"type": "Feature", "geometry": {"type": "Point", "coordinates": [121.49194392083437, 31.312378166446962]}, "properties": {"name": "\u4e2d\u56fd\u79fb\u52a8(\u6388\u6743\u4ee3\u7406\u5e97)", "biz": "070603 \u751f\u6d3b\u670d\u52a1;\u7535\u8baf\u8425\u4e1a\u5385;\u4e2d\u56fd\u79fb\u52a8\u8425\u4e1a\u5385", "pty": "0706"}}, {"type": "Feature", "geometry": {"type": "Point", "coordinates": [121.53039289651316, 31.27225291047116]}, "properties": {"name": "\u6237\u5916\u804c\u5de5\u7231\u5fc3\u63a5\u529b\u7ad9\u00b7\u4e2d\u56fd\u79fb\u52a8\u957f\u9633\u8def\u8425\u4e1a\u5385", "biz": "070603 \u751f\u6d3b\u670d\u52a1;\u7535\u8baf\u8425\u4e1a\u5385;\u4e2d\u56fd\u79fb\u52a8\u8425\u4e1a\u5385", "pty": "0706"}}, {"type": "Feature", "geometry": {"type": "Point", "coordinates": [121.52602434568642, 31.2821535298713]}, "properties": {"name": "\u4e2d\u56fd\u8054\u901a(\u63a7\u6c5f\u8def\u8425\u4e1a\u5385)", "biz": "070604 \u751f\u6d3b\u670d\u52a1;\u7535\u8baf\u8425\u4e1a\u5385;\u4e2d\u56fd\u8054\u901a\u8425\u4e1a\u5385", "pty": "0706"}}, {"type": "Feature", "geometry": {"type": "Point", "coordinates": [121.5316056076284, 31.27223594747998]}, "properties": {"name": "\u4e2d\u56fd\u8054\u901a(\u957f\u9633\u8def\u8425\u4e1a\u5385)", "biz": "070604 \u751f\u6d3b\u670d\u52a1;\u7535\u8baf\u8425\u4e1a\u5385;\u4e2d\u56fd\u8054\u901a\u8425\u4e1a\u5385", "pty": "0706"}}, {"type": "Feature", "geometry": {"type": "Point", "coordinates": [121.52791840069739, 31.317485492447943]}, "properties": {"name": "\u4e2d\u56fd\u8054\u901a(\u4e2d\u539f\u8def\u8425\u4e1a\u5385)", "biz": "070604 \u751f\u6d3b\u670d\u52a1;\u7535\u8baf\u8425\u4e1a\u5385;\u4e2d\u56fd\u8054\u901a\u8425\u4e1a\u5385", "pty": "0706"}}, {"type": "Feature", "geometry": {"type": "Point", "coordinates": [121.53058499762122, 31.301999235120757]}, "properties": {"name": "\u4e2d\u56fd\u8054\u901a\u8425\u4e1a\u5385", "biz": "070604 \u751f\u6d3b\u670d\u52a1;\u7535\u8baf\u8425\u4e1a\u5385;\u4e2d\u56fd\u8054\u901a\u8425\u4e1a\u5385", "pty": "0706"}}, {"type": "Feature", "geometry": {"type": "Point", "coordinates": [121.54955588407707, 31.27953439683537]}, "properties": {"name": "\u8054\u901a\u5e73\u51c9\u8def\u8425\u4e1a\u5385", "biz": "070604 \u751f\u6d3b\u670d\u52a1;\u7535\u8baf\u8425\u4e1a\u5385;\u4e2d\u56fd\u8054\u901a\u8425\u4e1a\u5385", "pty": "0706"}}, {"type": "Feature", "geometry": {"type": "Point", "coordinates": [121.51489229265009, 31.293382412291653]}, "properties": {"name": "\u4e2d\u56fd\u8054\u901a(\u9ec4\u5174\u8def\u8425\u4e1a\u5385)", "biz": "070604 \u751f\u6d3b\u670d\u52a1;\u7535\u8baf\u8425\u4e1a\u5385;\u4e2d\u56fd\u8054\u901a\u8425\u4e1a\u5385", "pty": "0706"}}, {"type": "Feature", "geometry": {"type": "Point", "coordinates": [121.50673218958478, 31.263593181713848]}, "properties": {"name": "\u4e2d\u56fd\u8054\u901a(\u5b9d\u5730\u5e7f\u573a\u8425\u4e1a\u5385)", "biz": "070604 \u751f\u6d3b\u670d\u52a1;\u7535\u8baf\u8425\u4e1a\u5385;\u4e2d\u56fd\u8054\u901a\u8425\u4e1a\u5385", "pty": "0706"}}, {"type": "Feature", "geometry": {"type": "Point", "coordinates": [121.50395251370833, 31.331661921511557]}, "properties": {"name": "\u4e2d\u56fd\u8054\u901a(\u65b0\u6c5f\u6e7e\u57ce\u8425\u4e1a\u5385)", "biz": "070604 \u751f\u6d3b\u670d\u52a1;\u7535\u8baf\u8425\u4e1a\u5385;\u4e2d\u56fd\u8054\u901a\u8425\u4e1a\u5385", "pty": "0706"}}, {"type": "Feature", "geometry": {"type": "Point", "coordinates": [121.53313965316909, 31.291151882929405]}, "properties": {"name": "\u6237\u5916\u804c\u5de5\u7231\u5fc3\u63a5\u529b\u7ad9\u00b7\u4e0a\u6d77\u8054\u901a\u6c34\u4e30\u8def\u8425\u4e1a\u5385", "biz": "070604 \u751f\u6d3b\u670d\u52a1;\u7535\u8baf\u8425\u4e1a\u5385;\u4e2d\u56fd\u8054\u901a\u8425\u4e1a\u5385", "pty": "0706"}}, {"type": "Feature", "geometry": {"type": "Point", "coordinates": [121.34325467506208, 31.158733694727086]}, "properties": {"name": "\u4e2d\u56fd\u7535\u4fe1(\u4e03\u8398\u8def\u8425\u4e1a\u5385)", "biz": "070601|060305 \u751f\u6d3b\u670d\u52a1;\u7535\u8baf\u8425\u4e1a\u5385;\u4e2d\u56fd\u7535\u4fe1\u8425\u4e1a\u5385|\u8d2d\u7269\u670d\u52a1;\u5bb6\u7535\u7535\u5b50\u5356\u573a;\u624b\u673a\u9500\u552e", "pty": "0706"}}, {"type": "Feature", "geometry": {"type": "Point", "coordinates": [121.39612795069556, 31.06727169977644]}, "properties": {"name": "\u4e2d\u56fd\u79fb\u52a8(\u6109\u901a\u6570\u7801\u5e97)", "biz": "060305|070603 \u8d2d\u7269\u670d\u52a1;\u5bb6\u7535\u7535\u5b50\u5356\u573a;\u624b\u673a\u9500\u552e|\u751f\u6d3b\u670d\u52a1;\u7535\u8baf\u8425\u4e1a\u5385;\u4e2d\u56fd\u79fb\u52a8\u8425\u4e1a\u5385", "pty": "0603"}}, {"type": "Feature", "geometry": {"type": "Point", "coordinates": [121.3652409952091, 31.030544384156432]}, "properties": {"name": "\u4e2d\u56fd\u79fb\u52a8\u6388\u6743\u4ee3\u7406\u5e97", "biz": "070603|060305 \u751f\u6d3b\u670d\u52a1;\u7535\u8baf\u8425\u4e1a\u5385;\u4e2d\u56fd\u79fb\u52a8\u8425\u4e1a\u5385|\u8d2d\u7269\u670d\u52a1;\u5bb6\u7535\u7535\u5b50\u5356\u573a;\u624b\u673a\u9500\u552e", "pty": "0706"}}, {"type": "Feature", "geometry": {"type": "Point", "coordinates": [121.36545577039007, 31.179525950229156]}, "properties": {"name": "\u4e2d\u56fd\u7535\u4fe1(\u8679\u4e95\u8def\u4e13\u8425\u5e97)", "biz": "060305|070601 \u8d2d\u7269\u670d\u52a1;\u5bb6\u7535\u7535\u5b50\u5356\u573a;\u624b\u673a\u9500\u552e|\u751f\u6d3b\u670d\u52a1;\u7535\u8baf\u8425\u4e1a\u5385;\u4e2d\u56fd\u7535\u4fe1\u8425\u4e1a\u5385", "pty": "0603"}}, {"type": "Feature", "geometry": {"type": "Point", "coordinates": [121.37220883014555, 31.109956193620828]}, "properties": {"name": "\u4e2d\u56fd\u7535\u4fe1(\u8398\u4e1c\u8def\u8425\u4e1a\u5385)", "biz": "070601 \u751f\u6d3b\u670d\u52a1;\u7535\u8baf\u8425\u4e1a\u5385;\u4e2d\u56fd\u7535\u4fe1\u8425\u4e1a\u5385", "pty": "0706"}}, {"type": "Feature", "geometry": {"type": "Point", "coordinates": [121.34549615623084, 31.169041435178826]}, "properties": {"name": "\u4e2d\u56fd\u7535\u4fe1(\u822a\u65b0\u8def\u8425\u4e1a\u5385)", "biz": "070601 \u751f\u6d3b\u670d\u52a1;\u7535\u8baf\u8425\u4e1a\u5385;\u4e2d\u56fd\u7535\u4fe1\u8425\u4e1a\u5385", "pty": "0706"}}, {"type": "Feature", "geometry": {"type": "Point", "coordinates": [121.40345310276416, 31.110613995399376]}, "properties": {"name": "\u4e2d\u56fd\u7535\u4fe1(\u83b2\u82b1\u5357\u8def\u8425\u4e1a\u5385)", "biz": "070601 \u751f\u6d3b\u670d\u52a1;\u7535\u8baf\u8425\u4e1a\u5385;\u4e2d\u56fd\u7535\u4fe1\u8425\u4e1a\u5385", "pty": "0706"}}, {"type": "Feature", "geometry": {"type": "Point", "coordinates": [121.38979242295997, 31.101540669207957]}, "properties": {"name": "\u4e2d\u56fd\u7535\u4fe1(\u817e\u51b2\u8def\u8425\u4e1a\u5385)", "biz": "070601 \u751f\u6d3b\u670d\u52a1;\u7535\u8baf\u8425\u4e1a\u5385;\u4e2d\u56fd\u7535\u4fe1\u8425\u4e1a\u5385", "pty": "0706"}}, {"type": "Feature", "geometry": {"type": "Point", "coordinates": [121.41845175927148, 31.007534956625175]}, "properties": {"name": "\u4e2d\u56fd\u7535\u4fe1(\u6caa\u95f5\u8def\u8425\u4e1a\u5385)", "biz": "070601 \u751f\u6d3b\u670d\u52a1;\u7535\u8baf\u8425\u4e1a\u5385;\u4e2d\u56fd\u7535\u4fe1\u8425\u4e1a\u5385", "pty": "0706"}}, {"type": "Feature", "geometry": {"type": "Point", "coordinates": [121.38588046855914, 31.18032035195176]}, "properties": {"name": "\u4e2d\u56fd\u7535\u4fe1(\u5434\u4e2d\u8def\u8425\u4e1a\u5385)", "biz": "070601|060000 \u751f\u6d3b\u670d\u52a1;\u7535\u8baf\u8425\u4e1a\u5385;\u4e2d\u56fd\u7535\u4fe1\u8425\u4e1a\u5385|\u8d2d\u7269\u670d\u52a1;\u8d2d\u7269\u76f8\u5173\u573a\u6240;\u8d2d\u7269\u76f8\u5173\u573a\u6240", "pty": "0706"}}, {"type": "Feature", "geometry": {"type": "Point", "coordinates": [121.37725177990916, 31.116416933861547]}, "properties": {"name": "\u4e2d\u56fd\u7535\u4fe1(\u96c5\u81f4\u8def\u8425\u4e1a\u5385)", "biz": "070601 \u751f\u6d3b\u670d\u52a1;\u7535\u8baf\u8425\u4e1a\u5385;\u4e2d\u56fd\u7535\u4fe1\u8425\u4e1a\u5385", "pty": "0706"}}, {"type": "Feature", "geometry": {"type": "Point", "coordinates": [121.45986410284989, 31.043251316133986]}, "properties": {"name": "\u4e2d\u56fd\u7535\u4fe1(\u5251\u5ddd\u8def\u8425\u4e1a\u5385)", "biz": "070601 \u751f\u6d3b\u670d\u52a1;\u7535\u8baf\u8425\u4e1a\u5385;\u4e2d\u56fd\u7535\u4fe1\u8425\u4e1a\u5385", "pty": "0706"}}, {"type": "Feature", "geometry": {"type": "Point", "coordinates": [121.52215077421417, 31.066571980000706]}, "properties": {"name": "\u4e2d\u56fd\u7535\u4fe1(\u4e09\u9c81\u8def\u8425\u4e1a\u5385)", "biz": "070601 \u751f\u6d3b\u670d\u52a1;\u7535\u8baf\u8425\u4e1a\u5385;\u4e2d\u56fd\u7535\u4fe1\u8425\u4e1a\u5385", "pty": "0706"}}, {"type": "Feature", "geometry": {"type": "Point", "coordinates": [121.29398400142715, 31.208389949222212]}, "properties": {"name": "\u4e2d\u56fd\u7535\u4fe1(\u5317\u7fdf\u8def\u8425\u4e1a\u5385)", "biz": "070601 \u751f\u6d3b\u670d\u52a1;\u7535\u8baf\u8425\u4e1a\u5385;\u4e2d\u56fd\u7535\u4fe1\u8425\u4e1a\u5385", "pty": "0706"}}, {"type": "Feature", "geometry": {"type": "Point", "coordinates": [121.30421110823575, 31.209791028337172]}, "properties": {"name": "\u4e2d\u56fd\u7535\u4fe1(\u5b81\u8679\u8def\u8425\u4e1a\u5385)", "biz": "070601 \u751f\u6d3b\u670d\u52a1;\u7535\u8baf\u8425\u4e1a\u5385;\u4e2d\u56fd\u7535\u4fe1\u8425\u4e1a\u5385", "pty": "0706"}}, {"type": "Feature", "geometry": {"type": "Point", "coordinates": [121.52271547825772, 31.06839146847764]}, "properties": {"name": "\u4e2d\u56fd\u7535\u4fe1(\u4e09\u9c81\u8def\u8425\u4e1a\u5385)", "biz": "070601 \u751f\u6d3b\u670d\u52a1;\u7535\u8baf\u8425\u4e1a\u5385;\u4e2d\u56fd\u7535\u4fe1\u8425\u4e1a\u5385", "pty": "0706"}}, {"type": "Feature", "geometry": {"type": "Point", "coordinates": [121.39202307009856, 31.154605290936058]}, "properties": {"name": "\u4e2d\u56fd\u7535\u4fe1(\u5e73\u5357\u8def\u5929\u7ffc\u4e13\u8425\u5e97)", "biz": "070601 \u751f\u6d3b\u670d\u52a1;\u7535\u8baf\u8425\u4e1a\u5385;\u4e2d\u56fd\u7535\u4fe1\u8425\u4e1a\u5385", "pty": "0706"}}, {"type": "Feature", "geometry": {"type": "Point", "coordinates": [121.40750405670566, 31.084869760246203]}, "properties": {"name": "\u4e2d\u56fd\u7535\u4fe1(\u90fd\u4f1a\u8def\u8425\u4e1a\u5385)", "biz": "070601 \u751f\u6d3b\u670d\u52a1;\u7535\u8baf\u8425\u4e1a\u5385;\u4e2d\u56fd\u7535\u4fe1\u8425\u4e1a\u5385", "pty": "0706"}}, {"type": "Feature", "geometry": {"type": "Point", "coordinates": [121.45282199918574, 31.043722214404212]}, "properties": {"name": "\u4e2d\u56fd\u7535\u4fe1(\u6c38\u5fb7\u8def\u8425\u4e1a\u5385)", "biz": "070601 \u751f\u6d3b\u670d\u52a1;\u7535\u8baf\u8425\u4e1a\u5385;\u4e2d\u56fd\u7535\u4fe1\u8425\u4e1a\u5385", "pty": "0706"}}, {"type": "Feature", "geometry": {"type": "Point", "coordinates": [121.4138046576217, 31.094225138439224]}, "properties": {"name": "\u4e2d\u56fd\u7535\u4fe1\u66d9\u5efa\u8def\u8425\u4e1a\u5385", "biz": "070601 \u751f\u6d3b\u670d\u52a1;\u7535\u8baf\u8425\u4e1a\u5385;\u4e2d\u56fd\u7535\u4fe1\u8425\u4e1a\u5385", "pty": "0706"}}, {"type": "Feature", "geometry": {"type": "Point", "coordinates": [121.32493050784647, 31.22424831878439]}, "properties": {"name": "\u4e2d\u56fd\u7535\u4fe1(\u5317\u7fdf\u8def\u8425\u4e1a\u5385)", "biz": "070601 \u751f\u6d3b\u670d\u52a1;\u7535\u8baf\u8425\u4e1a\u5385;\u4e2d\u56fd\u7535\u4fe1\u8425\u4e1a\u5385", "pty": "0706"}}, {"type": "Feature", "geometry": {"type": "Point", "coordinates": [121.50146548453193, 31.08412349293623]}, "properties": {"name": "\u4e2d\u56fd\u7535\u4fe1(\u6c5f\u6708\u8def\u5929\u7ffc\u4e13\u8425\u5e97)", "biz": "070601 \u751f\u6d3b\u670d\u52a1;\u7535\u8baf\u8425\u4e1a\u5385;\u4e2d\u56fd\u7535\u4fe1\u8425\u4e1a\u5385", "pty": "0706"}}, {"type": "Feature", "geometry": {"type": "Point", "coordinates": [121.50001618322864, 31.097186825898067]}, "properties": {"name": "\u4e2d\u56fd\u7535\u4fe1(\u9648\u884c\u516c\u8def\u8425\u4e1a\u5385)", "biz": "070601 \u751f\u6d3b\u670d\u52a1;\u7535\u8baf\u8425\u4e1a\u5385;\u4e2d\u56fd\u7535\u4fe1\u8425\u4e1a\u5385", "pty": "0706"}}, {"type": "Feature", "geometry": {"type": "Point", "coordinates": [121.49808655870127, 31.08158782022405]}, "properties": {"name": "\u4e2d\u56fd\u79fb\u52a8(\u6d66\u6c5f\u8425\u4e1a\u5385)", "biz": "070603 \u751f\u6d3b\u670d\u52a1;\u7535\u8baf\u8425\u4e1a\u5385;\u4e2d\u56fd\u79fb\u52a8\u8425\u4e1a\u5385", "pty": "0706"}}, {"type": "Feature", "geometry": {"type": "Point", "coordinates": [121.39450316989613, 31.066773157173895]}, "properties": {"name": "\u4e2d\u56fd\u79fb\u52a8(\u989b\u6865\u8425\u4e1a\u5385)", "biz": "070603 \u751f\u6d3b\u670d\u52a1;\u7535\u8baf\u8425\u4e1a\u5385;\u4e2d\u56fd\u79fb\u52a8\u8425\u4e1a\u5385", "pty": "0706"}}, {"type": "Feature", "geometry": {"type": "Point", "coordinates": [121.35137774055165, 31.178242883837243]}, "properties": {"name": "\u4e2d\u56fd\u79fb\u52a8(\u9f99\u67cf\u8425\u4e1a\u5385)", "biz": "070603 \u751f\u6d3b\u670d\u52a1;\u7535\u8baf\u8425\u4e1a\u5385;\u4e2d\u56fd\u79fb\u52a8\u8425\u4e1a\u5385", "pty": "0706"}}, {"type": "Feature", "geometry": {"type": "Point", "coordinates": [121.36477722242365, 31.11669500668269]}, "properties": {"name": "\u4e2d\u56fd\u79fb\u52a8(\u8398\u5e84\u8425\u4e1a\u5385)", "biz": "070603 \u751f\u6d3b\u670d\u52a1;\u7535\u8baf\u8425\u4e1a\u5385;\u4e2d\u56fd\u79fb\u52a8\u8425\u4e1a\u5385", "pty": "0706"}}, {"type": "Feature", "geometry": {"type": "Point", "coordinates": [121.39771707702397, 31.134467277856636]}, "properties": {"name": "\u4e2d\u56fd\u79fb\u52a8(\u5357\u65b9\u8425\u4e1a\u5385)", "biz": "070603 \u751f\u6d3b\u670d\u52a1;\u7535\u8baf\u8425\u4e1a\u5385;\u4e2d\u56fd\u79fb\u52a8\u8425\u4e1a\u5385", "pty": "0706"}}, {"type": "Feature", "geometry": {"type": "Point", "coordinates": [121.38412454024476, 31.111559725791242]}, "properties": {"name": "\u4e2d\u56fd\u79fb\u52a8(\u90fd\u5e02\u8def\u8425\u4e1a\u5385)", "biz": "070603 \u751f\u6d3b\u670d\u52a1;\u7535\u8baf\u8425\u4e1a\u5385;\u4e2d\u56fd\u79fb\u52a8\u8425\u4e1a\u5385", "pty": "0706"}}, {"type": "Feature", "geometry": {"type": "Point", "coordinates": [121.38166244708214, 31.179089458785125]}, "properties": {"name": "\u4e2d\u56fd\u79fb\u52a8(\u5434\u4e2d\u8def\u8425\u4e1a\u5385)", "biz": "070603 \u751f\u6d3b\u670d\u52a1;\u7535\u8baf\u8425\u4e1a\u5385;\u4e2d\u56fd\u79fb\u52a8\u8425\u4e1a\u5385", "pty": "0706"}}, {"type": "Feature", "geometry": {"type": "Point", "coordinates": [121.46341962446765, 31.04609269540439]}, "properties": {"name": "\u4e2d\u56fd\u79fb\u52a8(\u5434\u6cfe\u8425\u4e1a\u5385)", "biz": "070603 \u751f\u6d3b\u670d\u52a1;\u7535\u8baf\u8425\u4e1a\u5385;\u4e2d\u56fd\u79fb\u52a8\u8425\u4e1a\u5385", "pty": "0706"}}, {"type": "Feature", "geometry": {"type": "Point", "coordinates": [121.37764277374308, 31.158154247061145]}, "properties": {"name": "\u4e2d\u56fd\u79fb\u52a8(\u9759\u5b89\u65b0\u57ce\u8425\u4e1a\u5385)", "biz": "070603 \u751f\u6d3b\u670d\u52a1;\u7535\u8baf\u8425\u4e1a\u5385;\u4e2d\u56fd\u79fb\u52a8\u8425\u4e1a\u5385", "pty": "0706"}}, {"type": "Feature", "geometry": {"type": "Point", "coordinates": [121.29153990828432, 31.204983412173597]}, "properties": {"name": "\u4e2d\u56fd\u79fb\u52a8\u901a\u4fe1(\u8bf8\u5149\u8def)", "biz": "070603 \u751f\u6d3b\u670d\u52a1;\u7535\u8baf\u8425\u4e1a\u5385;\u4e2d\u56fd\u79fb\u52a8\u8425\u4e1a\u5385", "pty": "0706"}}, {"type": "Feature", "geometry": {"type": "Point", "coordinates": [121.42142676613022, 31.117845836070266]}, "properties": {"name": "\u4e2d\u56fd\u79fb\u52a8(\u9526\u6885\u8def)", "biz": "070603 \u751f\u6d3b\u670d\u52a1;\u7535\u8baf\u8425\u4e1a\u5385;\u4e2d\u56fd\u79fb\u52a8\u8425\u4e1a\u5385", "pty": "0706"}}, {"type": "Feature", "geometry": {"type": "Point", "coordinates": [121.39528675675284, 31.16245661472792]}, "properties": {"name": "\u4e2d\u56fd\u79fb\u52a8(\u6f15\u5b9d\u8def\u8425\u4e1a\u5385)", "biz": "070603 \u751f\u6d3b\u670d\u52a1;\u7535\u8baf\u8425\u4e1a\u5385;\u4e2d\u56fd\u79fb\u52a8\u8425\u4e1a\u5385", "pty": "0706"}}, {"type": "Feature", "geometry": {"type": "Point", "coordinates": [121.29356385067564, 31.207862868802795]}, "properties": {"name": "\u4e2d\u56fd\u79fb\u52a8(\u534e\u6f15\u8425\u4e1a\u5385)", "biz": "070603 \u751f\u6d3b\u670d\u52a1;\u7535\u8baf\u8425\u4e1a\u5385;\u4e2d\u56fd\u79fb\u52a8\u8425\u4e1a\u5385", "pty": "0706"}}, {"type": "Feature", "geometry": {"type": "Point", "coordinates": [121.37222173270436, 31.110901658767492]}, "properties": {"name": "\u4e2d\u56fd\u79fb\u52a8(\u8398\u4e1c\u8def\u8425\u4e1a\u5385)", "biz": "070603 \u751f\u6d3b\u670d\u52a1;\u7535\u8baf\u8425\u4e1a\u5385;\u4e2d\u56fd\u79fb\u52a8\u8425\u4e1a\u5385", "pty": "0706"}}, {"type": "Feature", "geometry": {"type": "Point", "coordinates": [121.52176128090076, 31.069082486346794]}, "properties": {"name": "\u4e2d\u56fd\u79fb\u52a8(\u4f73\u4f73\u901a\u8baf)", "biz": "070603 \u751f\u6d3b\u670d\u52a1;\u7535\u8baf\u8425\u4e1a\u5385;\u4e2d\u56fd\u79fb\u52a8\u8425\u4e1a\u5385", "pty": "0706"}}, {"type": "Feature", "geometry": {"type": "Point", "coordinates": [121.42845646227045, 31.01951238969662]}, "properties": {"name": "\u4e2d\u56fd\u79fb\u52a8(\u4e1c\u5ddd\u8def\u8425\u4e1a\u5385)", "biz": "070603 \u751f\u6d3b\u670d\u52a1;\u7535\u8baf\u8425\u4e1a\u5385;\u4e2d\u56fd\u79fb\u52a8\u8425\u4e1a\u5385", "pty": "0706"}}, {"type": "Feature", "geometry": {"type": "Point", "coordinates": [121.41491935924597, 31.016776526057168]}, "properties": {"name": "\u4e2d\u56fd\u79fb\u52a84g\u4f53\u9a8c\u670d\u52a1\u4e2d\u5fc3", "biz": "070603 \u751f\u6d3b\u670d\u52a1;\u7535\u8baf\u8425\u4e1a\u5385;\u4e2d\u56fd\u79fb\u52a8\u8425\u4e1a\u5385", "pty": "0706"}}, {"type": "Feature", "geometry": {"type": "Point", "coordinates": [121.52512539955299, 31.06731053263065]}, "properties": {"name": "\u4e2d\u56fd\u79fb\u52a8\u901a\u4fe1(\u7279\u7ea6\u76f4\u9500\u5e97)", "biz": "070603 \u751f\u6d3b\u670d\u52a1;\u7535\u8baf\u8425\u4e1a\u5385;\u4e2d\u56fd\u79fb\u52a8\u8425\u4e1a\u5385", "pty": "0706"}}, {"type": "Feature", "geometry": {"type": "Point", "coordinates": [121.37726285520235, 31.16145984162769]}, "properties": {"name": "\u4e2d\u56fd\u79fb\u52a8(\u84dd\u73c0\u901a\u4fe1)", "biz": "070603 \u751f\u6d3b\u670d\u52a1;\u7535\u8baf\u8425\u4e1a\u5385;\u4e2d\u56fd\u79fb\u52a8\u8425\u4e1a\u5385", "pty": "0706"}}, {"type": "Feature", "geometry": {"type": "Point", "coordinates": [121.36308033572382, 31.1104206482399]}, "properties": {"name": "\u4e2d\u56fd\u79fb\u52a8", "biz": "070603 \u751f\u6d3b\u670d\u52a1;\u7535\u8baf\u8425\u4e1a\u5385;\u4e2d\u56fd\u79fb\u52a8\u8425\u4e1a\u5385", "pty": "0706"}}, {"type": "Feature", "geometry": {"type": "Point", "coordinates": [121.4407574243769, 31.04006626902942]}, "properties": {"name": "\u4e2d\u56fd\u79fb\u52a8(\u4e07\u4e50\u57ce\u5e97)", "biz": "070603 \u751f\u6d3b\u670d\u52a1;\u7535\u8baf\u8425\u4e1a\u5385;\u4e2d\u56fd\u79fb\u52a8\u8425\u4e1a\u5385", "pty": "0706"}}, {"type": "Feature", "geometry": {"type": "Point", "coordinates": [121.53067264962829, 31.105657232942985]}, "properties": {"name": "\u4e2d\u56fd\u79fb\u52a8(\u6708\u9e3f\u624b\u673a\u8fde\u9501)", "biz": "070603 \u751f\u6d3b\u670d\u52a1;\u7535\u8baf\u8425\u4e1a\u5385;\u4e2d\u56fd\u79fb\u52a8\u8425\u4e1a\u5385", "pty": "0706"}}, {"type": "Feature", "geometry": {"type": "Point", "coordinates": [121.38236122471199, 31.14102381511526]}, "properties": {"name": "\u4e2d\u56fd\u79fb\u52a8", "biz": "070603 \u751f\u6d3b\u670d\u52a1;\u7535\u8baf\u8425\u4e1a\u5385;\u4e2d\u56fd\u79fb\u52a8\u8425\u4e1a\u5385", "pty": "0706"}}, {"type": "Feature", "geometry": {"type": "Point", "coordinates": [121.40466523217184, 31.04480164686011]}, "properties": {"name": "\u4e2d\u56fd\u79fb\u52a8(\u5434\u6c38\u624b\u673a\u8fde\u9501)", "biz": "070603 \u751f\u6d3b\u670d\u52a1;\u7535\u8baf\u8425\u4e1a\u5385;\u4e2d\u56fd\u79fb\u52a8\u8425\u4e1a\u5385", "pty": "0706"}}, {"type": "Feature", "geometry": {"type": "Point", "coordinates": [121.41515433838735, 31.019554078015183]}, "properties": {"name": "\u4e2d\u56fd\u79fb\u52a8", "biz": "070603 \u751f\u6d3b\u670d\u52a1;\u7535\u8baf\u8425\u4e1a\u5385;\u4e2d\u56fd\u79fb\u52a8\u8425\u4e1a\u5385", "pty": "0706"}}, {"type": "Feature", "geometry": {"type": "Point", "coordinates": [121.42007196615562, 31.00365380387462]}, "properties": {"name": "\u4e2d\u56fd\u79fb\u52a8", "biz": "070603 \u751f\u6d3b\u670d\u52a1;\u7535\u8baf\u8425\u4e1a\u5385;\u4e2d\u56fd\u79fb\u52a8\u8425\u4e1a\u5385", "pty": "0706"}}, {"type": "Feature", "geometry": {"type": "Point", "coordinates": [121.53072435229848, 31.06299644377718]}, "properties": {"name": "\u4e2d\u56fd\u79fb\u52a8(\u9c81\u6c47\u9547\u8425\u4e1a\u5385)", "biz": "070603 \u751f\u6d3b\u670d\u52a1;\u7535\u8baf\u8425\u4e1a\u5385;\u4e2d\u56fd\u79fb\u52a8\u8425\u4e1a\u5385", "pty": "0706"}}, {"type": "Feature", "geometry": {"type": "Point", "coordinates": [121.37628942914822, 31.166063292101253]}, "properties": {"name": "\u4e2d\u56fd\u79fb\u52a8(\u95f5\u884c\u84dd\u73c0\u901a\u8baf\u76f4\u4f9b\u5e97)", "biz": "070603 \u751f\u6d3b\u670d\u52a1;\u7535\u8baf\u8425\u4e1a\u5385;\u4e2d\u56fd\u79fb\u52a8\u8425\u4e1a\u5385", "pty": "0706"}}, {"type": "Feature", "geometry": {"type": "Point", "coordinates": [121.35652028308999, 31.143958704485925]}, "properties": {"name": "\u4e2d\u56fd\u79fb\u52a8(\u95f5\u884c\u5929\u4e00\u901a\u4fe1\u76f4\u4f9b\u5e97)", "biz": "070603 \u751f\u6d3b\u670d\u52a1;\u7535\u8baf\u8425\u4e1a\u5385;\u4e2d\u56fd\u79fb\u52a8\u8425\u4e1a\u5385", "pty": "0706"}}, {"type": "Feature", "geometry": {"type": "Point", "coordinates": [121.53456124220725, 31.046421414500806]}, "properties": {"name": "\u4e2d\u56fd\u79fb\u52a8(\u95f5\u884c\u91d1\u709c\u5361\u793e\u76f4\u4f9b\u5e97)", "biz": "070603 \u751f\u6d3b\u670d\u52a1;\u7535\u8baf\u8425\u4e1a\u5385;\u4e2d\u56fd\u79fb\u52a8\u8425\u4e1a\u5385", "pty": "0706"}}, {"type": "Feature", "geometry": {"type": "Point", "coordinates": [121.37293103708119, 31.097745243903137]}, "properties": {"name": "\u4e2d\u56fd\u79fb\u52a8(\u542f\u822a\u901a\u4fe1\u7279\u7ea6\u4ee3\u7406\u70b9)", "biz": "070603 \u751f\u6d3b\u670d\u52a1;\u7535\u8baf\u8425\u4e1a\u5385;\u4e2d\u56fd\u79fb\u52a8\u8425\u4e1a\u5385", "pty": "0706"}}, {"type": "Feature", "geometry": {"type": "Point", "coordinates": [121.42420329836283, 31.015957065827095]}, "properties": {"name": "\u4e2d\u56fd\u79fb\u52a8(\u6ca7\u6e90\u8def)", "biz": "070603 \u751f\u6d3b\u670d\u52a1;\u7535\u8baf\u8425\u4e1a\u5385;\u4e2d\u56fd\u79fb\u52a8\u8425\u4e1a\u5385", "pty": "0706"}}, {"type": "Feature", "geometry": {"type": "Point", "coordinates": [121.40386633409244, 31.109511712335568]}, "properties": {"name": "\u4e2d\u56fd\u79fb\u52a8(\u624b\u673a\u4e13\u5356\u5e97)", "biz": "070603 \u751f\u6d3b\u670d\u52a1;\u7535\u8baf\u8425\u4e1a\u5385;\u4e2d\u56fd\u79fb\u52a8\u8425\u4e1a\u5385", "pty": "0706"}}, {"type": "Feature", "geometry": {"type": "Point", "coordinates": [121.37047833230973, 31.105656393279318]}, "properties": {"name": "\u4e2d\u56fd\u79fb\u52a8", "biz": "070603 \u751f\u6d3b\u670d\u52a1;\u7535\u8baf\u8425\u4e1a\u5385;\u4e2d\u56fd\u79fb\u52a8\u8425\u4e1a\u5385", "pty": "0706"}}, {"type": "Feature", "geometry": {"type": "Point", "coordinates": [121.40089568217452, 31.073526293252613]}, "properties": {"name": "\u4e2d\u56fd\u79fb\u52a8(\u624b\u673a\u4e13\u5356\u5e97)", "biz": "070603 \u751f\u6d3b\u670d\u52a1;\u7535\u8baf\u8425\u4e1a\u5385;\u4e2d\u56fd\u79fb\u52a8\u8425\u4e1a\u5385", "pty": "0706"}}, {"type": "Feature", "geometry": {"type": "Point", "coordinates": [121.270299042458, 31.24460224568992]}, "properties": {"name": "\u4e2d\u56fd\u79fb\u52a8\u901a\u4fe1", "biz": "070603 \u751f\u6d3b\u670d\u52a1;\u7535\u8baf\u8425\u4e1a\u5385;\u4e2d\u56fd\u79fb\u52a8\u8425\u4e1a\u5385", "pty": "0706"}}, {"type": "Feature", "geometry": {"type": "Point", "coordinates": [121.2650686556406, 31.24368699582918]}, "properties": {"name": "\u4e2d\u56fd\u79fb\u52a8", "biz": "070603 \u751f\u6d3b\u670d\u52a1;\u7535\u8baf\u8425\u4e1a\u5385;\u4e2d\u56fd\u79fb\u52a8\u8425\u4e1a\u5385", "pty": "0706"}}, {"type": "Feature", "geometry": {"type": "Point", "coordinates": [121.36567110607547, 31.183562644444397]}, "properties": {"name": "\u4e2d\u56fd\u79fb\u52a8(\u7ea2\u677e\u8def\u8425\u4e1a\u5385)", "biz": "070603 \u751f\u6d3b\u670d\u52a1;\u7535\u8baf\u8425\u4e1a\u5385;\u4e2d\u56fd\u79fb\u52a8\u8425\u4e1a\u5385", "pty": "0706"}}, {"type": "Feature", "geometry": {"type": "Point", "coordinates": [121.3634637423805, 31.122002792237428]}, "properties": {"name": "\u4e2d\u56fd\u8054\u901a(\u758f\u5f71\u8def\u8425\u4e1a\u5385)", "biz": "070604 \u751f\u6d3b\u670d\u52a1;\u7535\u8baf\u8425\u4e1a\u5385;\u4e2d\u56fd\u8054\u901a\u8425\u4e1a\u5385", "pty": "0706"}}, {"type": "Feature", "geometry": {"type": "Point", "coordinates": [121.37165567291387, 31.10793388202677]}, "properties": {"name": "\u4e2d\u56fd\u8054\u901a(\u8398\u5efa\u8def\u8425\u4e1a\u5385)", "biz": "070604 \u751f\u6d3b\u670d\u52a1;\u7535\u8baf\u8425\u4e1a\u5385;\u4e2d\u56fd\u8054\u901a\u8425\u4e1a\u5385", "pty": "0706"}}, {"type": "Feature", "geometry": {"type": "Point", "coordinates": [121.38484211294602, 31.111134557790326]}, "properties": {"name": "\u4e2d\u56fd\u8054\u901a(\u8398\u6731\u8def\u8425\u4e1a\u5385)", "biz": "070604 \u751f\u6d3b\u670d\u52a1;\u7535\u8baf\u8425\u4e1a\u5385;\u4e2d\u56fd\u8054\u901a\u8425\u4e1a\u5385", "pty": "0706"}}, {"type": "Feature", "geometry": {"type": "Point", "coordinates": [121.37515517721086, 31.159615655146936]}, "properties": {"name": "\u4e2d\u56fd\u8054\u901a(\u6f15\u5b9d\u8def\u8425\u4e1a\u5385)", "biz": "070604 \u751f\u6d3b\u670d\u52a1;\u7535\u8baf\u8425\u4e1a\u5385;\u4e2d\u56fd\u8054\u901a\u8425\u4e1a\u5385", "pty": "0706"}}, {"type": "Feature", "geometry": {"type": "Point", "coordinates": [121.49774455203384, 31.07893229960943]}, "properties": {"name": "\u4e2d\u56fd\u8054\u901a(\u6d66\u9a70\u8def\u8425\u4e1a\u5385)", "biz": "070604 \u751f\u6d3b\u670d\u52a1;\u7535\u8baf\u8425\u4e1a\u5385;\u4e2d\u56fd\u8054\u901a\u8425\u4e1a\u5385", "pty": "0706"}}, {"type": "Feature", "geometry": {"type": "Point", "coordinates": [121.38231999342419, 31.190009536344014]}, "properties": {"name": "\u4e2d\u56fd\u8054\u901a(\u8679\u6865\u8425\u4e1a\u5385)", "biz": "070604|060300 \u751f\u6d3b\u670d\u52a1;\u7535\u8baf\u8425\u4e1a\u5385;\u4e2d\u56fd\u8054\u901a\u8425\u4e1a\u5385|\u8d2d\u7269\u670d\u52a1;\u5bb6\u7535\u7535\u5b50\u5356\u573a;\u5bb6\u7535\u7535\u5b50\u5356\u573a", "pty": "0706"}}, {"type": "Feature", "geometry": {"type": "Point", "coordinates": [121.3966136023015, 31.1630821865222]}, "properties": {"name": "\u4e2d\u56fd\u8054\u901a(\u53e4\u7f8e\u8def\u8425\u4e1a\u5385)", "biz": "070604 \u751f\u6d3b\u670d\u52a1;\u7535\u8baf\u8425\u4e1a\u5385;\u4e2d\u56fd\u8054\u901a\u8425\u4e1a\u5385", "pty": "0706"}}, {"type": "Feature", "geometry": {"type": "Point", "coordinates": [121.3473947469617, 31.152530774365697]}, "properties": {"name": "\u4e2d\u56fd\u8054\u901a(\u4e03\u5b9d\u8001\u8857\u8425\u4e1a\u5385)", "biz": "070604 \u751f\u6d3b\u670d\u52a1;\u7535\u8baf\u8425\u4e1a\u5385;\u4e2d\u56fd\u8054\u901a\u8425\u4e1a\u5385", "pty": "0706"}}, {"type": "Feature", "geometry": {"type": "Point", "coordinates": [121.3922424665076, 31.06876644710302]}, "properties": {"name": "\u4e2d\u56fd\u8054\u901a(\u989b\u6865\u8425\u4e1a\u5385)", "biz": "070604 \u751f\u6d3b\u670d\u52a1;\u7535\u8baf\u8425\u4e1a\u5385;\u4e2d\u56fd\u8054\u901a\u8425\u4e1a\u5385", "pty": "0706"}}, {"type": "Feature", "geometry": {"type": "Point", "coordinates": [121.37097889649264, 31.172535125624275]}, "properties": {"name": "\u4e2d\u56fd\u8054\u901a(\u8679\u6cc9\u8def\u8425\u4e1a\u5385)", "biz": "070604 \u751f\u6d3b\u670d\u52a1;\u7535\u8baf\u8425\u4e1a\u5385;\u4e2d\u56fd\u8054\u901a\u8425\u4e1a\u5385", "pty": "0706"}}, {"type": "Feature", "geometry": {"type": "Point", "coordinates": [121.4091618042015, 31.098803725613806]}, "properties": {"name": "\u4e2d\u56fd\u8054\u901a(\u83b2\u82b1\u5357\u8def\u8425\u4e1a\u5385)", "biz": "070604 \u751f\u6d3b\u670d\u52a1;\u7535\u8baf\u8425\u4e1a\u5385;\u4e2d\u56fd\u8054\u901a\u8425\u4e1a\u5385", "pty": "0706"}}, {"type": "Feature", "geometry": {"type": "Point", "coordinates": [121.36858700168368, 31.183916991933103]}, "properties": {"name": "\u4e2d\u56fd\u8054\u901a(\u7ea2\u677e\u8def\u8425\u4e1a\u5385)", "biz": "070604 \u751f\u6d3b\u670d\u52a1;\u7535\u8baf\u8425\u4e1a\u5385;\u4e2d\u56fd\u8054\u901a\u8425\u4e1a\u5385", "pty": "0706"}}, {"type": "Feature", "geometry": {"type": "Point", "coordinates": [121.45453267205569, 31.044160911162585]}, "properties": {"name": "\u4e2d\u56fd\u8054\u901a(\u6c38\u5fb7\u8def\u8425\u4e1a\u5385)", "biz": "070604 \u751f\u6d3b\u670d\u52a1;\u7535\u8baf\u8425\u4e1a\u5385;\u4e2d\u56fd\u8054\u901a\u8425\u4e1a\u5385", "pty": "0706"}}, {"type": "Feature", "geometry": {"type": "Point", "coordinates": [121.39187874358706, 31.13582629486329]}, "properties": {"name": "\u4e2d\u56fd\u8054\u901a(\u5357\u65b9\u5546\u57ce\u5385)", "biz": "070604 \u751f\u6d3b\u670d\u52a1;\u7535\u8baf\u8425\u4e1a\u5385;\u4e2d\u56fd\u8054\u901a\u8425\u4e1a\u5385", "pty": "0706"}}, {"type": "Feature", "geometry": {"type": "Point", "coordinates": [121.40858136533143, 31.099812874519817]}, "properties": {"name": "\u4e2d\u56fd\u8054\u901a", "biz": "070604 \u751f\u6d3b\u670d\u52a1;\u7535\u8baf\u8425\u4e1a\u5385;\u4e2d\u56fd\u8054\u901a\u8425\u4e1a\u5385", "pty": "0706"}}, {"type": "Feature", "geometry": {"type": "Point", "coordinates": [121.39137855625614, 31.059056234723577]}, "properties": {"name": "\u4e2d\u56fd\u8054\u901a(\u946b\u90fd\u5546\u4e1a\u5e7f\u573a)", "biz": "070604 \u751f\u6d3b\u670d\u52a1;\u7535\u8baf\u8425\u4e1a\u5385;\u4e2d\u56fd\u8054\u901a\u8425\u4e1a\u5385", "pty": "0706"}}, {"type": "Feature", "geometry": {"type": "Point", "coordinates": [121.38144761311483, 31.17911958889651]}, "properties": {"name": "\u4e2d\u56fd\u8054\u901a(\u5434\u4e2d\u8def\u8425\u4e1a\u5385)", "biz": "070604 \u751f\u6d3b\u670d\u52a1;\u7535\u8baf\u8425\u4e1a\u5385;\u4e2d\u56fd\u8054\u901a\u8425\u4e1a\u5385", "pty": "0706"}}, {"type": "Feature", "geometry": {"type": "Point", "coordinates": [121.34430730271897, 31.172457750075626]}, "properties": {"name": "\u4e2d\u56fd\u8054\u901a(\u822a\u5317\u8def\u8425\u4e1a\u5385)", "biz": "070604 \u751f\u6d3b\u670d\u52a1;\u7535\u8baf\u8425\u4e1a\u5385;\u4e2d\u56fd\u8054\u901a\u8425\u4e1a\u5385", "pty": "0706"}}, {"type": "Feature", "geometry": {"type": "Point", "coordinates": [121.42637163329391, 31.01420175818057]}, "properties": {"name": "\u4e2d\u56fd\u8054\u901a(\u5fb7\u5b8f\u8def\u8425\u4e1a\u5385)", "biz": "070604 \u751f\u6d3b\u670d\u52a1;\u7535\u8baf\u8425\u4e1a\u5385;\u4e2d\u56fd\u8054\u901a\u8425\u4e1a\u5385", "pty": "0706"}}, {"type": "Feature", "geometry": {"type": "Point", "coordinates": [121.28770126185775, 31.211737849481263]}, "properties": {"name": "\u4e2d\u56fd\u8054\u901a(\u7e41\u5174\u8def\u8425\u4e1a\u5385)", "biz": "070604 \u751f\u6d3b\u670d\u52a1;\u7535\u8baf\u8425\u4e1a\u5385;\u4e2d\u56fd\u8054\u901a\u8425\u4e1a\u5385", "pty": "0706"}}, {"type": "Feature", "geometry": {"type": "Point", "coordinates": [121.45297536435216, 31.04433720822695]}, "properties": {"name": "\u4e2d\u56fd\u94c1\u901a(\u6c38\u5fb7\u8def\u8425\u4e1a\u5385)", "biz": "070605 \u751f\u6d3b\u670d\u52a1;\u7535\u8baf\u8425\u4e1a\u5385;\u4e2d\u56fd\u94c1\u901a\u8425\u4e1a\u5385", "pty": "0706"}}, {"type": "Feature", "geometry": {"type": "Point", "coordinates": [121.4063198425828, 31.355941331046537]},