{"type": "FeatureCollection", "features": [{"type": "Feature", "geometry": {"type": "Point", "coordinates": [121.37886336768669, 31.149693708352213]}, "properties": {"name": "\u6c47\u5b9d\u697c", "biz": "120201|061209 \u5546\u52a1\u4f4f\u5b85;\u697c\u5b87;\u5546\u52a1\u5199\u5b57\u697c|\u8d2d\u7269\u670d\u52a1;\u4e13\u5356\u5e97;\u793c\u54c1\u9970\u54c1\u5e97", "pty": "1202"}}, {"type": "Feature", "geometry": {"type": "Point", "coordinates": [121.52834053882549, 31.068183422339253]}, "properties": {"name": "\u5723\u7f57\u5170(\u8c08\u4e2d\u8def\u5e97)", "biz": "061209|060200 \u8d2d\u7269\u670d\u52a1;\u4e13\u5356\u5e97;\u793c\u54c1\u9970\u54c1\u5e97|\u8d2d\u7269\u670d\u52a1;\u4fbf\u6c11\u5546\u5e97/\u4fbf\u5229\u5e97;\u4fbf\u6c11\u5546\u5e97/\u4fbf\u5229\u5e97", "pty": "0612"}}, {"type": "Feature", "geometry": {"type": "Point", "coordinates": [121.41887820986707, 31.00786815973112]}, "properties": {"name": "\u6d41\u661f\u7269\u8bed", "biz": "061209|060200 \u8d2d\u7269\u670d\u52a1;\u4e13\u5356\u5e97;\u793c\u54c1\u9970\u54c1\u5e97|\u8d2d\u7269\u670d\u52a1;\u4fbf\u6c11\u5546\u5e97/\u4fbf\u5229\u5e97;\u4fbf\u6c11\u5546\u5e97/\u4fbf\u5229\u5e97", "pty": "0612"}}, {"type": "Feature", "geometry": {"type": "Point", "coordinates": [121.42427330979612, 31.155745714834506]}, "properties": {"name": "\u6e20\u6d77(\u4e0a\u6d77\u5357\u7ad9)", "biz": "061209|061100|060200 \u8d2d\u7269\u670d\u52a1;\u4e13\u5356\u5e97;\u793c\u54c1\u9970\u54c1\u5e97|\u8d2d\u7269\u670d\u52a1;\u670d\u88c5\u978b\u5e3d\u76ae\u5177\u5e97;\u670d\u88c5\u978b\u5e3d\u76ae\u5177\u5e97|\u8d2d\u7269\u670d\u52a1;\u4fbf\u6c11\u5546\u5e97/\u4fbf\u5229\u5e97;\u4fbf\u6c11\u5546\u5e97/\u4fbf\u5229\u5e97", "pty": "0612"}}, {"type": "Feature", "geometry": {"type": "Point", "coordinates": [121.30189952693141, 31.436198150346023]}, "properties": {"name": "\u70b9\u6ef4\u60c5\u767e\u8d27(\u66f9\u738b\u5e97)", "biz": "061209|060200 \u8d2d\u7269\u670d\u52a1;\u4e13\u5356\u5e97;\u793c\u54c1\u9970\u54c1\u5e97|\u8d2d\u7269\u670d\u52a1;\u4fbf\u6c11\u5546\u5e97/\u4fbf\u5229\u5e97;\u4fbf\u6c11\u5546\u5e97/\u4fbf\u5229\u5e97", "pty": "0612"}}, {"type": "Feature", "geometry": {"type": "Point", "coordinates": [121.55497625676948, 31.229420208805806]}, "properties": {"name": "MING SHOP(\u8bc1\u5927\u5927\u62c7\u6307\u5e7f\u573a)", "biz": "061209|060300 \u8d2d\u7269\u670d\u52a1;\u4e13\u5356\u5e97;\u793c\u54c1\u9970\u54c1\u5e97|\u8d2d\u7269\u670d\u52a1;\u5bb6\u7535\u7535\u5b50\u5356\u573a;\u5bb6\u7535\u7535\u5b50\u5356\u573a", "pty": "0612"}}, {"type": "Feature", "geometry": {"type": "Point", "coordinates": [121.45811917010214, 31.250745312887332]}, "properties": {"name": "\u4e0a\u6d77\u91d1\u5361\u793c\u54c1\u5c55\u793a\u5385", "biz": "061209|170207 \u8d2d\u7269\u670d\u52a1;\u4e13\u5356\u5e97;\u793c\u54c1\u9970\u54c1\u5e97|\u516c\u53f8\u4f01\u4e1a;\u516c\u53f8;\u5546\u4e1a\u8d38\u6613", "pty": "0612"}}, {"type": "Feature", "geometry": {"type": "Point", "coordinates": [121.40769305538615, 31.235587825070656]}, "properties": {"name": "\u540d\u521b\u4f18\u54c1(\u4e0a\u6d77\u73af\u7403\u6e2f)", "biz": "061209|060400 \u8d2d\u7269\u670d\u52a1;\u4e13\u5356\u5e97;\u793c\u54c1\u9970\u54c1\u5e97|\u8d2d\u7269\u670d\u52a1;\u8d85\u7ea7\u5e02\u573a;\u8d85\u5e02", "pty": "0612"}}, {"type": "Feature", "geometry": {"type": "Point", "coordinates": [121.44454615418383, 31.225735457456917]}, "properties": {"name": "ROSEONLY(\u4e0a\u6d77\u5609\u91cc\u4e2d\u5fc3)", "biz": "060501|061209 \u8d2d\u7269\u670d\u52a1;\u82b1\u9e1f\u9c7c\u866b\u5e02\u573a;\u82b1\u5349\u5e02\u573a|\u8d2d\u7269\u670d\u52a1;\u4e13\u5356\u5e97;\u793c\u54c1\u9970\u54c1\u5e97", "pty": "0605"}}, {"type": "Feature", "geometry": {"type": "Point", "coordinates": [121.36658543988595, 31.210632191179375]}, "properties": {"name": "\u767e\u5229\u5b89(\u767e\u8054\u897f\u90ca\u8d2d\u7269\u4e2d\u5fc3)", "biz": "061209|061101 \u8d2d\u7269\u670d\u52a1;\u4e13\u5356\u5e97;\u793c\u54c1\u9970\u54c1\u5e97|\u8d2d\u7269\u670d\u52a1;\u670d\u88c5\u978b\u5e3d\u76ae\u5177\u5e97;\u54c1\u724c\u670d\u88c5\u5e97", "pty": "0612"}}, {"type": "Feature", "geometry": {"type": "Point", "coordinates": [121.41433212229099, 31.220881618266038]}, "properties": {"name": "\u91d1\u946b\u94f6\u9970(\u73ab\u7470\u574a)", "biz": "061209|061202 \u8d2d\u7269\u670d\u52a1;\u4e13\u5356\u5e97;\u793c\u54c1\u9970\u54c1\u5e97|\u8d2d\u7269\u670d\u52a1;\u4e13\u5356\u5e97;\u73e0\u5b9d\u9996\u9970\u5de5\u827a\u54c1", "pty": "0612"}}, {"type": "Feature", "geometry": {"type": "Point", "coordinates": [121.41433212229099, 31.220881618266038]}, "properties": {"name": "\u91d1\u946b\u94f6\u9970(\u73ab\u7470\u574a)", "biz": "061209|061202 \u8d2d\u7269\u670d\u52a1;\u4e13\u5356\u5e97;\u793c\u54c1\u9970\u54c1\u5e97|\u8d2d\u7269\u670d\u52a1;\u4e13\u5356\u5e97;\u73e0\u5b9d\u9996\u9970\u5de5\u827a\u54c1", "pty": "0612"}}, {"type": "Feature", "geometry": {"type": "Point", "coordinates": [121.40255637295112, 31.207960163078287]}, "properties": {"name": "MONTBLANC(\u5c1a\u5609\u4e2d\u5fc3)", "biz": "061209|061203 \u8d2d\u7269\u670d\u52a1;\u4e13\u5356\u5e97;\u793c\u54c1\u9970\u54c1\u5e97|\u8d2d\u7269\u670d\u52a1;\u4e13\u5356\u5e97;\u949f\u8868\u5e97", "pty": "0612"}}, {"type": "Feature", "geometry": {"type": "Point", "coordinates": [121.40255637295112, 31.207960163078287]}, "properties": {"name": "MONTBLANC(\u5c1a\u5609\u4e2d\u5fc3)", "biz": "061209|061203 \u8d2d\u7269\u670d\u52a1;\u4e13\u5356\u5e97;\u793c\u54c1\u9970\u54c1\u5e97|\u8d2d\u7269\u670d\u52a1;\u4e13\u5356\u5e97;\u949f\u8868\u5e97", "pty": "0612"}}, {"type": "Feature", "geometry": {"type": "Point", "coordinates": [121.38178811175742, 31.2162580869459]}, "properties": {"name": "happy life art in life(\u7f24\u8c37\u5e7f\u573a)", "biz": "061209|061207 \u8d2d\u7269\u670d\u52a1;\u4e13\u5356\u5e97;\u793c\u54c1\u9970\u54c1\u5e97|\u8d2d\u7269\u670d\u52a1;\u4e13\u5356\u5e97;\u513f\u7ae5\u7528\u54c1\u5e97", "pty": "0612"}}, {"type": "Feature", "geometry": {"type": "Point", "coordinates": [121.38178811175742, 31.2162580869459]}, "properties": {"name": "happy life art in life(\u7f24\u8c37\u5e7f\u573a)", "biz": "061209|061207 \u8d2d\u7269\u670d\u52a1;\u4e13\u5356\u5e97;\u793c\u54c1\u9970\u54c1\u5e97|\u8d2d\u7269\u670d\u52a1;\u4e13\u5356\u5e97;\u513f\u7ae5\u7528\u54c1\u5e97", "pty": "0612"}}, {"type": "Feature", "geometry": {"type": "Point", "coordinates": [121.36440557207287, 31.211177637774178]}, "properties": {"name": "Yiboyo(\u767e\u8054\u5e97)", "biz": "061209 \u8d2d\u7269\u670d\u52a1;\u4e13\u5356\u5e97;\u793c\u54c1\u9970\u54c1\u5e97", "pty": "0612"}}, {"type": "Feature", "geometry": {"type": "Point", "coordinates": [121.346552488914, 31.186625687705206]}, "properties": {"name": "\u4e0a\u6d77\u5e02\u957f\u5b81\u533a\u5cfb\u5cf0\u9970\u54c1\u670d\u52a1\u793e", "biz": "061209 \u8d2d\u7269\u670d\u52a1;\u4e13\u5356\u5e97;\u793c\u54c1\u9970\u54c1\u5e97", "pty": "0612"}}, {"type": "Feature", "geometry": {"type": "Point", "coordinates": [121.41644781467447, 31.213134976673608]}, "properties": {"name": "\u7ef4\u5a1c\u9970\u54c1", "biz": "061209 \u8d2d\u7269\u670d\u52a1;\u4e13\u5356\u5e97;\u793c\u54c1\u9970\u54c1\u5e97", "pty": "0612"}}, {"type": "Feature", "geometry": {"type": "Point", "coordinates": [121.38199195078553, 31.216304929381476]}, "properties": {"name": "\u6d41\u884c\u7f8e\u53d1\u9970", "biz": "061209 \u8d2d\u7269\u670d\u52a1;\u4e13\u5356\u5e97;\u793c\u54c1\u9970\u54c1\u5e97", "pty": "0612"}}, {"type": "Feature", "geometry": {"type": "Point", "coordinates": [121.39908661371094, 31.209544923749522]}, "properties": {"name": "\u5feb\u4e50+\u798f(\u5a04\u5173\u5c71\u8def\u5e97)", "biz": "061209 \u8d2d\u7269\u670d\u52a1;\u4e13\u5356\u5e97;\u793c\u54c1\u9970\u54c1\u5e97", "pty": "0612"}}, {"type": "Feature", "geometry": {"type": "Point", "coordinates": [121.39213906380238, 31.211728513645117]}, "properties": {"name": "\u597d\u5fc3\u60c5\u7cbe\u54c1\u751f\u6d3b\u9986", "biz": "061209 \u8d2d\u7269\u670d\u52a1;\u4e13\u5356\u5e97;\u793c\u54c1\u9970\u54c1\u5e97", "pty": "0612"}}, {"type": "Feature", "geometry": {"type": "Point", "coordinates": [121.38651378701759, 31.206996827177292]}, "properties": {"name": "\u7f18\u00b7\u672c\u547d\u5e74(\u6c34\u57ce\u5e97)", "biz": "061209 \u8d2d\u7269\u670d\u52a1;\u4e13\u5356\u5e97;\u793c\u54c1\u9970\u54c1\u5e97", "pty": "0612"}}, {"type": "Feature", "geometry": {"type": "Point", "coordinates": [121.42378498406943, 31.220708716831957]}, "properties": {"name": "\u5170\u306e\u7269\u8bed", "biz": "061209 \u8d2d\u7269\u670d\u52a1;\u4e13\u5356\u5e97;\u793c\u54c1\u9970\u54c1\u5e97", "pty": "0612"}}, {"type": "Feature", "geometry": {"type": "Point", "coordinates": [121.42620183202136, 31.205430973377577]}, "properties": {"name": "\u7f18\u6765\u9970\u4f60\u793c\u54c1\u5e97", "biz": "061209 \u8d2d\u7269\u670d\u52a1;\u4e13\u5356\u5e97;\u793c\u54c1\u9970\u54c1\u5e97", "pty": "0612"}}, {"type": "Feature", "geometry": {"type": "Point", "coordinates": [121.39298440336864, 31.193944000332074]}, "properties": {"name": "\u7b51\u5de2\u827a\u672f", "biz": "061209 \u8d2d\u7269\u670d\u52a1;\u4e13\u5356\u5e97;\u793c\u54c1\u9970\u54c1\u5e97", "pty": "0612"}}, {"type": "Feature", "geometry": {"type": "Point", "coordinates": [121.41183408116957, 31.220476093618952]}, "properties": {"name": "zippo(\u9f99\u4e4b\u68a6\u8d2d\u7269\u4e2d\u5fc3)", "biz": "061209 \u8d2d\u7269\u670d\u52a1;\u4e13\u5356\u5e97;\u793c\u54c1\u9970\u54c1\u5e97", "pty": "0612"}}, {"type": "Feature", "geometry": {"type": "Point", "coordinates": [121.4097907613172, 31.218970611329038]}, "properties": {"name": "\u4f5c\u9970(\u957f\u5b81\u6765\u798f\u58eb\u897f\u533a)", "biz": "061209 \u8d2d\u7269\u670d\u52a1;\u4e13\u5356\u5e97;\u793c\u54c1\u9970\u54c1\u5e97", "pty": "0612"}}, {"type": "Feature", "geometry": {"type": "Point", "coordinates": [121.42363847105125, 31.212759330880623]}, "properties": {"name": "Honey Love\u8bf7\u67ec\u8bbe\u8ba1\u5b9a\u5236", "biz": "061209 \u8d2d\u7269\u670d\u52a1;\u4e13\u5356\u5e97;\u793c\u54c1\u9970\u54c1\u5e97", "pty": "0612"}}, {"type": "Feature", "geometry": {"type": "Point", "coordinates": [121.41037421824555, 31.218220289333118]}, "properties": {"name": "zippo(\u957f\u5b81\u6765\u798f\u58eb\u4e1c\u533a)", "biz": "061209 \u8d2d\u7269\u670d\u52a1;\u4e13\u5356\u5e97;\u793c\u54c1\u9970\u54c1\u5e97", "pty": "0612"}}, {"type": "Feature", "geometry": {"type": "Point", "coordinates": [121.38650579001913, 31.207012823251997]}, "properties": {"name": "\u5409\u7965\u52a9\u8fd0\u9970\u54c1(\u6c34\u57ce\u5e97)", "biz": "061209 \u8d2d\u7269\u670d\u52a1;\u4e13\u5356\u5e97;\u793c\u54c1\u9970\u54c1\u5e97", "pty": "0612"}}, {"type": "Feature", "geometry": {"type": "Point", "coordinates": [121.38494782092353, 31.205687260817403]}, "properties": {"name": "\u683c\u683c\u306e\u5c4b", "biz": "061209 \u8d2d\u7269\u670d\u52a1;\u4e13\u5356\u5e97;\u793c\u54c1\u9970\u54c1\u5e97", "pty": "0612"}}, {"type": "Feature", "geometry": {"type": "Point", "coordinates": [121.40254838768773, 31.207766255157477]}, "properties": {"name": "\u521d\u57ce(\u5c1a\u5609\u4e2d\u5fc3)", "biz": "061209 \u8d2d\u7269\u670d\u52a1;\u4e13\u5356\u5e97;\u793c\u54c1\u9970\u54c1\u5e97", "pty": "0612"}}, {"type": "Feature", "geometry": {"type": "Point", "coordinates": [121.39729834642208, 31.211766818090556]}, "properties": {"name": "\u5170\u306e\u7269\u8bed(\u8305\u53f0\u8def\u5e97)", "biz": "061209 \u8d2d\u7269\u670d\u52a1;\u4e13\u5356\u5e97;\u793c\u54c1\u9970\u54c1\u5e97", "pty": "0612"}}, {"type": "Feature", "geometry": {"type": "Point", "coordinates": [121.39850046613675, 31.210750315673703]}, "properties": {"name": "\u9970\u54c1\u5e97", "biz": "061209 \u8d2d\u7269\u670d\u52a1;\u4e13\u5356\u5e97;\u793c\u54c1\u9970\u54c1\u5e97", "pty": "0612"}}, {"type": "Feature", "geometry": {"type": "Point", "coordinates": [121.38561741257527, 31.205693903945438]}, "properties": {"name": "\u739f\u739f\u9970\u54c1\u5e97", "biz": "061209 \u8d2d\u7269\u670d\u52a1;\u4e13\u5356\u5e97;\u793c\u54c1\u9970\u54c1\u5e97", "pty": "0612"}}, {"type": "Feature", "geometry": {"type": "Point", "coordinates": [121.41778134476672, 31.211569884833263]}, "properties": {"name": "1433\u753b\u5427", "biz": "061209 \u8d2d\u7269\u670d\u52a1;\u4e13\u5356\u5e97;\u793c\u54c1\u9970\u54c1\u5e97", "pty": "0612"}}, {"type": "Feature", "geometry": {"type": "Point", "coordinates": [121.36488915746399, 31.219156214213818]}, "properties": {"name": "\u5c0f\u9970\u754c(\u5929\u5c71\u897f\u8def\u5e97)", "biz": "061209 \u8d2d\u7269\u670d\u52a1;\u4e13\u5356\u5e97;\u793c\u54c1\u9970\u54c1\u5e97", "pty": "0612"}}, {"type": "Feature", "geometry": {"type": "Point", "coordinates": [121.41244557207835, 31.220322560393626]}, "properties": {"name": "\u963f\u5409\u8c46(\u9f99\u4e4b\u68a6\u8d2d\u7269\u4e2d\u5fc3)", "biz": "061209 \u8d2d\u7269\u670d\u52a1;\u4e13\u5356\u5e97;\u793c\u54c1\u9970\u54c1\u5e97", "pty": "0612"}}, {"type": "Feature", "geometry": {"type": "Point", "coordinates": [121.38386164437142, 31.215825993739518]}, "properties": {"name": "\u963f\u5409\u8c46(\u7f24\u8c37\u6587\u5316\u4f11\u95f2\u5e7f\u573a\u5e97)", "biz": "061209 \u8d2d\u7269\u670d\u52a1;\u4e13\u5356\u5e97;\u793c\u54c1\u9970\u54c1\u5e97", "pty": "0612"}}, {"type": "Feature", "geometry": {"type": "Point", "coordinates": [121.40393920251829, 31.214790218535413]}, "properties": {"name": "\u661f\u661f\u8863\u6a71\u5341\u5b57\u7ee3", "biz": "061209 \u8d2d\u7269\u670d\u52a1;\u4e13\u5356\u5e97;\u793c\u54c1\u9970\u54c1\u5e97", "pty": "0612"}}, {"type": "Feature", "geometry": {"type": "Point", "coordinates": [121.39827229126267, 31.212622409712605]}, "properties": {"name": "REDEYE(\u767e\u76db\u4f18\u5ba2\u57ce\u5e02\u5e7f\u573a\u897f\u697c)", "biz": "061209 \u8d2d\u7269\u670d\u52a1;\u4e13\u5356\u5e97;\u793c\u54c1\u9970\u54c1\u5e97", "pty": "0612"}}, {"type": "Feature", "geometry": {"type": "Point", "coordinates": [121.3865886974733, 31.20755352193362]}, "properties": {"name": "\u683c\u683c\u306e\u5c4b(\u6c34\u57ce\u8def\u5e97)", "biz": "061209|061100 \u8d2d\u7269\u670d\u52a1;\u4e13\u5356\u5e97;\u793c\u54c1\u9970\u54c1\u5e97|\u8d2d\u7269\u670d\u52a1;\u670d\u88c5\u978b\u5e3d\u76ae\u5177\u5e97;\u670d\u88c5\u978b\u5e3d\u76ae\u5177\u5e97", "pty": "0612"}}, {"type": "Feature", "geometry": {"type": "Point", "coordinates": [121.39752842731677, 31.21084026031498]}, "properties": {"name": "\u71d5\u8d8a", "biz": "061209 \u8d2d\u7269\u670d\u52a1;\u4e13\u5356\u5e97;\u793c\u54c1\u9970\u54c1\u5e97", "pty": "0612"}}, {"type": "Feature", "geometry": {"type": "Point", "coordinates": [121.3986594773418, 31.199257907589335]}, "properties": {"name": "zizi(\u4e0a\u6d77\u9ad8\u5c9b\u5c4b\u767e\u8d27)", "biz": "061209 \u8d2d\u7269\u670d\u52a1;\u4e13\u5356\u5e97;\u793c\u54c1\u9970\u54c1\u5e97", "pty": "0612"}}, {"type": "Feature", "geometry": {"type": "Point", "coordinates": [121.41203119078354, 31.220959990179185]}, "properties": {"name": "\u5361\u5229\u4e9a\u9970\u54c1", "biz": "061209 \u8d2d\u7269\u670d\u52a1;\u4e13\u5356\u5e97;\u793c\u54c1\u9970\u54c1\u5e97", "pty": "0612"}}, {"type": "Feature", "geometry": {"type": "Point", "coordinates": [121.39999409142521, 31.21669956777001]}, "properties": {"name": "\u51ef\u6587\u306e\u5c4b(\u5a04\u5c71\u5e97)", "biz": "061209 \u8d2d\u7269\u670d\u52a1;\u4e13\u5356\u5e97;\u793c\u54c1\u9970\u54c1\u5e97", "pty": "0612"}}, {"type": "Feature", "geometry": {"type": "Point", "coordinates": [121.39838745310301, 31.19935385103368]}, "properties": {"name": "HIQISTYLE(\u4e0a\u6d77\u9ad8\u5c9b\u5c4b\u767e\u8d27)", "biz": "061209 \u8d2d\u7269\u670d\u52a1;\u4e13\u5356\u5e97;\u793c\u54c1\u9970\u54c1\u5e97", "pty": "0612"}}, {"type": "Feature", "geometry": {"type": "Point", "coordinates": [121.37916931457579, 31.193108226769354]}, "properties": {"name": "\u9526\u7ee3\u9601(\u68ee\u665f\u4e16\u6d0b\u56fd\u9645\u5e7f\u573a)", "biz": "061209 \u8d2d\u7269\u670d\u52a1;\u4e13\u5356\u5e97;\u793c\u54c1\u9970\u54c1\u5e97", "pty": "0612"}}, {"type": "Feature", "geometry": {"type": "Point", "coordinates": [121.39868847273141, 31.199332871997942]}, "properties": {"name": "SANG(\u4e0a\u6d77\u9ad8\u5c9b\u5c4b\u767e\u8d27)", "biz": "061209 \u8d2d\u7269\u670d\u52a1;\u4e13\u5356\u5e97;\u793c\u54c1\u9970\u54c1\u5e97", "pty": "0612"}}, {"type": "Feature", "geometry": {"type": "Point", "coordinates": [121.40239155498489, 31.2053673850827]}, "properties": {"name": "ALEXANDRE(\u8679\u6865\u53cb\u8c0a\u5546\u57ce)", "biz": "061209 \u8d2d\u7269\u670d\u52a1;\u4e13\u5356\u5e97;\u793c\u54c1\u9970\u54c1\u5e97", "pty": "0612"}}, {"type": "Feature", "geometry": {"type": "Point", "coordinates": [121.39307438381614, 31.193935985908347]}, "properties": {"name": "\u8302\u5b81\u683c\u52b3\u745e(\u53e4\u7f8a\u8def)", "biz": "061209 \u8d2d\u7269\u670d\u52a1;\u4e13\u5356\u5e97;\u793c\u54c1\u9970\u54c1\u5e97", "pty": "0612"}}, {"type": "Feature", "geometry": {"type": "Point", "coordinates": [121.34151907724595, 31.19628170945378]}, "properties": {"name": "\u9999\u96ea\u6d77\u4e2d\u56fd\u793c\u54c1\u5e97", "biz": "061209 \u8d2d\u7269\u670d\u52a1;\u4e13\u5356\u5e97;\u793c\u54c1\u9970\u54c1\u5e97", "pty": "0612"}}, {"type": "Feature", "geometry": {"type": "Point", "coordinates": [121.41161484379684, 31.22129157116241]}, "properties": {"name": "ZIPPO(\u9f99\u4e4b\u68a6\u8d2d\u7269\u4e2d\u5fc3)", "biz": "061209 \u8d2d\u7269\u670d\u52a1;\u4e13\u5356\u5e97;\u793c\u54c1\u9970\u54c1\u5e97", "pty": "0612"}}, {"type": "Feature", "geometry": {"type": "Point", "coordinates": [121.44454615418383, 31.225735457456917]}, "properties": {"name": "ROSEONLY(\u4e0a\u6d77\u5609\u91cc\u4e2d\u5fc3)", "biz": "060501|061209 \u8d2d\u7269\u670d\u52a1;\u82b1\u9e1f\u9c7c\u866b\u5e02\u573a;\u82b1\u5349\u5e02\u573a|\u8d2d\u7269\u670d\u52a1;\u4e13\u5356\u5e97;\u793c\u54c1\u9970\u54c1\u5e97", "pty": "0605"}}, {"type": "Feature", "geometry": {"type": "Point", "coordinates": [121.46726561452157, 31.245919919621016]}, "properties": {"name": "\u4e07\u7269\u60f3(\u4e0a\u6d77\u5927\u60a6\u57ce\u5317\u5ea7)", "biz": "061202|061209 \u8d2d\u7269\u670d\u52a1;\u4e13\u5356\u5e97;\u73e0\u5b9d\u9996\u9970\u5de5\u827a\u54c1|\u8d2d\u7269\u670d\u52a1;\u4e13\u5356\u5e97;\u793c\u54c1\u9970\u54c1\u5e97", "pty": "0612"}}, {"type": "Feature", "geometry": {"type": "Point", "coordinates": [121.46726561452157, 31.245919919621016]}, "properties": {"name": "\u4e07\u7269\u60f3(\u4e0a\u6d77\u5927\u60a6\u57ce\u5317\u5ea7)", "biz": "061202|061209 \u8d2d\u7269\u670d\u52a1;\u4e13\u5356\u5e97;\u73e0\u5b9d\u9996\u9970\u5de5\u827a\u54c1|\u8d2d\u7269\u670d\u52a1;\u4e13\u5356\u5e97;\u793c\u54c1\u9970\u54c1\u5e97", "pty": "0612"}}, {"type": "Feature", "geometry": {"type": "Point", "coordinates": [121.47709723544342, 31.24589819398261]}, "properties": {"name": "\u97e9\u65b0\u5a77\u9970\u54c1(\u4e0a\u6d77\u8054\u5bcc\u670d\u9970\u5e02\u573a)", "biz": "061207|061209 \u8d2d\u7269\u670d\u52a1;\u4e13\u5356\u5e97;\u513f\u7ae5\u7528\u54c1\u5e97|\u8d2d\u7269\u670d\u52a1;\u4e13\u5356\u5e97;\u793c\u54c1\u9970\u54c1\u5e97", "pty": "0612"}}, {"type": "Feature", "geometry": {"type": "Point", "coordinates": [121.47709723544342, 31.24589819398261]}, "properties": {"name": "\u97e9\u65b0\u5a77\u9970\u54c1(\u4e0a\u6d77\u8054\u5bcc\u670d\u9970\u5e02\u573a)", "biz": "061207|061209 \u8d2d\u7269\u670d\u52a1;\u4e13\u5356\u5e97;\u513f\u7ae5\u7528\u54c1\u5e97|\u8d2d\u7269\u670d\u52a1;\u4e13\u5356\u5e97;\u793c\u54c1\u9970\u54c1\u5e97", "pty": "0612"}}, {"type": "Feature", "geometry": {"type": "Point", "coordinates": [121.44777481055365, 31.275312050103697]}, "properties": {"name": "\u5409\u8482\u5c4b(\u5927\u5b81\u5e97)", "biz": "061209 \u8d2d\u7269\u670d\u52a1;\u4e13\u5356\u5e97;\u793c\u54c1\u9970\u54c1\u5e97", "pty": "0612"}}, {"type": "Feature", "geometry": {"type": "Point", "coordinates": [121.44307435243034, 31.217984206416762]}, "properties": {"name": "MORE\u670d\u88c5\u5e97", "biz": "061209|061100 \u8d2d\u7269\u670d\u52a1;\u4e13\u5356\u5e97;\u793c\u54c1\u9970\u54c1\u5e97|\u8d2d\u7269\u670d\u52a1;\u670d\u88c5\u978b\u5e3d\u76ae\u5177\u5e97;\u670d\u88c5\u978b\u5e3d\u76ae\u5177\u5e97", "pty": "0612"}}, {"type": "Feature", "geometry": {"type": "Point", "coordinates": [121.44164630369252, 31.226899264837094]}, "properties": {"name": "VINGT ANS(\u6676\u54c1)", "biz": "061209 \u8d2d\u7269\u670d\u52a1;\u4e13\u5356\u5e97;\u793c\u54c1\u9970\u54c1\u5e97", "pty": "0612"}}, {"type": "Feature", "geometry": {"type": "Point", "coordinates": [121.42158655376713, 31.29524466777663]}, "properties": {"name": "\u8349\u957f\u83ba\u98de\u4e13\u4e1a\u7f8e\u5986", "biz": "061209 \u8d2d\u7269\u670d\u52a1;\u4e13\u5356\u5e97;\u793c\u54c1\u9970\u54c1\u5e97", "pty": "0612"}}, {"type": "Feature", "geometry": {"type": "Point", "coordinates": [121.44491108940187, 31.225043514196834]}, "properties": {"name": "\u7a00\u5947(\u4e0a\u6d77\u5609\u91cc\u4e2d\u5fc3)", "biz": "061209 \u8d2d\u7269\u670d\u52a1;\u4e13\u5356\u5e97;\u793c\u54c1\u9970\u54c1\u5e97", "pty": "0612"}}, {"type": "Feature", "geometry": {"type": "Point", "coordinates": [121.4407341287156, 31.23993954014776]}, "properties": {"name": "\u5154\u5b50\u7a9d", "biz": "061209 \u8d2d\u7269\u670d\u52a1;\u4e13\u5356\u5e97;\u793c\u54c1\u9970\u54c1\u5e97", "pty": "0612"}}, {"type": "Feature", "geometry": {"type": "Point", "coordinates": [121.4675606579857, 31.24477222646021]}, "properties": {"name": "\u7c73\u5361\u5974(\u4e0a\u6d77\u5927\u60a6\u57ce\u5357\u5ea7)", "biz": "061209 \u8d2d\u7269\u670d\u52a1;\u4e13\u5356\u5e97;\u793c\u54c1\u9970\u54c1\u5e97", "pty": "0612"}}, {"type": "Feature", "geometry": {"type": "Point", "coordinates": [121.45059576546997, 31.221336274640095]}, "properties": {"name": "\u4e91\u6e38\u56db\u6d77", "biz": "061209 \u8d2d\u7269\u670d\u52a1;\u4e13\u5356\u5e97;\u793c\u54c1\u9970\u54c1\u5e97", "pty": "0612"}}, {"type": "Feature", "geometry": {"type": "Point", "coordinates": [121.45393566377577, 31.269321255171796]}, "properties": {"name": "\u7f8e\u7532\u9970\u754c(\u5171\u548c\u65b0\u8def\u5e97)", "biz": "061209|071100 \u8d2d\u7269\u670d\u52a1;\u4e13\u5356\u5e97;\u793c\u54c1\u9970\u54c1\u5e97|\u751f\u6d3b\u670d\u52a1;\u7f8e\u5bb9\u7f8e\u53d1\u5e97;\u7f8e\u5bb9\u7f8e\u53d1\u5e97", "pty": "0612"}}, {"type": "Feature", "geometry": {"type": "Point", "coordinates": [121.44852999100976, 31.272314922633615]}, "properties": {"name": "\u65f6\u5c1a\u7a7a\u95f4(\u5ef6\u957f\u4e2d\u8def)", "biz": "061209 \u8d2d\u7269\u670d\u52a1;\u4e13\u5356\u5e97;\u793c\u54c1\u9970\u54c1\u5e97", "pty": "0612"}}, {"type": "Feature", "geometry": {"type": "Point", "coordinates": [121.46756759088457, 31.245813776256814]}, "properties": {"name": "\u5c0f\u8bbe\u8ba1(\u4e0a\u6d77\u5927\u60a6\u57ce\u5317\u5ea7)", "biz": "061209 \u8d2d\u7269\u670d\u52a1;\u4e13\u5356\u5e97;\u793c\u54c1\u9970\u54c1\u5e97", "pty": "0612"}}, {"type": "Feature", "geometry": {"type": "Point", "coordinates": [121.46764786288371, 31.24564506749043]}, "properties": {"name": "aOri(\u4e0a\u6d77\u5927\u60a6\u57ce\u5317\u5ea7)", "biz": "061209 \u8d2d\u7269\u670d\u52a1;\u4e13\u5356\u5e97;\u793c\u54c1\u9970\u54c1\u5e97", "pty": "0612"}}, {"type": "Feature", "geometry": {"type": "Point", "coordinates": [121.44471354738636, 31.22582375160342]}, "properties": {"name": "MG(\u4e0a\u6d77\u5609\u91cc\u4e2d\u5fc3)", "biz": "061209 \u8d2d\u7269\u670d\u52a1;\u4e13\u5356\u5e97;\u793c\u54c1\u9970\u54c1\u5e97", "pty": "0612"}}, {"type": "Feature", "geometry": {"type": "Point", "coordinates": [121.45357873342049, 31.268671707223497]}, "properties": {"name": "\u7f8e\u4e3d\u9970\u754c(\u5171\u548c\u65b0\u8def)", "biz": "061209 \u8d2d\u7269\u670d\u52a1;\u4e13\u5356\u5e97;\u793c\u54c1\u9970\u54c1\u5e97", "pty": "0612"}}, {"type": "Feature", "geometry": {"type": "Point", "coordinates": [121.46764485339773, 31.245643060316244]}, "properties": {"name": "NICI(\u4e0a\u6d77\u5927\u60a6\u57ce\u5317\u5ea7)", "biz": "061209 \u8d2d\u7269\u670d\u52a1;\u4e13\u5356\u5e97;\u793c\u54c1\u9970\u54c1\u5e97", "pty": "0612"}}, {"type": "Feature", "geometry": {"type": "Point", "coordinates": [121.41897120188098, 31.285825843955216]}, "properties": {"name": "\u597d\u5fc3\u60c5(\u9633\u57ce\u8def)", "biz": "061209 \u8d2d\u7269\u670d\u52a1;\u4e13\u5356\u5e97;\u793c\u54c1\u9970\u54c1\u5e97", "pty": "0612"}}, {"type": "Feature", "geometry": {"type": "Point", "coordinates": [121.46200723744249, 31.268569243311372]}, "properties": {"name": "\u4f36\u4fd0(\u4fde\u6cfe\u6e2f\u8def\u5e97)", "biz": "061209 \u8d2d\u7269\u670d\u52a1;\u4e13\u5356\u5e97;\u793c\u54c1\u9970\u54c1\u5e97", "pty": "0612"}}, {"type": "Feature", "geometry": {"type": "Point", "coordinates": [121.45258627883773, 31.23085328849739]}, "properties": {"name": "Puretre(\u6885\u9f99\u9547\u5e7f\u573a)", "biz": "061209 \u8d2d\u7269\u670d\u52a1;\u4e13\u5356\u5e97;\u793c\u54c1\u9970\u54c1\u5e97", "pty": "0612"}}, {"type": "Feature", "geometry": {"type": "Point", "coordinates": [121.4523727014304, 31.230826815533117]}, "properties": {"name": "ATUSTYLE(\u6885\u9f99\u9547\u5e7f\u573a)", "biz": "061209 \u8d2d\u7269\u670d\u52a1;\u4e13\u5356\u5e97;\u793c\u54c1\u9970\u54c1\u5e97", "pty": "0612"}}, {"type": "Feature", "geometry": {"type": "Point", "coordinates": [121.44446096787219, 31.2255363803223]}, "properties": {"name": "apm(\u4e0a\u6d77\u5609\u91cc\u4e2d\u5fc3)", "biz": "061209 \u8d2d\u7269\u670d\u52a1;\u4e13\u5356\u5e97;\u793c\u54c1\u9970\u54c1\u5e97", "pty": "0612"}}, {"type": "Feature", "geometry": {"type": "Point", "coordinates": [121.46717629504244, 31.246314503452293]}, "properties": {"name": "\u732b\u53d7\u5c4b(\u4e0a\u6d77\u5927\u60a6\u57ce\u5317\u5ea7)", "biz": "061209 \u8d2d\u7269\u670d\u52a1;\u4e13\u5356\u5e97;\u793c\u54c1\u9970\u54c1\u5e97", "pty": "0612"}}, {"type": "Feature", "geometry": {"type": "Point", "coordinates": [121.42362482856213, 31.231439511834708]}, "properties": {"name": "Mofer Magic(\u60a6\u8fbe889\u5e7f\u573a)", "biz": "061209 \u8d2d\u7269\u670d\u52a1;\u4e13\u5356\u5e97;\u793c\u54c1\u9970\u54c1\u5e97", "pty": "0612"}}, {"type": "Feature", "geometry": {"type": "Point", "coordinates": [121.467477308755, 31.245728572513244]}, "properties": {"name": "\u963f\u5409\u8c46(\u4e0a\u6d77\u5927\u60a6\u57ce\u5317\u5ea7)", "biz": "061209 \u8d2d\u7269\u670d\u52a1;\u4e13\u5356\u5e97;\u793c\u54c1\u9970\u54c1\u5e97", "pty": "0612"}}, {"type": "Feature", "geometry": {"type": "Point", "coordinates": [121.46751551015176, 31.244808089240166]}, "properties": {"name": "\u7ed3\u7ef3\u8bb0(\u4e0a\u6d77\u5927\u60a6\u57ce\u5357\u5ea7)", "biz": "061209 \u8d2d\u7269\u670d\u52a1;\u4e13\u5356\u5e97;\u793c\u54c1\u9970\u54c1\u5e97", "pty": "0612"}}, {"type": "Feature", "geometry": {"type": "Point", "coordinates": [121.45261335218038, 31.23085634869196]}, "properties": {"name": "vin-ett(\u6885\u9f99\u9547\u5e7f\u573a)", "biz": "061209 \u8d2d\u7269\u670d\u52a1;\u4e13\u5356\u5e97;\u793c\u54c1\u9970\u54c1\u5e97", "pty": "0612"}}, {"type": "Feature", "geometry": {"type": "Point", "coordinates": [121.44185176093481, 31.22700060744399]}, "properties": {"name": "\u8431\u5b50(\u6676\u54c1\u5e97)", "biz": "061209 \u8d2d\u7269\u670d\u52a1;\u4e13\u5356\u5e97;\u793c\u54c1\u9970\u54c1\u5e97", "pty": "0612"}}, {"type": "Feature", "geometry": {"type": "Point", "coordinates": [121.44802870767698, 31.272377826893468]}, "properties": {"name": "\u4e7e\u65b9\u751f\u6d3b\u9986(10\u5206\u5e97)", "biz": "061209 \u8d2d\u7269\u670d\u52a1;\u4e13\u5356\u5e97;\u793c\u54c1\u9970\u54c1\u5e97", "pty": "0612"}}, {"type": "Feature", "geometry": {"type": "Point", "coordinates": [121.44139479526065, 31.22621211078777]}, "properties": {"name": "AnnAnn(\u4e45\u5149\u767e\u8d27)", "biz": "061209 \u8d2d\u7269\u670d\u52a1;\u4e13\u5356\u5e97;\u793c\u54c1\u9970\u54c1\u5e97", "pty": "0612"}}, {"type": "Feature", "geometry": {"type": "Point", "coordinates": [121.46776028760708, 31.24490170396103]}, "properties": {"name": "\u62db\u8d22\u732b(\u4e0a\u6d77\u5927\u60a6\u57ce\u5357\u5ea7)", "biz": "061209 \u8d2d\u7269\u670d\u52a1;\u4e13\u5356\u5e97;\u793c\u54c1\u9970\u54c1\u5e97", "pty": "0612"}}, {"type": "Feature", "geometry": {"type": "Point", "coordinates": [121.46767290587738, 31.24608093875992]}, "properties": {"name": "NUZZLE(\u4e0a\u6d77\u5927\u60a6\u57ce\u5317\u5ea7)", "biz": "061209 \u8d2d\u7269\u670d\u52a1;\u4e13\u5356\u5e97;\u793c\u54c1\u9970\u54c1\u5e97", "pty": "0612"}}, {"type": "Feature", "geometry": {"type": "Point", "coordinates": [121.44486088232894, 31.22604194562472]}, "properties": {"name": "SIMPLEMILL(\u4e0a\u6d77\u5609\u91cc\u4e2d\u5fc3)", "biz": "061209 \u8d2d\u7269\u670d\u52a1;\u4e13\u5356\u5e97;\u793c\u54c1\u9970\u54c1\u5e97", "pty": "0612"}}, {"type": "Feature", "geometry": {"type": "Point", "coordinates": [121.45332424268257, 31.24306038731701]}, "properties": {"name": "\u9177\u4e50\u6f6e\u73a9(\u51ef\u5fb7\u00b7\u661f\u8d38\u5e97)", "biz": "061209 \u8d2d\u7269\u670d\u52a1;\u4e13\u5356\u5e97;\u793c\u54c1\u9970\u54c1\u5e97", "pty": "0612"}}, {"type": "Feature", "geometry": {"type": "Point", "coordinates": [121.45221025482341, 31.23090641055601]}, "properties": {"name": "She's(\u6885\u9f99\u9547\u5e7f\u573a)", "biz": "061209 \u8d2d\u7269\u670d\u52a1;\u4e13\u5356\u5e97;\u793c\u54c1\u9970\u54c1\u5e97", "pty": "0612"}}, {"type": "Feature", "geometry": {"type": "Point", "coordinates": [121.44390574716896, 31.224401808428542]}, "properties": {"name": "Near And Dear", "biz": "061209 \u8d2d\u7269\u670d\u52a1;\u4e13\u5356\u5e97;\u793c\u54c1\u9970\u54c1\u5e97", "pty": "0612"}}, {"type": "Feature", "geometry": {"type": "Point", "coordinates": [121.44267982115741, 31.225116076508268]}, "properties": {"name": "MARTIN GRANT(\u82ae\u6b27\u767e\u8d27)", "biz": "061209 \u8d2d\u7269\u670d\u52a1;\u4e13\u5356\u5e97;\u793c\u54c1\u9970\u54c1\u5e97", "pty": "0612"}}, {"type": "Feature", "geometry": {"type": "Point", "coordinates": [121.45390114804397, 31.274189110076346]}, "properties": {"name": "\u9ea6\u683c\u820d(\u5ef6\u957f\u8def\u5e97)", "biz": "061209 \u8d2d\u7269\u670d\u52a1;\u4e13\u5356\u5e97;\u793c\u54c1\u9970\u54c1\u5e97", "pty": "0612"}}, {"type": "Feature", "geometry": {"type": "Point", "coordinates": [121.44260365490473, 31.22500598101276]}, "properties": {"name": "COZY HOME(\u82ae\u6b27\u767e\u8d27)", "biz": "061209 \u8d2d\u7269\u670d\u52a1;\u4e13\u5356\u5e97;\u793c\u54c1\u9970\u54c1\u5e97", "pty": "0612"}}, {"type": "Feature", "geometry": {"type": "Point", "coordinates": [121.44479871479693, 31.226251722477848]}, "properties": {"name": "RIOTLILY(\u4e0a\u6d77\u5609\u91cc\u4e2d\u5fc3)", "biz": "061209 \u8d2d\u7269\u670d\u52a1;\u4e13\u5356\u5e97;\u793c\u54c1\u9970\u54c1\u5e97", "pty": "0612"}}, {"type": "Feature", "geometry": {"type": "Point", "coordinates": [121.45521331846422, 31.314668957061276]}, "properties": {"name": "\u6696\u6696\u5c0f\u5c4b", "biz": "061209 \u8d2d\u7269\u670d\u52a1;\u4e13\u5356\u5e97;\u793c\u54c1\u9970\u54c1\u5e97", "pty": "0612"}}, {"type": "Feature", "geometry": {"type": "Point", "coordinates": [121.46780332471135, 31.246081288887357]}, "properties": {"name": "\u6734\u574a(\u4e0a\u6d77\u5927\u60a6\u57ce\u5317\u5ea7)", "biz": "061209 \u8d2d\u7269\u670d\u52a1;\u4e13\u5356\u5e97;\u793c\u54c1\u9970\u54c1\u5e97", "pty": "0612"}}, {"type": "Feature", "geometry": {"type": "Point", "coordinates": [121.45936720033839, 31.234929537785874]}, "properties": {"name": "\u9752\u60a6\u793c\u54c1", "biz": "061209 \u8d2d\u7269\u670d\u52a1;\u4e13\u5356\u5e97;\u793c\u54c1\u9970\u54c1\u5e97", "pty": "0612"}}, {"type": "Feature", "geometry": {"type": "Point", "coordinates": [121.46012901055121, 31.251841791467182]}, "properties": {"name": "\u5de5\u827a\u54c1\u5546\u5e97", "biz": "061209 \u8d2d\u7269\u670d\u52a1;\u4e13\u5356\u5e97;\u793c\u54c1\u9970\u54c1\u5e97", "pty": "0612"}}, {"type": "Feature", "geometry": {"type": "Point", "coordinates": [121.47594413273154, 31.247872022090323]}, "properties": {"name": "\u4e0a\u6d77\u9970\u54c1\u57ce", "biz": "061209 \u8d2d\u7269\u670d\u52a1;\u4e13\u5356\u5e97;\u793c\u54c1\u9970\u54c1\u5e97", "pty": "0612"}}, {"type": "Feature", "geometry": {"type": "Point", "coordinates": [121.46753356967444, 31.244789146195366]}, "properties": {"name": "SML(\u4e0a\u6d77\u5927\u60a6\u57ce\u5357\u5ea7)", "biz": "061209 \u8d2d\u7269\u670d\u52a1;\u4e13\u5356\u5e97;\u793c\u54c1\u9970\u54c1\u5e97", "pty": "0612"}}, {"type": "Feature", "geometry": {"type": "Point", "coordinates": [121.46762979676868, 31.24573997632476]}, "properties": {"name": "\u4f5c\u7269(\u4e0a\u6d77\u5927\u60a6\u57ce\u5317\u5ea7)", "biz": "061209 \u8d2d\u7269\u670d\u52a1;\u4e13\u5356\u5e97;\u793c\u54c1\u9970\u54c1\u5e97", "pty": "0612"}}, {"type": "Feature", "geometry": {"type": "Point", "coordinates": [121.46742308135005, 31.246354146085473]}, "properties": {"name": "\u9177\u4e50\u6f6e\u73a9(\u4e0a\u6d77\u5927\u60a6\u57ce\u5317\u5ea7)", "biz": "061209 \u8d2d\u7269\u670d\u52a1;\u4e13\u5356\u5e97;\u793c\u54c1\u9970\u54c1\u5e97", "pty": "0612"}}, {"type": "Feature", "geometry": {"type": "Point", "coordinates": [121.46744614975923, 31.246418179134356]}, "properties": {"name": "CILICILI(\u4e0a\u6d77\u5927\u60a6\u57ce\u5317\u5ea7)", "biz": "061209 \u8d2d\u7269\u670d\u52a1;\u4e13\u5356\u5e97;\u793c\u54c1\u9970\u54c1\u5e97", "pty": "0612"}}, {"type": "Feature", "geometry": {"type": "Point", "coordinates": [121.44271490826262, 31.22504617709824]}, "properties": {"name": "Australian Alpaca(\u82ae\u6b27\u767e\u8d27)", "biz": "061209 \u8d2d\u7269\u670d\u52a1;\u4e13\u5356\u5e97;\u793c\u54c1\u9970\u54c1\u5e97", "pty": "0612"}}, {"type": "Feature", "geometry": {"type": "Point", "coordinates": [121.44192588428149, 31.22752350448111]}, "properties": {"name": "\u963f\u5409\u8c46(\u6676\u54c1\u5e97)", "biz": "061209 \u8d2d\u7269\u670d\u52a1;\u4e13\u5356\u5e97;\u793c\u54c1\u9970\u54c1\u5e97", "pty": "0612"}}, {"type": "Feature", "geometry": {"type": "Point", "coordinates": [121.46730873283848, 31.246148932083127]}, "properties": {"name": "COMIC SOUL(\u4e0a\u6d77\u5927\u60a6\u57ce\u5317\u5ea7)", "biz": "061209 \u8d2d\u7269\u670d\u52a1;\u4e13\u5356\u5e97;\u793c\u54c1\u9970\u54c1\u5e97", "pty": "0612"}}, {"type": "Feature", "geometry": {"type": "Point", "coordinates": [121.45033029518409, 31.230268508786676]}, "properties": {"name": "\u767d\u4e95(\u91d1\u9e70\u56fd\u9645\u8d2d\u7269\u4e2d\u5fc3)", "biz": "061209 \u8d2d\u7269\u670d\u52a1;\u4e13\u5356\u5e97;\u793c\u54c1\u9970\u54c1\u5e97", "pty": "0612"}}, {"type": "Feature", "geometry": {"type": "Point", "coordinates": [121.4758407406648, 31.248346516116072]}, "properties": {"name": "JMI(\u5723\u548c\u5723\u65f6\u5c1a\u6c47\u897f\u533a)", "biz": "061209 \u8d2d\u7269\u670d\u52a1;\u4e13\u5356\u5e97;\u793c\u54c1\u9970\u54c1\u5e97", "pty": "0612"}}, {"type": "Feature", "geometry": {"type": "Point", "coordinates": [121.47371007311135, 31.25385905272295]}, "properties": {"name": "\u7cbe\u54c1\u5c0f\u5c4b", "biz": "061209 \u8d2d\u7269\u670d\u52a1;\u4e13\u5356\u5e97;\u793c\u54c1\u9970\u54c1\u5e97", "pty": "0612"}}, {"type": "Feature", "geometry": {"type": "Point", "coordinates": [121.44287027031976, 31.22501749144695]}, "properties": {"name": "me to two\u624b\u4f5c\u00b7\u9970\u54c1(\u82ae\u6b27\u767e\u8d27)", "biz": "061209 \u8d2d\u7269\u670d\u52a1;\u4e13\u5356\u5e97;\u793c\u54c1\u9970\u54c1\u5e97", "pty": "0612"}}, {"type": "Feature", "geometry": {"type": "Point", "coordinates": [121.43312193318019, 31.235561518112043]}, "properties": {"name": "\u5c45\u77f3\u9601", "biz": "061209 \u8d2d\u7269\u670d\u52a1;\u4e13\u5356\u5e97;\u793c\u54c1\u9970\u54c1\u5e97", "pty": "0612"}}, {"type": "Feature", "geometry": {"type": "Point", "coordinates": [121.44302424082731, 31.217927135989026]}, "properties": {"name": "\u77e5\u6d77", "biz": "061209 \u8d2d\u7269\u670d\u52a1;\u4e13\u5356\u5e97;\u793c\u54c1\u9970\u54c1\u5e97", "pty": "0612"}}, {"type": "Feature", "geometry": {"type": "Point", "coordinates": [121.43946768962581, 31.28216386045352]}, "properties": {"name": "\u4e5d\u6728\u6742\u7269\u793e(\u5927\u5b81\u97f3\u4e50\u5e7f\u573a)", "biz": "061209 \u8d2d\u7269\u670d\u52a1;\u4e13\u5356\u5e97;\u793c\u54c1\u9970\u54c1\u5e97", "pty": "0612"}}, {"type": "Feature", "geometry": {"type": "Point", "coordinates": [121.46694581158397, 31.243370214332565]}, "properties": {"name": "\u633a\u8c6a\u5546\u52a1\u793c\u54c1", "biz": "061209 \u8d2d\u7269\u670d\u52a1;\u4e13\u5356\u5e97;\u793c\u54c1\u9970\u54c1\u5e97", "pty": "0612"}}, {"type": "Feature", "geometry": {"type": "Point", "coordinates": [121.46744319972582, 31.24572548250017]}, "properties": {"name": "AMTF market(\u4e0a\u6d77\u5927\u60a6\u57ce\u5317\u5ea7)", "biz": "061209 \u8d2d\u7269\u670d\u52a1;\u4e13\u5356\u5e97;\u793c\u54c1\u9970\u54c1\u5e97", "pty": "0612"}}, {"type": "Feature", "geometry": {"type": "Point", "coordinates": [121.46791678219174, 31.245000080315315]}, "properties": {"name": "\u5e78\u798f\u5c4b(\u4e0a\u6d77\u5927\u60a6\u57ce\u5357\u5ea7)", "biz": "061209 \u8d2d\u7269\u670d\u52a1;\u4e13\u5356\u5e97;\u793c\u54c1\u9970\u54c1\u5e97", "pty": "0612"}}, {"type": "Feature", "geometry": {"type": "Point", "coordinates": [121.46769700243189, 31.24585710405562]}, "properties": {"name": "\u7231\u6249\u5c14(\u4e0a\u6d77\u5927\u60a6\u57ce\u5317\u5ea7)", "biz": "061209 \u8d2d\u7269\u670d\u52a1;\u4e13\u5356\u5e97;\u793c\u54c1\u9970\u54c1\u5e97", "pty": "0612"}}, {"type": "Feature", "geometry": {"type": "Point", "coordinates": [121.46722847137423, 31.24620369274504]}, "properties": {"name": "\u6742\u7269\u793e(\u4e0a\u6d77\u5927\u60a6\u57ce\u5317\u5ea7)", "biz": "061209 \u8d2d\u7269\u670d\u52a1;\u4e13\u5356\u5e97;\u793c\u54c1\u9970\u54c1\u5e97", "pty": "0612"}}, {"type": "Feature", "geometry": {"type": "Point", "coordinates": [121.45780008829557, 31.264120670984227]}, "properties": {"name": "\u5174\u4f0a\u5bb6\u793c\u54c1", "biz": "061209 \u8d2d\u7269\u670d\u52a1;\u4e13\u5356\u5e97;\u793c\u54c1\u9970\u54c1\u5e97", "pty": "0612"}}, {"type": "Feature", "geometry": {"type": "Point", "coordinates": [121.46781537552216, 31.24594038459777]}, "properties": {"name": "\u96f7\u8bfa\u74e6\u62fc\u56fe\u6587\u5316\u574a(\u4e0a\u6d77\u5927\u60a6\u57ce\u5317\u5ea7)", "biz": "061209 \u8d2d\u7269\u670d\u52a1;\u4e13\u5356\u5e97;\u793c\u54c1\u9970\u54c1\u5e97", "pty": "0612"}}, {"type": "Feature", "geometry": {"type": "Point", "coordinates": [121.4772757425361, 31.24711715726323]}, "properties": {"name": "\u7687\u51a0(\u4e0a\u6d77\u65b0\u4e03\u6d66\u670d\u88c5\u5e02\u573a)", "biz": "061209 \u8d2d\u7269\u670d\u52a1;\u4e13\u5356\u5e97;\u793c\u54c1\u9970\u54c1\u5e97", "pty": "0612"}}, {"type": "Feature", "geometry": {"type": "Point", "coordinates": [121.46080803538128, 31.27520239290463]}, "properties": {"name": "3513(\u65d7\u8230\u5e97)", "biz": "061209|061100 \u8d2d\u7269\u670d\u52a1;\u4e13\u5356\u5e97;\u793c\u54c1\u9970\u54c1\u5e97|\u8d2d\u7269\u670d\u52a1;\u670d\u88c5\u978b\u5e3d\u76ae\u5177\u5e97;\u670d\u88c5\u978b\u5e3d\u76ae\u5177\u5e97", "pty": "0612"}}, {"type": "Feature", "geometry": {"type": "Point", "coordinates": [121.44989301730944, 31.312778579644853]}, "properties": {"name": "\u65f6\u5c1a\u554a\u5440(\u4e34\u6c7e\u8def)", "biz": "061209 \u8d2d\u7269\u670d\u52a1;\u4e13\u5356\u5e97;\u793c\u54c1\u9970\u54c1\u5e97", "pty": "0612"}}, {"type": "Feature", "geometry": {"type": "Point", "coordinates": [121.45816989814007, 31.232390761447324]}, "properties": {"name": "\u5de7\u514b\u529b\u63a2\u7d22\u4e4b\u65c5\u5feb\u95ea\u5e97By GODVIA", "biz": "061209 \u8d2d\u7269\u670d\u52a1;\u4e13\u5356\u5e97;\u793c\u54c1\u9970\u54c1\u5e97", "pty": "0612"}}, {"type": "Feature", "geometry": {"type": "Point", "coordinates": [121.46740503461034, 31.246225155680303]}, "properties": {"name": "\u5377\u5377\u516c\u4e3b(\u4e0a\u6d77\u5927\u60a6\u57ce\u5317\u5ea7)", "biz": "061209 \u8d2d\u7269\u670d\u52a1;\u4e13\u5356\u5e97;\u793c\u54c1\u9970\u54c1\u5e97", "pty": "0612"}}, {"type": "Feature", "geometry": {"type": "Point", "coordinates": [121.46754752061078, 31.24588269144862]}, "properties": {"name": "polymono(\u4e0a\u6d77\u5927\u60a6\u57ce\u5317\u5ea7)", "biz": "061209 \u8d2d\u7269\u670d\u52a1;\u4e13\u5356\u5e97;\u793c\u54c1\u9970\u54c1\u5e97", "pty": "0612"}}, {"type": "Feature", "geometry": {"type": "Point", "coordinates": [121.47668157986419, 31.248643776294266]}, "properties": {"name": "MOSS\u00b7J(\u5723\u548c\u5723\u65f6\u5c1a\u6c47\u4e1c\u533a)", "biz": "061209 \u8d2d\u7269\u670d\u52a1;\u4e13\u5356\u5e97;\u793c\u54c1\u9970\u54c1\u5e97", "pty": "0612"}}, {"type": "Feature", "geometry": {"type": "Point", "coordinates": [121.47611266328957, 31.2483732768486]}, "properties": {"name": "\u6676\u9970\u6e90(\u5723\u548c\u5723\u65f6\u5c1a\u6c47\u897f\u533a)", "biz": "061209 \u8d2d\u7269\u670d\u52a1;\u4e13\u5356\u5e97;\u793c\u54c1\u9970\u54c1\u5e97", "pty": "0612"}}, {"type": "Feature", "geometry": {"type": "Point", "coordinates": [121.46758659783005, 31.246443544280393]}, "properties": {"name": "IHUSH", "biz": "061209 \u8d2d\u7269\u670d\u52a1;\u4e13\u5356\u5e97;\u793c\u54c1\u9970\u54c1\u5e97", "pty": "0612"}}, {"type": "Feature", "geometry": {"type": "Point", "coordinates": [121.4756350976613, 31.24769722311508]}, "properties": {"name": "\u97e9\u9970\u5c0f\u94fa(\u5c71\u897f\u5317\u8def)", "biz": "061209 \u8d2d\u7269\u670d\u52a1;\u4e13\u5356\u5e97;\u793c\u54c1\u9970\u54c1\u5e97", "pty": "0612"}}, {"type": "Feature", "geometry": {"type": "Point", "coordinates": [121.46727561229144, 31.24631876716208]}, "properties": {"name": "\u6f6e\u73a9\u661f\u7403(\u4e0a\u6d77\u5927\u60a6\u57ce\u5317\u5ea7)", "biz": "061209 \u8d2d\u7269\u670d\u52a1;\u4e13\u5356\u5e97;\u793c\u54c1\u9970\u54c1\u5e97", "pty": "0612"}}, {"type": "Feature", "geometry": {"type": "Point", "coordinates": [121.45116123920181, 31.27955563243068]}, "properties": {"name": "\u798f\u955c\u74f7\u77f3\u753b", "biz": "061201|061209 \u8d2d\u7269\u670d\u52a1;\u4e13\u5356\u5e97;\u53e4\u73a9\u5b57\u753b\u5e97|\u8d2d\u7269\u670d\u52a1;\u4e13\u5356\u5e97;\u793c\u54c1\u9970\u54c1\u5e97", "pty": "0612"}}, {"type": "Feature", "geometry": {"type": "Point", "coordinates": [121.45116123920181, 31.27955563243068]}, "properties": {"name": "\u798f\u955c\u74f7\u77f3\u753b", "biz": "061201|061209 \u8d2d\u7269\u670d\u52a1;\u4e13\u5356\u5e97;\u53e4\u73a9\u5b57\u753b\u5e97|\u8d2d\u7269\u670d\u52a1;\u4e13\u5356\u5e97;\u793c\u54c1\u9970\u54c1\u5e97", "pty": "0612"}}, {"type": "Feature", "geometry": {"type": "Point", "coordinates": [121.45811917010214, 31.250745312887332]}, "properties": {"name": "\u4e0a\u6d77\u91d1\u5361\u793c\u54c1\u5c55\u793a\u5385", "biz": "061209|170207 \u8d2d\u7269\u670d\u52a1;\u4e13\u5356\u5e97;\u793c\u54c1\u9970\u54c1\u5e97|\u516c\u53f8\u4f01\u4e1a;\u516c\u53f8;\u5546\u4e1a\u8d38\u6613", "pty": "0612"}}, {"type": "Feature", "geometry": {"type": "Point", "coordinates": [121.3912281673318, 31.225072418959506]}, "properties": {"name": "YIBOYO(\u957f\u98ce\u5927\u60a6\u57ce)", "biz": "061202|061209 \u8d2d\u7269\u670d\u52a1;\u4e13\u5356\u5e97;\u73e0\u5b9d\u9996\u9970\u5de5\u827a\u54c1|\u8d2d\u7269\u670d\u52a1;\u4e13\u5356\u5e97;\u793c\u54c1\u9970\u54c1\u5e97", "pty": "0612"}}, {"type": "Feature", "geometry": {"type": "Point", "coordinates": [121.3912281673318, 31.225072418959506]}, "properties": {"name": "YIBOYO(\u957f\u98ce\u5927\u60a6\u57ce)", "biz": "061202|061209 \u8d2d\u7269\u670d\u52a1;\u4e13\u5356\u5e97;\u73e0\u5b9d\u9996\u9970\u5de5\u827a\u54c1|\u8d2d\u7269\u670d\u52a1;\u4e13\u5356\u5e97;\u793c\u54c1\u9970\u54c1\u5e97", "pty": "0612"}}, {"type": "Feature", "geometry": {"type": "Point", "coordinates": [121.4448770772984, 31.25892609480938]}, "properties": {"name": "\u661f\u6caa\u4e2d\u6587\u5316\u793c\u54c1\u5e02\u573a", "biz": "061209|060700|060800 \u8d2d\u7269\u670d\u52a1;\u4e13\u5356\u5e97;\u793c\u54c1\u9970\u54c1\u5e97|\u8d2d\u7269\u670d\u52a1;\u7efc\u5408\u5e02\u573a;\u7efc\u5408\u5e02\u573a|\u8d2d\u7269\u670d\u52a1;\u6587\u5316\u7528\u54c1\u5e97;\u6587\u5316\u7528\u54c1\u5e97", "pty": "0612"}}, {"type": "Feature", "geometry": {"type": "Point", "coordinates": [121.41878601380142, 31.239650664345138]}, "properties": {"name": "\u6d41\u884c\u7f8e(\u6211\u683c\u5e7f\u573a)", "biz": "061209 \u8d2d\u7269\u670d\u52a1;\u4e13\u5356\u5e97;\u793c\u54c1\u9970\u54c1\u5e97", "pty": "0612"}}, {"type": "Feature", "geometry": {"type": "Point", "coordinates": [121.4083344287758, 31.235431191271744]}, "properties": {"name": "ZIPPO(\u4e0a\u6d77\u73af\u7403\u6e2f)", "biz": "061209 \u8d2d\u7269\u670d\u52a1;\u4e13\u5356\u5e97;\u793c\u54c1\u9970\u54c1\u5e97", "pty": "0612"}}, {"type": "Feature", "geometry": {"type": "Point", "coordinates": [121.41872293028034, 31.239789541754373]}, "properties": {"name": "Lizzie(\u6211\u683c\u5e7f\u573a)", "biz": "061209 \u8d2d\u7269\u670d\u52a1;\u4e13\u5356\u5e97;\u793c\u54c1\u9970\u54c1\u5e97", "pty": "0612"}}, {"type": "Feature", "geometry": {"type": "Point", "coordinates": [121.39029650015085, 31.224883787748553]}, "properties": {"name": "\u5947\u5ba2\u5df4\u58eb(\u957f\u98ce\u5927\u60a6\u57ce)", "biz": "061209 \u8d2d\u7269\u670d\u52a1;\u4e13\u5356\u5e97;\u793c\u54c1\u9970\u54c1\u5e97", "pty": "0612"}}, {"type": "Feature", "geometry": {"type": "Point", "coordinates": [121.40745399462986, 31.234811077062425]}, "properties": {"name": "\u4e00\u6487\u4e00\u637a(\u4e0a\u6d77\u73af\u7403\u6e2f)", "biz": "061209 \u8d2d\u7269\u670d\u52a1;\u4e13\u5356\u5e97;\u793c\u54c1\u9970\u54c1\u5e97", "pty": "0612"}}, {"type": "Feature", "geometry": {"type": "Point", "coordinates": [121.43280890273867, 31.240736668519435]}, "properties": {"name": "\u6d41\u884c\u7f8e(\u4e9a\u65b0\u751f\u6d3b\u5e7f\u573a)", "biz": "061209 \u8d2d\u7269\u670d\u52a1;\u4e13\u5356\u5e97;\u793c\u54c1\u9970\u54c1\u5e97", "pty": "0612"}}, {"type": "Feature", "geometry": {"type": "Point", "coordinates": [121.40769305538615, 31.235587825070656]}, "properties": {"name": "\u540d\u521b\u4f18\u54c1(\u4e0a\u6d77\u73af\u7403\u6e2f)", "biz": "061209|060400 \u8d2d\u7269\u670d\u52a1;\u4e13\u5356\u5e97;\u793c\u54c1\u9970\u54c1\u5e97|\u8d2d\u7269\u670d\u52a1;\u8d85\u7ea7\u5e02\u573a;\u8d85\u5e02", "pty": "0612"}}, {"type": "Feature", "geometry": {"type": "Point", "coordinates": [121.41955271594423, 31.241750445724662]}, "properties": {"name": "\u6167\u6167\u9970\u54c1", "biz": "061209 \u8d2d\u7269\u670d\u52a1;\u4e13\u5356\u5e97;\u793c\u54c1\u9970\u54c1\u5e97", "pty": "0612"}}, {"type": "Feature", "geometry": {"type": "Point", "coordinates": [121.34892019475649, 31.28541845210312]}, "properties": {"name": "\u5b9d\u8f89\u9970\u54c1", "biz": "061209 \u8d2d\u7269\u670d\u52a1;\u4e13\u5356\u5e97;\u793c\u54c1\u9970\u54c1\u5e97", "pty": "0612"}}, {"type": "Feature", "geometry": {"type": "Point", "coordinates": [121.39066144175047, 31.224073054014315]}, "properties": {"name": "\u53ef\u7c73\u751f\u6d3b(\u957f\u98ce\u5927\u60a6\u57ce)", "biz": "061209 \u8d2d\u7269\u670d\u52a1;\u4e13\u5356\u5e97;\u793c\u54c1\u9970\u54c1\u5e97", "pty": "0612"}}, {"type": "Feature", "geometry": {"type": "Point", "coordinates": [121.40737897141302, 31.234622131567892]}, "properties": {"name": "\u91d1\u77f3\u5de5\u574a(\u4e0a\u6d77\u73af\u7403\u6e2f)", "biz": "061209 \u8d2d\u7269\u670d\u52a1;\u4e13\u5356\u5e97;\u793c\u54c1\u9970\u54c1\u5e97", "pty": "0612"}}, {"type": "Feature", "geometry": {"type": "Point", "coordinates": [121.3900496288338, 31.22445307023339]}, "properties": {"name": "\u6742\u7269\u793e(\u957f\u98ce\u5927\u60a6\u57ce)", "biz": "061209 \u8d2d\u7269\u670d\u52a1;\u4e13\u5356\u5e97;\u793c\u54c1\u9970\u54c1\u5e97", "pty": "0612"}}, {"type": "Feature", "geometry": {"type": "Point", "coordinates": [121.43868154185118, 31.252865000339465]}, "properties": {"name": "\u6797\u6843\u7eb8\u5c0f\u5e97", "biz": "061209 \u8d2d\u7269\u670d\u52a1;\u4e13\u5356\u5e97;\u793c\u54c1\u9970\u54c1\u5e97", "pty": "0612"}}, {"type": "Feature", "geometry": {"type": "Point", "coordinates": [121.44122124031128, 31.262760312218095]}, "properties": {"name": "\u5c0f\u8349\u5802", "biz": "061209 \u8d2d\u7269\u670d\u52a1;\u4e13\u5356\u5e97;\u793c\u54c1\u9970\u54c1\u5e97", "pty": "0612"}}, {"type": "Feature", "geometry": {"type": "Point", "coordinates": [121.43098838786857, 31.266394579569994]}, "properties": {"name": "\u751f\u6d3b\u65f6\u5c1a", "biz": "061209 \u8d2d\u7269\u670d\u52a1;\u4e13\u5356\u5e97;\u793c\u54c1\u9970\u54c1\u5e97", "pty": "0612"}}, {"type": "Feature", "geometry": {"type": "Point", "coordinates": [121.34349143620827, 31.282755864046727]}, "properties": {"name": "\u70c1\u70c1\u9676\u827a", "biz": "061209 \u8d2d\u7269\u670d\u52a1;\u4e13\u5356\u5e97;\u793c\u54c1\u9970\u54c1\u5e97", "pty": "0612"}}, {"type": "Feature", "geometry": {"type": "Point", "coordinates": [121.40854851304078, 31.23589807927225]}, "properties": {"name": "\u73a9\u5076\u9047\u5230\u7231(\u4e0a\u6d77\u73af\u7403\u6e2f)", "biz": "061209 \u8d2d\u7269\u670d\u52a1;\u4e13\u5356\u5e97;\u793c\u54c1\u9970\u54c1\u5e97", "pty": "0612"}}, {"type": "Feature", "geometry": {"type": "Point", "coordinates": [121.39042649620316, 31.224392976683337]}, "properties": {"name": "NUZZLE(\u957f\u98ce\u5927\u60a6\u57ce)", "biz": "061209 \u8d2d\u7269\u670d\u52a1;\u4e13\u5356\u5e97;\u793c\u54c1\u9970\u54c1\u5e97", "pty": "0612"}}, {"type": "Feature", "geometry": {"type": "Point", "coordinates": [121.42415361958554, 31.253854985365752]}, "properties": {"name": "\u597d\u6765\u5c4b\u5c4b(\u77f3\u6cc9\u5e97)", "biz": "061209 \u8d2d\u7269\u670d\u52a1;\u4e13\u5356\u5e97;\u793c\u54c1\u9970\u54c1\u5e97", "pty": "0612"}}, {"type": "Feature", "geometry": {"type": "Point", "coordinates": [121.43309141540446, 31.2408730448315]}, "properties": {"name": "zippo(\u4e9a\u65b0\u751f\u6d3b\u5e7f\u573a)", "biz": "061209 \u8d2d\u7269\u670d\u52a1;\u4e13\u5356\u5e97;\u793c\u54c1\u9970\u54c1\u5e97", "pty": "0612"}}, {"type": "Feature", "geometry": {"type": "Point", "coordinates": [121.4185176958738, 31.239829331754848]}, "properties": {"name": "\u7f8e\u5427\u9970\u54c1(\u6211\u683c\u5e7f\u573a)", "biz": "061209 \u8d2d\u7269\u670d\u52a1;\u4e13\u5356\u5e97;\u793c\u54c1\u9970\u54c1\u5e97", "pty": "0612"}}, {"type": "Feature", "geometry": {"type": "Point", "coordinates": [121.39071632797588, 31.225161526669496]}, "properties": {"name": "artoallect(\u957f\u98ce\u5927\u60a6\u57ce)", "biz": "061209 \u8d2d\u7269\u670d\u52a1;\u4e13\u5356\u5e97;\u793c\u54c1\u9970\u54c1\u5e97", "pty": "0612"}}, {"type": "Feature", "geometry": {"type": "Point", "coordinates": [121.37888983755084, 31.247360796059343]}, "properties": {"name": "\u8c2d\u6728\u5320(\u767e\u8054\u4e2d\u73af\u8d2d\u7269\u5e7f\u573a)", "biz": "061209 \u8d2d\u7269\u670d\u52a1;\u4e13\u5356\u5e97;\u793c\u54c1\u9970\u54c1\u5e97", "pty": "0612"}}, {"type": "Feature", "geometry": {"type": "Point", "coordinates": [121.43402622161145, 31.2634205186229]}, "properties": {"name": "\u4e3d\u4e3d\u9970\u54c1\u5e97", "biz": "061209 \u8d2d\u7269\u670d\u52a1;\u4e13\u5356\u5e97;\u793c\u54c1\u9970\u54c1\u5e97", "pty": "0612"}}, {"type": "Feature", "geometry": {"type": "Point", "coordinates": [121.40767506216702, 31.235397904304804]}, "properties": {"name": "\u4e07\u7269\u60f3(\u4e0a\u6d77\u73af\u7403\u6e2f)", "biz": "061209 \u8d2d\u7269\u670d\u52a1;\u4e13\u5356\u5e97;\u793c\u54c1\u9970\u54c1\u5e97", "pty": "0612"}}, {"type": "Feature", "geometry": {"type": "Point", "coordinates": [121.43584898654909, 31.26106051730393]}, "properties": {"name": "\u5b9c\u5ddd\u793c\u54c1\u5e97\u670d\u52a1\u90e8", "biz": "061209 \u8d2d\u7269\u670d\u52a1;\u4e13\u5356\u5e97;\u793c\u54c1\u9970\u54c1\u5e97", "pty": "0612"}}, {"type": "Feature", "geometry": {"type": "Point", "coordinates": [121.34822838103142, 31.287494759224828]}, "properties": {"name": "\u9753\u4e3d\u9970\u754c", "biz": "061209 \u8d2d\u7269\u670d\u52a1;\u4e13\u5356\u5e97;\u793c\u54c1\u9970\u54c1\u5e97", "pty": "0612"}}, {"type": "Feature", "geometry": {"type": "Point", "coordinates": [121.37604677877506, 31.245284095977297]}, "properties": {"name": "\u97f5\u6cd3(\u4e0a\u6d77\u53cb\u8c0a\u5546\u5e97\u6885\u5ddd\u8def)", "biz": "061209 \u8d2d\u7269\u670d\u52a1;\u4e13\u5356\u5e97;\u793c\u54c1\u9970\u54c1\u5e97", "pty": "0612"}}, {"type": "Feature", "geometry": {"type": "Point", "coordinates": [121.43208299776738, 31.258877471086755]}, "properties": {"name": "\u56de\u6536\u793c\u54c1", "biz": "061209 \u8d2d\u7269\u670d\u52a1;\u4e13\u5356\u5e97;\u793c\u54c1\u9970\u54c1\u5e97", "pty": "0612"}}, {"type": "Feature", "geometry": {"type": "Point", "coordinates": [121.3911632064572, 31.22486053665365]}, "properties": {"name": "\u6f2b\u9b42(\u957f\u98ce\u5927\u60a6\u57ce)", "biz": "061209 \u8d2d\u7269\u670d\u52a1;\u4e13\u5356\u5e97;\u793c\u54c1\u9970\u54c1\u5e97", "pty": "0612"}}, {"type": "Feature", "geometry": {"type": "Point", "coordinates": [121.39058438241194, 31.225059614767364]}, "properties": {"name": "\u4f5c\u9970(\u957f\u98ce\u5927\u60a6\u57ce)", "biz": "061209 \u8d2d\u7269\u670d\u52a1;\u4e13\u5356\u5e97;\u793c\u54c1\u9970\u54c1\u5e97", "pty": "0612"}}, {"type": "Feature", "geometry": {"type": "Point", "coordinates": [121.44501624742047, 31.24927663698382]}, "properties": {"name": "\u62b1\u534e\u7cbe\u820d", "biz": "061209 \u8d2d\u7269\u670d\u52a1;\u4e13\u5356\u5e97;\u793c\u54c1\u9970\u54c1\u5e97", "pty": "0612"}}, {"type": "Feature", "geometry": {"type": "Point", "coordinates": [121.42291677238629, 31.266920870286775]}, "properties": {"name": "\u5a03\u8d5b\u9970\u54c1", "biz": "061209 \u8d2d\u7269\u670d\u52a1;\u4e13\u5356\u5e97;\u793c\u54c1\u9970\u54c1\u5e97", "pty": "0612"}}, {"type": "Feature", "geometry": {"type": "Point", "coordinates": [121.4193444852627, 31.241604309648967]}, "properties": {"name": "FANS\u4ff1\u4e50\u90e8", "biz": "061209|070000 \u8d2d\u7269\u670d\u52a1;\u4e13\u5356\u5e97;\u793c\u54c1\u9970\u54c1\u5e97|\u751f\u6d3b\u670d\u52a1;\u751f\u6d3b\u670d\u52a1\u573a\u6240;\u751f\u6d3b\u670d\u52a1\u573a\u6240", "pty": "0612"}}, {"type": "Feature", "geometry": {"type": "Point", "coordinates": [121.38788747522578, 31.271206959089117]}, "properties": {"name": "\u70b9\u70b9\u96c6\u9970\u54c1\u5c4b", "biz": "061209 \u8d2d\u7269\u670d\u52a1;\u4e13\u5356\u5e97;\u793c\u54c1\u9970\u54c1\u5e97", "pty": "0612"}}, {"type": "Feature", "geometry": {"type": "Point", "coordinates": [121.4235345498537, 31.26768824442656]}, "properties": {"name": "1001\u53f7\u70e4\u7bb1", "biz": "061209 \u8d2d\u7269\u670d\u52a1;\u4e13\u5356\u5e97;\u793c\u54c1\u9970\u54c1\u5e97", "pty": "0612"}}, {"type": "Feature", "geometry": {"type": "Point", "coordinates": [121.40709045785016, 31.23879409797777]}, "properties": {"name": "\u8c6a\u76db\u9601", "biz": "061209 \u8d2d\u7269\u670d\u52a1;\u4e13\u5356\u5e97;\u793c\u54c1\u9970\u54c1\u5e97", "pty": "0612"}}, {"type": "Feature", "geometry": {"type": "Point", "coordinates": [121.40691041627692, 31.238224283688748]}, "properties": {"name": "\u94b0\u7fe0\u5ead", "biz": "061209 \u8d2d\u7269\u670d\u52a1;\u4e13\u5356\u5e97;\u793c\u54c1\u9970\u54c1\u5e97", "pty": "0612"}}, {"type": "Feature", "geometry": {"type": "Point", "coordinates": [121.40785125839564, 31.234253509429895]}, "properties": {"name": "VINGT ANS(\u4e0a\u6d77\u73af\u7403\u6e2f)", "biz": "061209 \u8d2d\u7269\u670d\u52a1;\u4e13\u5356\u5e97;\u793c\u54c1\u9970\u54c1\u5e97", "pty": "0612"}}, {"type": "Feature", "geometry": {"type": "Point", "coordinates": [121.4058946135636, 31.230427480344975]}, "properties": {"name": "PARFUMS GARDEN", "biz": "061209 \u8d2d\u7269\u670d\u52a1;\u4e13\u5356\u5e97;\u793c\u54c1\u9970\u54c1\u5e97", "pty": "0612"}}, {"type": "Feature", "geometry": {"type": "Point", "coordinates": [121.43081409366306, 31.266257382913246]}, "properties": {"name": "\u7389\u6676\u9601", "biz": "061209 \u8d2d\u7269\u670d\u52a1;\u4e13\u5356\u5e97;\u793c\u54c1\u9970\u54c1\u5e97", "pty": "0612"}}, {"type": "Feature", "geometry": {"type": "Point", "coordinates": [121.43774984862361, 31.26127666745853]}, "properties": {"name": "\u6b23\u6b23\u793c\u54c1\u9970\u54c1", "biz": "061209 \u8d2d\u7269\u670d\u52a1;\u4e13\u5356\u5e97;\u793c\u54c1\u9970\u54c1\u5e97", "pty": "0612"}}, {"type": "Feature", "geometry": {"type": "Point", "coordinates": [121.37815862401588, 31.23462416134649]}, "properties": {"name": "kawaii(\u8fd1\u94c1\u57ce\u5e02\u5e7f\u573a\u5e97)", "biz": "061209 \u8d2d\u7269\u670d\u52a1;\u4e13\u5356\u5e97;\u793c\u54c1\u9970\u54c1\u5e97", "pty": "0612"}}, {"type": "Feature", "geometry": {"type": "Point", "coordinates": [121.37922350800619, 31.247696387802574]}, "properties": {"name": "\u7579\u753a(\u767e\u8054\u4e2d\u73af\u8d2d\u7269\u5e7f\u573a)", "biz": "061209 \u8d2d\u7269\u670d\u52a1;\u4e13\u5356\u5e97;\u793c\u54c1\u9970\u54c1\u5e97", "pty": "0612"}}, {"type": "Feature", "geometry": {"type": "Point", "coordinates": [121.43329881191566, 31.240769415729243]}, "properties": {"name": "\u5f15\u8702(\u4e9a\u65b0\u751f\u6d3b\u5e7f\u573a)", "biz": "061209 \u8d2d\u7269\u670d\u52a1;\u4e13\u5356\u5e97;\u793c\u54c1\u9970\u54c1\u5e97", "pty": "0612"}}, {"type": "Feature", "geometry": {"type": "Point", "coordinates": [121.43901046744452, 31.26183165623894]}, "properties": {"name": "\u5494\u54aa\u5566", "biz": "061209|061100 \u8d2d\u7269\u670d\u52a1;\u4e13\u5356\u5e97;\u793c\u54c1\u9970\u54c1\u5e97|\u8d2d\u7269\u670d\u52a1;\u670d\u88c5\u978b\u5e3d\u76ae\u5177\u5e97;\u670d\u88c5\u978b\u5e3d\u76ae\u5177\u5e97", "pty": "0612"}}, {"type": "Feature", "geometry": {"type": "Point", "coordinates": [121.4168692803571, 31.23570974181521]}, "properties": {"name": "MI NI\u683c\u683c\u5c4b(\u66f9\u6768\u5e97)", "biz": "061209 \u8d2d\u7269\u670d\u52a1;\u4e13\u5356\u5e97;\u793c\u54c1\u9970\u54c1\u5e97", "pty": "0612"}}, {"type": "Feature", "geometry": {"type": "Point", "coordinates": [121.39748512862087, 31.248656700030487]}, "properties": {"name": "\u4e0a\u6d77\u8363\u767e\u767e\u8d27", "biz": "061209 \u8d2d\u7269\u670d\u52a1;\u4e13\u5356\u5e97;\u793c\u54c1\u9970\u54c1\u5e97", "pty": "0612"}}, {"type": "Feature", "geometry": {"type": "Point", "coordinates": [121.42542358136973, 31.263924116842233]}, "properties": {"name": "\u751c\u871c\u9970\u754c", "biz": "061209 \u8d2d\u7269\u670d\u52a1;\u4e13\u5356\u5e97;\u793c\u54c1\u9970\u54c1\u5e97", "pty": "0612"}}, {"type": "Feature", "geometry": {"type": "Point", "coordinates": [121.3478453459177, 31.28515636156828]}, "properties": {"name": "\u7f8e\u7f8e\u5c0f\u5c4b", "biz": "061209 \u8d2d\u7269\u670d\u52a1;\u4e13\u5356\u5e97;\u793c\u54c1\u9970\u54c1\u5e97", "pty": "0612"}}, {"type": "Feature", "geometry": {"type": "Point", "coordinates": [121.39119417784518, 31.225075427131355]}, "properties": {"name": "\u963f\u5409\u8c46(\u957f\u98ce\u5927\u60a6\u57ce)", "biz": "061209 \u8d2d\u7269\u670d\u52a1;\u4e13\u5356\u5e97;\u793c\u54c1\u9970\u54c1\u5e97", "pty": "0612"}}, {"type": "Feature", "geometry": {"type": "Point", "coordinates": [121.39046283803665, 31.27760231611736]}, "properties": {"name": "\u5927\u62c7\u6307\u6a21\u578b\u793c\u54c1", "biz": "061209 \u8d2d\u7269\u670d\u52a1;\u4e13\u5356\u5e97;\u793c\u54c1\u9970\u54c1\u5e97", "pty": "0612"}}, {"type": "Feature", "geometry": {"type": "Point", "coordinates": [121.43585649829886, 31.243807177187225]}, "properties": {"name": "HONES YEST(189\u5f04\u8d2d\u7269\u4e2d\u5fc3)", "biz": "061209 \u8d2d\u7269\u670d\u52a1;\u4e13\u5356\u5e97;\u793c\u54c1\u9970\u54c1\u5e97", "pty": "0612"}}, {"type": "Feature", "geometry": {"type": "Point", "coordinates": [121.43718469801689, 31.26103479315611]}, "properties": {"name": "\u6676\u9970", "biz": "061209 \u8d2d\u7269\u670d\u52a1;\u4e13\u5356\u5e97;\u793c\u54c1\u9970\u54c1\u5e97", "pty": "0612"}}, {"type": "Feature", "geometry": {"type": "Point", "coordinates": [121.37876398689401, 31.246962073226744]}, "properties": {"name": "\u4fea\u00b7\u5072(\u767e\u8054\u4e2d\u73af\u8d2d\u7269\u5e7f\u573a)", "biz": "061209 \u8d2d\u7269\u670d\u52a1;\u4e13\u5356\u5e97;\u793c\u54c1\u9970\u54c1\u5e97", "pty": "0612"}}, {"type": "Feature", "geometry": {"type": "Point", "coordinates": [121.43270268591655, 31.24097439660509]}, "properties": {"name": "\u624b\u673a\u914d\u4ef6(\u4e9a\u65b0\u751f\u6d3b\u5e7f\u573a)", "biz": "061209 \u8d2d\u7269\u670d\u52a1;\u4e13\u5356\u5e97;\u793c\u54c1\u9970\u54c1\u5e97", "pty": "0612"}}, {"type": "Feature", "geometry": {"type": "Point", "coordinates": [121.432750778924, 31.24092549298093]}, "properties": {"name": "\u8010\u9065\u7eba\u6742(\u4e9a\u65b0\u751f\u6d3b\u5e7f\u573a)", "biz": "061209 \u8d2d\u7269\u670d\u52a1;\u4e13\u5356\u5e97;\u793c\u54c1\u9970\u54c1\u5e97", "pty": "0612"}}, {"type": "Feature", "geometry": {"type": "Point", "coordinates": [121.43261451681207, 31.241051225995463]}, "properties": {"name": "\u8010\u9065\u9970\u54c1(\u4e9a\u65b0\u751f\u6d3b\u5e7f\u573a)", "biz": "061209 \u8d2d\u7269\u670d\u52a1;\u4e13\u5356\u5e97;\u793c\u54c1\u9970\u54c1\u5e97", "pty": "0612"}}, {"type": "Feature", "geometry": {"type": "Point", "coordinates": [121.47334125796957, 31.2723020359874]}, "properties": {"name": "\u9177\u4e50\u6f6e\u73a9(\u51ef\u5fb7\u9f99\u4e4b\u68a6\u8d2d\u7269\u4e2d\u5fc3)", "biz": "061209|061207 \u8d2d\u7269\u670d\u52a1;\u4e13\u5356\u5e97;\u793c\u54c1\u9970\u54c1\u5e97|\u8d2d\u7269\u670d\u52a1;\u4e13\u5356\u5e97;\u513f\u7ae5\u7528\u54c1\u5e97", "pty": "0612"}}, {"type": "Feature", "geometry": {"type": "Point", "coordinates": [121.47334125796957, 31.2723020359874]}, "properties": {"name": "\u9177\u4e50\u6f6e\u73a9(\u51ef\u5fb7\u9f99\u4e4b\u68a6\u8d2d\u7269\u4e2d\u5fc3)", "biz": "061209|061207 \u8d2d\u7269\u670d\u52a1;\u4e13\u5356\u5e97;\u793c\u54c1\u9970\u54c1\u5e97|\u8d2d\u7269\u670d\u52a1;\u4e13\u5356\u5e97;\u513f\u7ae5\u7528\u54c1\u5e97", "pty": "0612"}}, {"type": "Feature", "geometry": {"type": "Point", "coordinates": [121.47810159103283, 31.246962594705032]}, "properties": {"name": "\u7cbe\u54c1\u5c4b", "biz": "061209 \u8d2d\u7269\u670d\u52a1;\u4e13\u5356\u5e97;\u793c\u54c1\u9970\u54c1\u5e97", "pty": "0612"}}, {"type": "Feature", "geometry": {"type": "Point", "coordinates": [121.47360610566489, 31.27276658073047]}, "properties": {"name": "\u4e5d\u6728\u6742\u7269\u793e(\u8679\u53e3\u9f99\u4e4b\u68a6\u5e97)", "biz": "061209 \u8d2d\u7269\u670d\u52a1;\u4e13\u5356\u5e97;\u793c\u54c1\u9970\u54c1\u5e97", "pty": "0612"}}, {"type": "Feature", "geometry": {"type": "Point", "coordinates": [121.47222667475076, 31.270729596952325]}, "properties": {"name": "LeCamelia Flora\u82b1\u827a\u5de5\u4f5c\u5ba4", "biz": "061209 \u8d2d\u7269\u670d\u52a1;\u4e13\u5356\u5e97;\u793c\u54c1\u9970\u54c1\u5e97", "pty": "0612"}}, {"type": "Feature", "geometry": {"type": "Point", "coordinates": [121.48865338868195, 31.27398078093161]}, "properties": {"name": "\u6210\u5bb6\u559c\u793c", "biz": "061209 \u8d2d\u7269\u670d\u52a1;\u4e13\u5356\u5e97;\u793c\u54c1\u9970\u54c1\u5e97", "pty": "0612"}}, {"type": "Feature", "geometry": {"type": "Point", "coordinates": [121.50663025158826, 31.258563069529693]}, "properties": {"name": "\u963f\u62c9\u7cd6\u732b", "biz": "061209 \u8d2d\u7269\u670d\u52a1;\u4e13\u5356\u5e97;\u793c\u54c1\u9970\u54c1\u5e97", "pty": "0612"}}, {"type": "Feature", "geometry": {"type": "Point", "coordinates": [121.48570823332804, 31.293522985705728]}, "properties": {"name": "\u6d77\u6dd8\u5c4b", "biz": "061209 \u8d2d\u7269\u670d\u52a1;\u4e13\u5356\u5e97;\u793c\u54c1\u9970\u54c1\u5e97", "pty": "0612"}}, {"type": "Feature", "geometry": {"type": "Point", "coordinates": [121.47313877995539, 31.281646554850095]}, "properties": {"name": "\u6c34\u7eff\u6797\u97e9\u6d41\u7cbe\u54c1\u5c0f\u5c4b", "biz": "061209 \u8d2d\u7269\u670d\u52a1;\u4e13\u5356\u5e97;\u793c\u54c1\u9970\u54c1\u5e97", "pty": "0612"}}, {"type": "Feature", "geometry": {"type": "Point", "coordinates": [121.4733455789103, 31.268723570789053]}, "properties": {"name": "\u65f6\u5c1a\u5973\u5b69(\u540c\u5fc3\u8def)", "biz": "061209 \u8d2d\u7269\u670d\u52a1;\u4e13\u5356\u5e97;\u793c\u54c1\u9970\u54c1\u5e97", "pty": "0612"}}, {"type": "Feature", "geometry": {"type": "Point", "coordinates": [121.51038090493608, 31.25393908782256]}, "properties": {"name": "\u5353\u7440\u5b9e\u4e1a", "biz": "061209 \u8d2d\u7269\u670d\u52a1;\u4e13\u5356\u5e97;\u793c\u54c1\u9970\u54c1\u5e97", "pty": "0612"}}, {"type": "Feature", "geometry": {"type": "Point", "coordinates": [121.47977229009807, 31.24781403291168]}, "properties": {"name": "T\u00b7K\u6f6e\u54c1\u5de5\u4f5c\u5ba4", "biz": "061209 \u8d2d\u7269\u670d\u52a1;\u4e13\u5356\u5e97;\u793c\u54c1\u9970\u54c1\u5e97", "pty": "0612"}}, {"type": "Feature", "geometry": {"type": "Point", "coordinates": [121.47759193275309, 31.269280362349182]}, "properties": {"name": "\u83c1\u83c1\u793c\u54c1", "biz": "061209 \u8d2d\u7269\u670d\u52a1;\u4e13\u5356\u5e97;\u793c\u54c1\u9970\u54c1\u5e97", "pty": "0612"}}, {"type": "Feature", "geometry": {"type": "Point", "coordinates": [121.47852004020461, 31.25857865262956]}, "properties": {"name": "\u4e0a\u6d77\u5e02\u8679\u53e3\u533a\u53cc\u53cc\u793c\u54c1\u5e97", "biz": "061209 \u8d2d\u7269\u670d\u52a1;\u4e13\u5356\u5e97;\u793c\u54c1\u9970\u54c1\u5e97", "pty": "0612"}}, {"type": "Feature", "geometry": {"type": "Point", "coordinates": [121.47400647141917, 31.27251780926569]}, "properties": {"name": "\u62db\u8d22\u732b(\u51ef\u5fb7\u9f99\u4e4b\u68a6\u8d2d\u7269\u4e2d\u5fc3)", "biz": "061209 \u8d2d\u7269\u670d\u52a1;\u4e13\u5356\u5e97;\u793c\u54c1\u9970\u54c1\u5e97", "pty": "0612"}}, {"type": "Feature", "geometry": {"type": "Point", "coordinates": [121.48401952529174, 31.278650095051383]}, "properties": {"name": "\u9065\u9065\u52a8\u6f2b\u793c\u54c1", "biz": "061209 \u8d2d\u7269\u670d\u52a1;\u4e13\u5356\u5e97;\u793c\u54c1\u9970\u54c1\u5e97", "pty": "0612"}}, {"type": "Feature", "geometry": {"type": "Point", "coordinates": [121.4713804567072, 31.298879688122366]}, "properties": {"name": "\u6676\u9970\u793c\u54c1(\u8679\u53e3\u5e97)", "biz": "061209 \u8d2d\u7269\u670d\u52a1;\u4e13\u5356\u5e97;\u793c\u54c1\u9970\u54c1\u5e97", "pty": "0612"}}, {"type": "Feature", "geometry": {"type": "Point", "coordinates": [121.47839292026165, 31.27825887148429]}, "properties": {"name": "\u4e0a\u5916\u7eaa\u5ff5\u54c1\u4e13\u5356\u5e97", "biz": "061209 \u8d2d\u7269\u670d\u52a1;\u4e13\u5356\u5e97;\u793c\u54c1\u9970\u54c1\u5e97", "pty": "0612"}}, {"type": "Feature", "geometry": {"type": "Point", "coordinates": [121.47478507681986, 31.284418033767594]}, "properties": {"name": "\u9876\u5cf0\u60a6\u5fc3\u56ed", "biz": "061209 \u8d2d\u7269\u670d\u52a1;\u4e13\u5356\u5e97;\u793c\u54c1\u9970\u54c1\u5e97", "pty": "0612"}}, {"type": "Feature", "geometry": {"type": "Point", "coordinates": [121.47399340257564, 31.272808649427745]}, "properties": {"name": "\u6f6e\u54c1\u631a\u5c1a(\u51ef\u5fb7\u9f99\u4e4b\u68a6\u8d2d\u7269\u4e2d\u5fc3)", "biz": "061209 \u8d2d\u7269\u670d\u52a1;\u4e13\u5356\u5e97;\u793c\u54c1\u9970\u54c1\u5e97", "pty": "0612"}}, {"type": "Feature", "geometry": {"type": "Point", "coordinates": [121.47322585369923, 31.272512624081237]}, "properties": {"name": "GOGO WOO(\u51ef\u5fb7\u9f99\u4e4b\u68a6\u8d2d\u7269\u4e2d\u5fc3)", "biz": "061209 \u8d2d\u7269\u670d\u52a1;\u4e13\u5356\u5e97;\u793c\u54c1\u9970\u54c1\u5e97", "pty": "0612"}}, {"type": "Feature", "geometry": {"type": "Point", "coordinates": [121.51776858358689, 31.311807300258586]}, "properties": {"name": "\u7537\u751f\u5973\u751f(\u957f\u6d77\u8def)", "biz": "061209 \u8d2d\u7269\u670d\u52a1;\u4e13\u5356\u5e97;\u793c\u54c1\u9970\u54c1\u5e97", "pty": "0612"}}, {"type": "Feature", "geometry": {"type": "Point", "coordinates": [121.52856256108544, 31.315857762213952]}, "properties": {"name": "\u4f36\u4fd0\u9970\u54c1(\u6b27\u5c1a\u4e2d\u539f\u5e97)", "biz": "061209 \u8d2d\u7269\u670d\u52a1;\u4e13\u5356\u5e97;\u793c\u54c1\u9970\u54c1\u5e97", "pty": "0612"}}, {"type": "Feature", "geometry": {"type": "Point", "coordinates": [121.51740609266925, 31.291116427829508]}, "properties": {"name": "\u6d41\u884c\u7f8e(\u5927\u6da6\u53d1)", "biz": "061209 \u8d2d\u7269\u670d\u52a1;\u4e13\u5356\u5e97;\u793c\u54c1\u9970\u54c1\u5e97", "pty": "0612"}}, {"type": "Feature", "geometry": {"type": "Point", "coordinates": [121.51031557147958, 31.30261157256266]}, "properties": {"name": "\u624b\u9970\u573a(\u5df4\u9ece\u6625\u5929)", "biz": "061209 \u8d2d\u7269\u670d\u52a1;\u4e13\u5356\u5e97;\u793c\u54c1\u9970\u54c1\u5e97", "pty": "0612"}}, {"type": "Feature", "geometry": {"type": "Point", "coordinates": [121.51266778511733, 31.30285128522245]}, "properties": {"name": "\u5f15\u8702(\u5927\u897f\u6d0b\u767e\u8d27)", "biz": "061209 \u8d2d\u7269\u670d\u52a1;\u4e13\u5356\u5e97;\u793c\u54c1\u9970\u54c1\u5e97", "pty": "0612"}}, {"type": "Feature", "geometry": {"type": "Point", "coordinates": [121.53367824856014, 31.267361110406018]}, "properties": {"name": "\u963f\u5409\u8c46(\u767e\u8054\u6ee8\u6c5f\u8d2d\u7269\u4e2d\u5fc3)", "biz": "061209 \u8d2d\u7269\u670d\u52a1;\u4e13\u5356\u5e97;\u793c\u54c1\u9970\u54c1\u5e97", "pty": "0612"}}, {"type": "Feature", "geometry": {"type": "Point", "coordinates": [121.50813601327215, 31.277317466478088]}, "properties": {"name": "\u4e2b\u4e2b\u6b66\u5668", "biz": "061209 \u8d2d\u7269\u670d\u52a1;\u4e13\u5356\u5e97;\u793c\u54c1\u9970\u54c1\u5e97", "pty": "0612"}}, {"type": "Feature", "geometry": {"type": "Point", "coordinates": [121.51355996447414, 31.301931208621628]}, "properties": {"name": "POP MART(\u5408\u751f\u6c47)", "biz": "061209 \u8d2d\u7269\u670d\u52a1;\u4e13\u5356\u5e97;\u793c\u54c1\u9970\u54c1\u5e97", "pty": "0612"}}, {"type": "Feature", "geometry": {"type": "Point", "coordinates": [121.51801364134441, 31.273442440041197]}, "properties": {"name": "\u51ef\u8389\u559c\u793c", "biz": "061209 \u8d2d\u7269\u670d\u52a1;\u4e13\u5356\u5e97;\u793c\u54c1\u9970\u54c1\u5e97", "pty": "0612"}}, {"type": "Feature", "geometry": {"type": "Point", "coordinates": [121.53541546988033, 31.26610981350674]}, "properties": {"name": "\u98ce\u4fe1\u5b50", "biz": "061209 \u8d2d\u7269\u670d\u52a1;\u4e13\u5356\u5e97;\u793c\u54c1\u9970\u54c1\u5e97", "pty": "0612"}}, {"type": "Feature", "geometry": {"type": "Point", "coordinates": [121.51314959610892, 31.301257296629128]}, "properties": {"name": "\u9177\u4e50\u6f6e\u73a9(\u5408\u751f\u6c47)", "biz": "061209 \u8d2d\u7269\u670d\u52a1;\u4e13\u5356\u5e97;\u793c\u54c1\u9970\u54c1\u5e97", "pty": "0612"}}, {"type": "Feature", "geometry": {"type": "Point", "coordinates": [121.50785592195514, 31.27848915459668]}, "properties": {"name": "\u9526\u897f\u793c\u54c1", "biz": "061209 \u8d2d\u7269\u670d\u52a1;\u4e13\u5356\u5e97;\u793c\u54c1\u9970\u54c1\u5e97", "pty": "0612"}}, {"type": "Feature", "geometry": {"type": "Point", "coordinates": [121.52823071581983, 31.289656186685082]}, "properties": {"name": "\u9752\u6625\u5973\u5b69\u9970\u54c1", "biz": "061209 \u8d2d\u7269\u670d\u52a1;\u4e13\u5356\u5e97;\u793c\u54c1\u9970\u54c1\u5e97", "pty": "0612"}}, {"type": "Feature", "geometry": {"type": "Point", "coordinates": [121.53236142763207, 31.31370212347456]}, "properties": {"name": "\u5fc3\u60f3\u9970\u57ce(\u6c11\u661f\u8def)", "biz": "061209 \u8d2d\u7269\u670d\u52a1;\u4e13\u5356\u5e97;\u793c\u54c1\u9970\u54c1\u5e97", "pty": "0612"}}, {"type": "Feature", "geometry": {"type": "Point", "coordinates": [121.52781737882356, 31.3139485693855]}, "properties": {"name": "\u597d\u6765\u5c4b\u5c4b(\u4e2d\u539f\u5e97)", "biz": "061209 \u8d2d\u7269\u670d\u52a1;\u4e13\u5356\u5e97;\u793c\u54c1\u9970\u54c1\u5e97", "pty": "0612"}}, {"type": "Feature", "geometry": {"type": "Point", "coordinates": [121.53299220193638, 31.291267476281895]}, "properties": {"name": "\u7070\u59d1\u5a18\u9970\u54c1(\u6c34\u4e30\u8def)", "biz": "061209 \u8d2d\u7269\u670d\u52a1;\u4e13\u5356\u5e97;\u793c\u54c1\u9970\u54c1\u5e97", "pty": "0612"}}, {"type": "Feature", "geometry": {"type": "Point", "coordinates": [121.52255002216145, 31.282666057711136]}, "properties": {"name": "\u6021\u96c5\u96c5\u6587\u5177", "biz": "061209 \u8d2d\u7269\u670d\u52a1;\u4e13\u5356\u5e97;\u793c\u54c1\u9970\u54c1\u5e97", "pty": "0612"}}, {"type": "Feature", "geometry": {"type": "Point", "coordinates": [121.5342558034461, 31.293176769676275]}, "properties": {"name": "\u793c\u5c1a\u5ba2", "biz": "061209 \u8d2d\u7269\u670d\u52a1;\u4e13\u5356\u5e97;\u793c\u54c1\u9970\u54c1\u5e97", "pty": "0612"}}, {"type": "Feature", "geometry": {"type": "Point", "coordinates": [121.5204953423118, 31.281131093908655]}, "properties": {"name": "\u946b\u76db\u7cbe\u54c1\u5c4b", "biz": "061209 \u8d2d\u7269\u670d\u52a1;\u4e13\u5356\u5e97;\u793c\u54c1\u9970\u54c1\u5e97", "pty": "0612"}}, {"type": "Feature", "geometry": {"type": "Point", "coordinates": [121.48128303540241, 31.312373601860553]}, "properties": {"name": "\u9038\u4ed9\u793c\u54c1\u5e97", "biz": "061209 \u8d2d\u7269\u670d\u52a1;\u4e13\u5356\u5e97;\u793c\u54c1\u9970\u54c1\u5e97", "pty": "0612"}}, {"type": "Feature", "geometry": {"type": "Point", "coordinates": [121.52941029464158, 31.32673387908824]}, "properties": {"name": "\u6696\u6696\u5c0f\u5c4b\u793c\u54c1\u5e97", "biz": "061209 \u8d2d\u7269\u670d\u52a1;\u4e13\u5356\u5e97;\u793c\u54c1\u9970\u54c1\u5e97", "pty": "0612"}}, {"type": "Feature", "geometry": {"type": "Point", "coordinates": [121.50449720318929, 31.275633438990752]}, "properties": {"name": "Mofer Magic(\u65ed\u8f89Mall)", "biz": "061209 \u8d2d\u7269\u670d\u52a1;\u4e13\u5356\u5e97;\u793c\u54c1\u9970\u54c1\u5e97", "pty": "0612"}}, {"type": "Feature", "geometry": {"type": "Point", "coordinates": [121.51389410474064, 31.302147080449746]}, "properties": {"name": "\u732b\u820d\u9053\u4e50\u5802\u672c\u94fa(\u5408\u751f\u6c47)", "biz": "061209 \u8d2d\u7269\u670d\u52a1;\u4e13\u5356\u5e97;\u793c\u54c1\u9970\u54c1\u5e97", "pty": "0612"}}, {"type": "Feature", "geometry": {"type": "Point", "coordinates": [121.51233378744288, 31.27714375101286]}, "properties": {"name": "\u963f\u5409\u8c46(\u7d2b\u8346\u5e7f\u573a\u5e97)", "biz": "061209 \u8d2d\u7269\u670d\u52a1;\u4e13\u5356\u5e97;\u793c\u54c1\u9970\u54c1\u5e97", "pty": "0612"}}, {"type": "Feature", "geometry": {"type": "Point", "coordinates": [121.51743820929096, 31.291028553423025]}, "properties": {"name": "Lenle(\u5927\u6da6\u53d1)", "biz": "061209 \u8d2d\u7269\u670d\u52a1;\u4e13\u5356\u5e97;\u793c\u54c1\u9970\u54c1\u5e97", "pty": "0612"}}, {"type": "Feature", "geometry": {"type": "Point", "coordinates": [121.5080305298951, 31.278617613429848]}, "properties": {"name": "\u540c\u82b3\u793c\u9970\u54c1", "biz": "061209 \u8d2d\u7269\u670d\u52a1;\u4e13\u5356\u5e97;\u793c\u54c1\u9970\u54c1\u5e97", "pty": "0612"}}, {"type": "Feature", "geometry": {"type": "Point", "coordinates": [121.51920887724904, 31.282965785382807]}, "properties": {"name": "\u84d3\u84d3\u7cbe\u54c1\u5c4b", "biz": "061209 \u8d2d\u7269\u670d\u52a1;\u4e13\u5356\u5e97;\u793c\u54c1\u9970\u54c1\u5e97", "pty": "0612"}}, {"type": "Feature", "geometry": {"type": "Point", "coordinates": [121.51311145070304, 31.301409127314237]}, "properties": {"name": "\u672a\u6765\u9020\u7269\u5c40(\u5408\u751f\u6c47)", "biz": "061209 \u8d2d\u7269\u670d\u52a1;\u4e13\u5356\u5e97;\u793c\u54c1\u9970\u54c1\u5e97", "pty": "0612"}}, {"type": "Feature", "geometry": {"type": "Point", "coordinates": [121.5139312324995, 31.302157182677508]}, "properties": {"name": "Candy Lab(\u5408\u751f\u6c47)", "biz": "061209 \u8d2d\u7269\u670d\u52a1;\u4e13\u5356\u5e97;\u793c\u54c1\u9970\u54c1\u5e97", "pty": "0612"}}, {"type": "Feature", "geometry": {"type": "Point", "coordinates": [121.5187846085695, 31.304841823026063]}, "properties": {"name": "\u793c\u54c1\u6536\u85cf", "biz": "061209 \u8d2d\u7269\u670d\u52a1;\u4e13\u5356\u5e97;\u793c\u54c1\u9970\u54c1\u5e97", "pty": "0612"}}, {"type": "Feature", "geometry": {"type": "Point", "coordinates": [121.51316505459435, 31.272712009481]}, "properties": {"name": "\u6dd8\u6dd8\u4e50\u73a9\u5177\u5c4b", "biz": "061209 \u8d2d\u7269\u670d\u52a1;\u4e13\u5356\u5e97;\u793c\u54c1\u9970\u54c1\u5e97", "pty": "0612"}}, {"type": "Feature", "geometry": {"type": "Point", "coordinates": [121.51354190011394, 31.301951149018894]}, "properties": {"name": "TEAM GREEN(\u5408\u751f\u6c47)", "biz": "061209 \u8d2d\u7269\u670d\u52a1;\u4e13\u5356\u5e97;\u793c\u54c1\u9970\u54c1\u5e97", "pty": "0612"}}, {"type": "Feature", "geometry": {"type": "Point", "coordinates": [121.53411916440969, 31.27205717260017]}, "properties": {"name": "Lenle\u4f36\u4fd0", "biz": "061209 \u8d2d\u7269\u670d\u52a1;\u4e13\u5356\u5e97;\u793c\u54c1\u9970\u54c1\u5e97", "pty": "0612"}}, {"type": "Feature", "geometry": {"type": "Point", "coordinates": [121.50300116631405, 31.28367764620992]}, "properties": {"name": "\u5bfb\u540c\u6d4e\u5e97", "biz": "061209 \u8d2d\u7269\u670d\u52a1;\u4e13\u5356\u5e97;\u793c\u54c1\u9970\u54c1\u5e97", "pty": "0612"}}, {"type": "Feature", "geometry": {"type": "Point", "coordinates": [121.52385827055315, 31.28308240444249]}, "properties": {"name": "\u6a31\u82b1\u6811\u4e0b\u840c\u7269\u5c0f\u94fa", "biz": "061209 \u8d2d\u7269\u670d\u52a1;\u4e13\u5356\u5e97;\u793c\u54c1\u9970\u54c1\u5e97", "pty": "0612"}}, {"type": "Feature", "geometry": {"type": "Point", "coordinates": [121.5500029610431, 31.279281344073464]}, "properties": {"name": "\u9970\u54c1\u9970\u754c", "biz": "061209 \u8d2d\u7269\u670d\u52a1;\u4e13\u5356\u5e97;\u793c\u54c1\u9970\u54c1\u5e97", "pty": "0612"}}, {"type": "Feature", "geometry": {"type": "Point", "coordinates": [121.53504234741301, 31.266492761670186]}, "properties": {"name": "\u725b\u819c\u738b", "biz": "061209 \u8d2d\u7269\u670d\u52a1;\u4e13\u5356\u5e97;\u793c\u54c1\u9970\u54c1\u5e97", "pty": "0612"}}, {"type": "Feature", "geometry": {"type": "Point", "coordinates": [121.50946560725919, 31.290415959653945]}, "properties": {"name": "\u9177\u54c7\u5c4b\u65e5\u97e9\u5e97", "biz": "061209 \u8d2d\u7269\u670d\u52a1;\u4e13\u5356\u5e97;\u793c\u54c1\u9970\u54c1\u5e97", "pty": "0612"}}, {"type": "Feature", "geometry": {"type": "Point", "coordinates": [121.51102396947634, 31.303676212878617]}, "properties": {"name": "\u9177\u4e50\u6f6e\u73a9(\u767e\u8054\u53c8\u4e00\u57ce\u8d2d\u7269\u4e2d\u5fc3)", "biz": "061209 \u8d2d\u7269\u670d\u52a1;\u4e13\u5356\u5e97;\u793c\u54c1\u9970\u54c1\u5e97", "pty": "0612"}}, {"type": "Feature", "geometry": {"type": "Point", "coordinates": [121.50088120256207, 31.299618888491164]}, "properties": {"name": "\u590d\u65e6\u5927\u5b66\u52e4\u52a9\u6821\u540d\u793c\u54c1\u5c4b", "biz": "061209 \u8d2d\u7269\u670d\u52a1;\u4e13\u5356\u5e97;\u793c\u54c1\u9970\u54c1\u5e97", "pty": "0612"}}, {"type": "Feature", "geometry": {"type": "Point", "coordinates": [121.34237258389068, 31.158024628838806]}, "properties": {"name": "\u77f3\u5934\u8bb0(\u4e03\u5b9d\u5e97)", "biz": "061202|061209 \u8d2d\u7269\u670d\u52a1;\u4e13\u5356\u5e97;\u73e0\u5b9d\u9996\u9970\u5de5\u827a\u54c1|\u8d2d\u7269\u670d\u52a1;\u4e13\u5356\u5e97;\u793c\u54c1\u9970\u54c1\u5e97", "pty": "0612"}}, {"type": "Feature", "geometry": {"type": "Point", "coordinates": [121.34237258389068, 31.158024628838806]}, "properties": {"name": "\u77f3\u5934\u8bb0(\u4e03\u5b9d\u5e97)", "biz": "061202|061209 \u8d2d\u7269\u670d\u52a1;\u4e13\u5356\u5e97;\u73e0\u5b9d\u9996\u9970\u5de5\u827a\u54c1|\u8d2d\u7269\u670d\u52a1;\u4e13\u5356\u5e97;\u793c\u54c1\u9970\u54c1\u5e97", "pty": "0612"}}, {"type": "Feature", "geometry": {"type": "Point", "coordinates": [121.31122407381932, 31.195183399010507]}, "properties": {"name": "\u963f\u5409\u8c46(\u8679\u6865\u5929\u5730\u5357\u533a\u6f14\u827a\u4e2d\u5fc3)", "biz": "061202|061209 \u8d2d\u7269\u670d\u52a1;\u4e13\u5356\u5e97;\u73e0\u5b9d\u9996\u9970\u5de5\u827a\u54c1|\u8d2d\u7269\u670d\u52a1;\u4e13\u5356\u5e97;\u793c\u54c1\u9970\u54c1\u5e97", "pty": "0612"}}, {"type": "Feature", "geometry": {"type": "Point", "coordinates": [121.31122407381932, 31.195183399010507]}, "properties": {"name": "\u963f\u5409\u8c46(\u8679\u6865\u5929\u5730\u5357\u533a\u6f14\u827a\u4e2d\u5fc3)", "biz": "061202|061209 \u8d2d\u7269\u670d\u52a1;\u4e13\u5356\u5e97;\u73e0\u5b9d\u9996\u9970\u5de5\u827a\u54c1|\u8d2d\u7269\u670d\u52a1;\u4e13\u5356\u5e97;\u793c\u54c1\u9970\u54c1\u5e97", "pty": "0612"}}, {"type": "Feature", "geometry": {"type": "Point", "coordinates": [121.34980875857362, 31.1782534390345]}, "properties": {"name": "\u8d64\u9611\u6865\u73e0\u5b9d", "biz": "061209|061202 \u8d2d\u7269\u670d\u52a1;\u4e13\u5356\u5e97;\u793c\u54c1\u9970\u54c1\u5e97|\u8d2d\u7269\u670d\u52a1;\u4e13\u5356\u5e97;\u73e0\u5b9d\u9996\u9970\u5de5\u827a\u54c1", "pty": "0612"}}, {"type": "Feature", "geometry": {"type": "Point", "coordinates": [121.34980875857362, 31.1782534390345]}, "properties": {"name": "\u8d64\u9611\u6865\u73e0\u5b9d", "biz": "061209|061202 \u8d2d\u7269\u670d\u52a1;\u4e13\u5356\u5e97;\u793c\u54c1\u9970\u54c1\u5e97|\u8d2d\u7269\u670d\u52a1;\u4e13\u5356\u5e97;\u73e0\u5b9d\u9996\u9970\u5de5\u827a\u54c1", "pty": "0612"}}, {"type": "Feature", "geometry": {"type": "Point", "coordinates": [121.38207853054452, 31.070844838209936]}, "properties": {"name": "\u4e0a\u6d77\u963f\u5409\u8c46\u6295\u8d44\u7ba1\u7406\u54a8\u8be2\u6709\u9650\u516c\u53f8", "biz": "061209 \u8d2d\u7269\u670d\u52a1;\u4e13\u5356\u5e97;\u793c\u54c1\u9970\u54c1\u5e97", "pty": "0612"}}, {"type": "Feature", "geometry": {"type": "Point", "coordinates": [121.41812644431575, 31.00702195958991]}, "properties": {"name": "\u597d\u5fc3\u60c5(\u6c5f\u5ddd\u8def)", "biz": "061209 \u8d2d\u7269\u670d\u52a1;\u4e13\u5356\u5e97;\u793c\u54c1\u9970\u54c1\u5e97", "pty": "0612"}}, {"type": "Feature", "geometry": {"type": "Point", "coordinates": [121.39444915442999, 31.159148440543632]}, "properties": {"name": "\u4e00\u9970\u7f18(\u4e1c\u5170\u5e97)", "biz": "061209 \u8d2d\u7269\u670d\u52a1;\u4e13\u5356\u5e97;\u793c\u54c1\u9970\u54c1\u5e97", "pty": "0612"}}, {"type": "Feature", "geometry": {"type": "Point", "coordinates": [121.43890488702536, 31.057559770580824]}, "properties": {"name": "\u9970\u5c1a\u7537\u5973", "biz": "061209 \u8d2d\u7269\u670d\u52a1;\u4e13\u5356\u5e97;\u793c\u54c1\u9970\u54c1\u5e97", "pty": "0612"}}, {"type": "Feature", "geometry": {"type": "Point", "coordinates": [121.3490202624175, 31.15557544488283]}, "properties": {"name": "\u94f6\u5ea7\u5178\u85cf\u9601", "biz": "061209 \u8d2d\u7269\u670d\u52a1;\u4e13\u5356\u5e97;\u793c\u54c1\u9970\u54c1\u5e97", "pty": "0612"}}, {"type": "Feature", "geometry": {"type": "Point", "coordinates": [121.41702822629816, 31.123135718303317]}, "properties": {"name": "\u5b89\u4e4b\u79c0\u9970\u54c1(\u8398\u6731\u8def\u5e97)", "biz": "061209 \u8d2d\u7269\u670d\u52a1;\u4e13\u5356\u5e97;\u793c\u54c1\u9970\u54c1\u5e97", "pty": "0612"}}, {"type": "Feature", "geometry": {"type": "Point", "coordinates": [121.41469315653241, 31.01671339031272]}, "properties": {"name": "\u4e1d\u754c(\u7f6e\u4e1a\u5e7f\u573a)", "biz": "061209|061100 \u8d2d\u7269\u670d\u52a1;\u4e13\u5356\u5e97;\u793c\u54c1\u9970\u54c1\u5e97|\u8d2d\u7269\u670d\u52a1;\u670d\u88c5\u978b\u5e3d\u76ae\u5177\u5e97;\u670d\u88c5\u978b\u5e3d\u76ae\u5177\u5e97", "pty": "0612"}}, {"type": "Feature", "geometry": {"type": "Point", "coordinates": [121.39803694392471, 31.136088408980452]}, "properties": {"name": "\u7579\u753a(\u83b2\u82b1\u56fd\u9645\u5e7f\u573a)", "biz": "061209 \u8d2d\u7269\u670d\u52a1;\u4e13\u5356\u5e97;\u793c\u54c1\u9970\u54c1\u5e97", "pty": "0612"}}, {"type": "Feature", "geometry": {"type": "Point", "coordinates": [121.42156937658446, 31.008775331631924]}, "properties": {"name": "\u5c0f\u8349\u5c4b(\u6c5f\u5ddd\u4e1c\u8def\u5e97)", "biz": "061209 \u8d2d\u7269\u670d\u52a1;\u4e13\u5356\u5e97;\u793c\u54c1\u9970\u54c1\u5e97", "pty": "0612"}}, {"type": "Feature", "geometry": {"type": "Point", "coordinates": [121.37842112707044, 31.111091904084223]}, "properties": {"name": "\u4f36\u4fd0(\u4f17\u8d24\u8def)", "biz": "061209 \u8d2d\u7269\u670d\u52a1;\u4e13\u5356\u5e97;\u793c\u54c1\u9970\u54c1\u5e97", "pty": "0612"}}, {"type": "Feature", "geometry": {"type": "Point", "coordinates": [121.3978089683056, 31.13573759542831]}, "properties": {"name": "\u963f\u5409\u8c46(\u83b2\u82b1\u56fd\u9645\u5e7f\u573a)", "biz": "061209 \u8d2d\u7269\u670d\u52a1;\u4e13\u5356\u5e97;\u793c\u54c1\u9970\u54c1\u5e97", "pty": "0612"}}, {"type": "Feature", "geometry": {"type": "Point", "coordinates": [121.4148042588621, 31.0167084777904]}, "properties": {"name": "\u963f\u5409\u8c46(\u4e1c\u5ddd\u8def\u6b27\u5c1a\u5e97)", "biz": "061209 \u8d2d\u7269\u670d\u52a1;\u4e13\u5356\u5e97;\u793c\u54c1\u9970\u54c1\u5e97", "pty": "0612"}}, {"type": "Feature", "geometry": {"type": "Point", "coordinates": [121.38941652958928, 31.067459037804408]}, "properties": {"name": "\u4f73\u96ea\u9970\u54c1", "biz": "061209 \u8d2d\u7269\u670d\u52a1;\u4e13\u5356\u5e97;\u793c\u54c1\u9970\u54c1\u5e97", "pty": "0612"}}, {"type": "Feature", "geometry": {"type": "Point", "coordinates": [121.37886336768669, 31.149693708352213]}, "properties": {"name": "\u6c47\u5b9d\u697c", "biz": "120201|061209 \u5546\u52a1\u4f4f\u5b85;\u697c\u5b87;\u5546\u52a1\u5199\u5b57\u697c|\u8d2d\u7269\u670d\u52a1;\u4e13\u5356\u5e97;\u793c\u54c1\u9970\u54c1\u5e97", "pty": "1202"}}, {"type": "Feature", "geometry": {"type": "Point", "coordinates": [121.35956378901618, 31.10105664392057]}, "properties": {"name": "\u661f\u661f\u9601\u9970\u54c1", "biz": "061209 \u8d2d\u7269\u670d\u52a1;\u4e13\u5356\u5e97;\u793c\u54c1\u9970\u54c1\u5e97", "pty": "0612"}}, {"type": "Feature", "geometry": {"type": "Point", "coordinates": [121.34591734334205, 31.156958976377556]}, "properties": {"name": "Zippo(\u4e03\u5b9d\u4e07\u79d1\u5e7f\u573a)", "biz": "061209 \u8d2d\u7269\u670d\u52a1;\u4e13\u5356\u5e97;\u793c\u54c1\u9970\u54c1\u5e97", "pty": "0612"}}, {"type": "Feature", "geometry": {"type": "Point", "coordinates": [121.31654204340529, 31.196152912694885]}, "properties": {"name": "YIBOYO(\u8679\u6865\u7efc\u5408\u4ea4\u901a\u67a2\u7ebd)", "biz": "061209 \u8d2d\u7269\u670d\u52a1;\u4e13\u5356\u5e97;\u793c\u54c1\u9970\u54c1\u5e97", "pty": "0612"}}, {"type": "Feature", "geometry": {"type": "Point", "coordinates": [121.32431217641005, 31.198047108172435]}, "properties": {"name": "TOUS(\u8679\u6865\u7efc\u5408\u4ea4\u901a\u67a2\u7ebd)", "biz": "061209 \u8d2d\u7269\u670d\u52a1;\u4e13\u5356\u5e97;\u793c\u54c1\u9970\u54c1\u5e97", "pty": "0612"}}, {"type": "Feature", "geometry": {"type": "Point", "coordinates": [121.36780177262327, 31.17579701180605]}, "properties": {"name": "\u9177\u4e50\u6f6e\u73a9", "biz": "061209 \u8d2d\u7269\u670d\u52a1;\u4e13\u5356\u5e97;\u793c\u54c1\u9970\u54c1\u5e97", "pty": "0612"}}, {"type": "Feature", "geometry": {"type": "Point", "coordinates": [121.34567783319443, 31.156931403792022]}, "properties": {"name": "\u963f\u5409\u8c46(\u4e03\u5b9d\u4e07\u79d1\u5e7f\u573a)", "biz": "061209 \u8d2d\u7269\u670d\u52a1;\u4e13\u5356\u5e97;\u793c\u54c1\u9970\u54c1\u5e97", "pty": "0612"}}, {"type": "Feature", "geometry": {"type": "Point", "coordinates": [121.38296558787665, 31.1087239841705]}, "properties": {"name": "\u9177\u4e50\u6f6e\u73a9(\u8398\u5e84\u4ef2\u76db\u5e97)", "biz": "061209 \u8d2d\u7269\u670d\u52a1;\u4e13\u5356\u5e97;\u793c\u54c1\u9970\u54c1\u5e97", "pty": "0612"}}, {"type": "Feature", "geometry": {"type": "Point", "coordinates": [121.3491500270898, 31.155354344963644]}, "properties": {"name": "\u6797\u6c0f\u793c\u54c1\u5e97", "biz": "061209 \u8d2d\u7269\u670d\u52a1;\u4e13\u5356\u5e97;\u793c\u54c1\u9970\u54c1\u5e97", "pty": "0612"}}, {"type": "Feature", "geometry": {"type": "Point", "coordinates": [121.3488096619528, 31.155740709220744]}, "properties": {"name": "\u8d8a\u5174\u76db", "biz": "061209 \u8d2d\u7269\u670d\u52a1;\u4e13\u5356\u5e97;\u793c\u54c1\u9970\u54c1\u5e97", "pty": "0612"}}, {"type": "Feature", "geometry": {"type": "Point", "coordinates": [121.37693104183876, 31.186066553642792]}, "properties": {"name": "\u4e00\u55e8\u7cbe\u54c1\u5e97", "biz": "061209 \u8d2d\u7269\u670d\u52a1;\u4e13\u5356\u5e97;\u793c\u54c1\u9970\u54c1\u5e97", "pty": "0612"}}, {"type": "Feature", "geometry": {"type": "Point", "coordinates": [121.38886078097654, 31.06725436031704]}, "properties": {"name": "\u6dd8\u9970\u5e93", "biz": "061209 \u8d2d\u7269\u670d\u52a1;\u4e13\u5356\u5e97;\u793c\u54c1\u9970\u54c1\u5e97", "pty": "0612"}}, {"type": "Feature", "geometry": {"type": "Point", "coordinates": [121.4140655236088, 31.00594325824382]}, "properties": {"name": "\u9752\u626c\u9970\u54c1", "biz": "061209 \u8d2d\u7269\u670d\u52a1;\u4e13\u5356\u5e97;\u793c\u54c1\u9970\u54c1\u5e97", "pty": "0612"}}, {"type": "Feature", "geometry": {"type": "Point", "coordinates": [121.51062884525484, 31.1102789247386]}, "properties": {"name": "\u4e5d\u4e00\u4e09\u9970\u54c1", "biz": "061209 \u8d2d\u7269\u670d\u52a1;\u4e13\u5356\u5e97;\u793c\u54c1\u9970\u54c1\u5e97", "pty": "0612"}}, {"type": "Feature", "geometry": {"type": "Point", "coordinates": [121.34912706801319, 31.155401358477683]}, "properties": {"name": "\u65e7\u65f6\u5149", "biz": "061209 \u8d2d\u7269\u670d\u52a1;\u4e13\u5356\u5e97;\u793c\u54c1\u9970\u54c1\u5e97", "pty": "0612"}}, {"type": "Feature", "geometry": {"type": "Point", "coordinates": [121.38278467710904, 31.109202832664916]}, "properties": {"name": "YIBOYO(\u4ef2\u76db\u4e16\u754c\u5546\u57ce)", "biz": "061209 \u8d2d\u7269\u670d\u52a1;\u4e13\u5356\u5e97;\u793c\u54c1\u9970\u54c1\u5e97", "pty": "0612"}}, {"type": "Feature", "geometry": {"type": "Point", "coordinates": [121.40484773838627, 31.00509493527196]}, "properties": {"name": "\u5170\u5409\u767e\u8d27\u793c\u54c1\u5e97", "biz": "061209 \u8d2d\u7269\u670d\u52a1;\u4e13\u5356\u5e97;\u793c\u54c1\u9970\u54c1\u5e97", "pty": "0612"}}, {"type": "Feature", "geometry": {"type": "Point", "coordinates": [121.37011738154479, 31.17947452189537]}, "properties": {"name": "\u683c\u683c\u306e\u5c4b(\u91d1\u6c47\u8def\u5e97)", "biz": "061209 \u8d2d\u7269\u670d\u52a1;\u4e13\u5356\u5e97;\u793c\u54c1\u9970\u54c1\u5e97", "pty": "0612"}}, {"type": "Feature", "geometry": {"type": "Point", "coordinates": [121.51465075727873, 31.111130034271486]}, "properties": {"name": "\u857e\u857e\u9970\u54c1(\u82cf\u8fd1\u8def)", "biz": "061209 \u8d2d\u7269\u670d\u52a1;\u4e13\u5356\u5e97;\u793c\u54c1\u9970\u54c1\u5e97", "pty": "0612"}}, {"type": "Feature", "geometry": {"type": "Point", "coordinates": [121.40161380683604, 31.07375327565358]}, "properties": {"name": "\u9177\u4e50\u6f6e\u73a9", "biz": "061209 \u8d2d\u7269\u670d\u52a1;\u4e13\u5356\u5e97;\u793c\u54c1\u9970\u54c1\u5e97", "pty": "0612"}}, {"type": "Feature", "geometry": {"type": "Point", "coordinates": [121.34795500695428, 31.18283021382724]}, "properties": {"name": "\u5973\u751f\u6700\u7231\u9970\u54c1\u00b7\u6587\u5177\u5e97", "biz": "061209 \u8d2d\u7269\u670d\u52a1;\u4e13\u5356\u5e97;\u793c\u54c1\u9970\u54c1\u5e97", "pty": "0612"}}, {"type": "Feature", "geometry": {"type": "Point", "coordinates": [121.53029838972081, 31.106991553162068]}, "properties": {"name": "\u4f0a\u5440\u5440(\u82cf\u53ec\u8def)", "biz": "061209 \u8d2d\u7269\u670d\u52a1;\u4e13\u5356\u5e97;\u793c\u54c1\u9970\u54c1\u5e97", "pty": "0612"}}, {"type": "Feature", "geometry": {"type": "Point", "coordinates": [121.52069265066348, 31.07014995682756]}, "properties": {"name": "\u97e9\u6d41\u9970\u54c1(\u6d66\u6c5f\u65d7\u8230\u5e97)", "biz": "061209 \u8d2d\u7269\u670d\u52a1;\u4e13\u5356\u5e97;\u793c\u54c1\u9970\u54c1\u5e97", "pty": "0612"}}, {"type": "Feature", "geometry": {"type": "Point", "coordinates": [121.34887454525011, 31.155614667047878]}, "properties": {"name": "\u91d1\u8da3\u5927\u73a9\u5bb6", "biz": "061209 \u8d2d\u7269\u670d\u52a1;\u4e13\u5356\u5e97;\u793c\u54c1\u9970\u54c1\u5e97", "pty": "0612"}}, {"type": "Feature", "geometry": {"type": "Point", "coordinates": [121.34325377818625, 31.1575623080334]}, "properties": {"name": "\u683c\u683c\u5c4b\u521b\u610f\u7a7a\u95f4\u7ad9", "biz": "061209 \u8d2d\u7269\u670d\u52a1;\u4e13\u5356\u5e97;\u793c\u54c1\u9970\u54c1\u5e97", "pty": "0612"}}, {"type": "Feature", "geometry": {"type": "Point", "coordinates": [121.49973219531987, 31.09680019249513]}, "properties": {"name": "Mofer Magic(\u9648\u884c\u516c\u8def\u5e97)", "biz": "061209 \u8d2d\u7269\u670d\u52a1;\u4e13\u5356\u5e97;\u793c\u54c1\u9970\u54c1\u5e97", "pty": "0612"}}, {"type": "Feature", "geometry": {"type": "Point", "coordinates": [121.38503191476293, 31.10053332952969]}, "properties": {"name": "\u5947\u5c7f\u8896\u73cd\u5c4b", "biz": "061209 \u8d2d\u7269\u670d\u52a1;\u4e13\u5356\u5e97;\u793c\u54c1\u9970\u54c1\u5e97", "pty": "0612"}}, {"type": "Feature", "geometry": {"type": "Point", "coordinates": [121.28779428076504, 31.20960374310622]}, "properties": {"name": "\u751f\u6d3b\u9017\u70b9", "biz": "061209 \u8d2d\u7269\u670d\u52a1;\u4e13\u5356\u5e97;\u793c\u54c1\u9970\u54c1\u5e97", "pty": "0612"}}, {"type": "Feature", "geometry": {"type": "Point", "coordinates": [121.395198861974, 31.069263645855102]}, "properties": {"name": "\u597d\u5fc3\u60c5\u9970\u54c1(\u989b\u5174\u8def)", "biz": "061209 \u8d2d\u7269\u670d\u52a1;\u4e13\u5356\u5e97;\u793c\u54c1\u9970\u54c1\u5e97", "pty": "0612"}}, {"type": "Feature", "geometry": {"type": "Point", "coordinates": [121.34155340440829, 31.15695864875543]}, "properties": {"name": "\u65e5\u97e9\u9970\u54c1", "biz": "061209 \u8d2d\u7269\u670d\u52a1;\u4e13\u5356\u5e97;\u793c\u54c1\u9970\u54c1\u5e97", "pty": "0612"}}, {"type": "Feature", "geometry": {"type": "Point", "coordinates": [121.3506447630037, 31.1595426947131]}, "properties": {"name": "\u963f\u5409\u8c46(\u4e03\u5b9d\u5b9d\u9f99\u57ce\u5e02\u5e7f\u573a\u5e97)", "biz": "061209 \u8d2d\u7269\u670d\u52a1;\u4e13\u5356\u5e97;\u793c\u54c1\u9970\u54c1\u5e97", "pty": "0612"}}, {"type": "Feature", "geometry": {"type": "Point", "coordinates": [121.40903078730146, 31.098066070697577]}, "properties": {"name": "\u7231\u6587\u5177\u793c\u54c1\u5c4b", "biz": "061209 \u8d2d\u7269\u670d\u52a1;\u4e13\u5356\u5e97;\u793c\u54c1\u9970\u54c1\u5e97", "pty": "0612"}}, {"type": "Feature", "geometry": {"type": "Point", "coordinates": [121.39599331123426, 31.063222028789486]}, "properties": {"name": "\u5b9d\u9f50\u83b1\u610f\u5927\u5229\u6781\u7b80\u9676\u827a", "biz": "061209 \u8d2d\u7269\u670d\u52a1;\u4e13\u5356\u5e97;\u793c\u54c1\u9970\u54c1\u5e97", "pty": "0612"}}, {"type": "Feature", "geometry": {"type": "Point", "coordinates": [121.36184995441215, 31.183138807512492]}, "properties": {"name": "\u683c\u5b50\u94fa", "biz": "061209 \u8d2d\u7269\u670d\u52a1;\u4e13\u5356\u5e97;\u793c\u54c1\u9970\u54c1\u5e97", "pty": "0612"}}, {"type": "Feature", "geometry": {"type": "Point", "coordinates": [121.39000945687197, 31.06561788634401]}, "properties": {"name": "\u6676\u7f8e\u9970\u54c1(\u989b\u76db\u8def\u5e97)", "biz": "061209 \u8d2d\u7269\u670d\u52a1;\u4e13\u5356\u5e97;\u793c\u54c1\u9970\u54c1\u5e97", "pty": "0612"}}, {"type": "Feature", "geometry": {"type": "Point", "coordinates": [121.54517700828374, 31.07576924586086]}, "properties": {"name": "\u5c0f\u9970\u60c5", "biz": "061209 \u8d2d\u7269\u670d\u52a1;\u4e13\u5356\u5e97;\u793c\u54c1\u9970\u54c1\u5e97", "pty": "0612"}}, {"type": "Feature", "geometry": {"type": "Point", "coordinates": [121.29203679767646, 31.2071455988122]}, "properties": {"name": "\u9970\u89c9(\u7d2b\u5824\u8def)", "biz": "061209 \u8d2d\u7269\u670d\u52a1;\u4e13\u5356\u5e97;\u793c\u54c1\u9970\u54c1\u5e97", "pty": "0612"}}, {"type": "Feature", "geometry": {"type": "Point", "coordinates": [121.38830001020474, 31.18258510900678]}, "properties": {"name": "MINI\u683c\u683c", "biz": "061209 \u8d2d\u7269\u670d\u52a1;\u4e13\u5356\u5e97;\u793c\u54c1\u9970\u54c1\u5e97", "pty": "0612"}}, {"type": "Feature", "geometry": {"type": "Point", "coordinates": [121.36187991761217, 31.18301482949223]}, "properties": {"name": "\u683c\u683c\u8bed\u5c4b(\u9f99\u67cf\u5e97)", "biz": "061209 \u8d2d\u7269\u670d\u52a1;\u4e13\u5356\u5e97;\u793c\u54c1\u9970\u54c1\u5e97", "pty": "0612"}}, {"type": "Feature", "geometry": {"type": "Point", "coordinates": [121.33678879051955, 31.167183020923787]}, "properties": {"name": "\u963f\u5409\u8c46(\u51ef\u5fb7\u4e03\u5b9d\u8d2d\u7269\u5e7f\u573a)", "biz": "061209 \u8d2d\u7269\u670d\u52a1;\u4e13\u5356\u5e97;\u793c\u54c1\u9970\u54c1\u5e97", "pty": "0612"}}, {"type": "Feature", "geometry": {"type": "Point", "coordinates": [121.26639846785679, 31.242310605677446]}, "properties": {"name": "\u65b0\u9970\u754c(\u7eaa\u7fdf\u8def)", "biz": "061209 \u8d2d\u7269\u670d\u52a1;\u4e13\u5356\u5e97;\u793c\u54c1\u9970\u54c1\u5e97", "pty": "0612"}}, {"type": "Feature", "geometry": {"type": "Point", "coordinates": [121.3702042914302, 31.179232549558492]}, "properties": {"name": "M&T\u79df\u683c\u5bc4\u552e", "biz": "061209 \u8d2d\u7269\u670d\u52a1;\u4e13\u5356\u5e97;\u793c\u54c1\u9970\u54c1\u5e97", "pty": "0612"}}, {"type": "Feature", "geometry": {"type": "Point", "coordinates": [121.40517407548876, 31.106602715017313]}, "properties": {"name": "\u597d\u6765\u5c4b(\u4e0a\u6d77\u6625\u57ce\u5e97)", "biz": "061209 \u8d2d\u7269\u670d\u52a1;\u4e13\u5356\u5e97;\u793c\u54c1\u9970\u54c1\u5e97", "pty": "0612"}}, {"type": "Feature", "geometry": {"type": "Point", "coordinates": [121.34951235952009, 31.154882991342973]}, "properties": {"name": "\u5b9d\u7ed3\u7f18", "biz": "061209 \u8d2d\u7269\u670d\u52a1;\u4e13\u5356\u5e97;\u793c\u54c1\u9970\u54c1\u5e97", "pty": "0612"}}, {"type": "Feature", "geometry": {"type": "Point", "coordinates": [121.34815295964488, 31.15573481215491]}, "properties": {"name": "meetsun(\u4e03\u5b9d\u5e97)", "biz": "061209|061100 \u8d2d\u7269\u670d\u52a1;\u4e13\u5356\u5e97;\u793c\u54c1\u9970\u54c1\u5e97|\u8d2d\u7269\u670d\u52a1;\u670d\u88c5\u978b\u5e3d\u76ae\u5177\u5e97;\u670d\u88c5\u978b\u5e3d\u76ae\u5177\u5e97", "pty": "0612"}}, {"type": "Feature", "geometry": {"type": "Point", "coordinates": [121.26686601504453, 31.242043355984443]}, "properties": {"name": "\u5723\u7f57\u5170\u9970\u54c1(\u7eaa\u738b\u5e97)", "biz": "061209 \u8d2d\u7269\u670d\u52a1;\u4e13\u5356\u5e97;\u793c\u54c1\u9970\u54c1\u5e97", "pty": "0612"}}, {"type": "Feature", "geometry": {"type": "Point", "coordinates": [121.37487391500929, 31.10855736576447]}, "properties": {"name": "\u5c0f\u90b1\u9970\u54c1\u5e97", "biz": "061209 \u8d2d\u7269\u670d\u52a1;\u4e13\u5356\u5e97;\u793c\u54c1\u9970\u54c1\u5e97", "pty": "0612"}}, {"type": "Feature", "geometry": {"type": "Point", "coordinates": [121.4139814487117, 31.005955189939076]}, "properties": {"name": "\u5409\u6e90\u9970\u54c1", "biz": "061209 \u8d2d\u7269\u670d\u52a1;\u4e13\u5356\u5e97;\u793c\u54c1\u9970\u54c1\u5e97", "pty": "0612"}}, {"type": "Feature", "geometry": {"type": "Point", "coordinates": [121.41379729264199, 31.005904086947627]}, "properties": {"name": "\u5d07\u771f\u9970\u54c1", "biz": "061209 \u8d2d\u7269\u670d\u52a1;\u4e13\u5356\u5e97;\u793c\u54c1\u9970\u54c1\u5e97", "pty": "0612"}}, {"type": "Feature", "geometry": {"type": "Point", "coordinates": [121.36558600554163, 31.186142453632968]}, "properties": {"name": "\u4e0a\u6d77\u8679\u6865\u82b1\u5349\u5e02\u573aB\u533a", "biz": "061209 \u8d2d\u7269\u670d\u52a1;\u4e13\u5356\u5e97;\u793c\u54c1\u9970\u54c1\u5e97", "pty": "0612"}}, {"type": "Feature", "geometry": {"type": "Point", "coordinates": [121.52834053882549, 31.068183422339253]}, "properties": {"name": "\u5723\u7f57\u5170(\u8c08\u4e2d\u8def\u5e97)", "biz": "061209|060200 \u8d2d\u7269\u670d\u52a1;\u4e13\u5356\u5e97;\u793c\u54c1\u9970\u54c1\u5e97|\u8d2d\u7269\u670d\u52a1;\u4fbf\u6c11\u5546\u5e97/\u4fbf\u5229\u5e97;\u4fbf\u6c11\u5546\u5e97/\u4fbf\u5229\u5e97", "pty": "0612"}}, {"type": "Feature", "geometry": {"type": "Point", "coordinates": [121.26765415023469, 31.242556481226572]}, "properties": {"name": "\u9753\u4e3d\u9970\u754c(\u7eaa\u4e2d\u8def)", "biz": "061209 \u8d2d\u7269\u670d\u52a1;\u4e13\u5356\u5e97;\u793c\u54c1\u9970\u54c1\u5e97", "pty": "0612"}}, {"type": "Feature", "geometry": {"type": "Point", "coordinates": [121.54565125591375, 31.07524451366853]}, "properties": {"name": "\u5c0f\u97e9\u9970\u54c1", "biz": "061209 \u8d2d\u7269\u670d\u52a1;\u4e13\u5356\u5e97;\u793c\u54c1\u9970\u54c1\u5e97", "pty": "0612"}}, {"type": "Feature", "geometry": {"type": "Point", "coordinates": [121.43881480252196, 31.05630932938368]}, "properties": {"name": "\u54ce\u5440\u5440(\u4e09\u65b0\u8857)", "biz": "061209 \u8d2d\u7269\u670d\u52a1;\u4e13\u5356\u5e97;\u793c\u54c1\u9970\u54c1\u5e97", "pty": "0612"}}, {"type": "Feature", "geometry": {"type": "Point", "coordinates": [121.41584625725712, 31.039725846942137]}, "properties": {"name": "\u94e0\u6668\u6587\u5316\u793c\u54c1", "biz": "061209 \u8d2d\u7269\u670d\u52a1;\u4e13\u5356\u5e97;\u793c\u54c1\u9970\u54c1\u5e97", "pty": "0612"}}, {"type": "Feature", "geometry": {"type": "Point", "coordinates": [121.53150318524061, 31.021301588573305]},