{"type": "FeatureCollection", "features": [{"type": "Feature", "geometry": {"type": "Point", "coordinates": [121.38486838942173, 31.21120963548885]}, "properties": {"name": "\u6c34\u971e\u5065\u8eab\u82d1", "biz": "080108 \u4f53\u80b2\u4f11\u95f2\u670d\u52a1;\u8fd0\u52a8\u573a\u9986;\u6237\u5916\u5065\u8eab\u573a\u6240", "pty": "0801"}}, {"type": "Feature", "geometry": {"type": "Point", "coordinates": [121.41850684940214, 31.203441481179972]}, "properties": {"name": "\u4e0a\u6d77\u5e02\u957f\u5b81\u533a\u5b89\u987a\u7eff\u5730\u8fd0\u52a8\u573a", "biz": "080108 \u4f53\u80b2\u4f11\u95f2\u670d\u52a1;\u8fd0\u52a8\u573a\u9986;\u6237\u5916\u5065\u8eab\u573a\u6240", "pty": "0801"}}, {"type": "Feature", "geometry": {"type": "Point", "coordinates": [121.35115066566667, 31.207166899391318]}, "properties": {"name": "\u7eff\u5730\u96c6\u56e2\u5e02\u6c11\u5065\u8eab\u533a", "biz": "080108 \u4f53\u80b2\u4f11\u95f2\u670d\u52a1;\u8fd0\u52a8\u573a\u9986;\u6237\u5916\u5065\u8eab\u573a\u6240", "pty": "0801"}}, {"type": "Feature", "geometry": {"type": "Point", "coordinates": [121.41362027518693, 31.22342590155011]}, "properties": {"name": "\u6c47\u5ddd\u8def300\u5f04\u5065\u8eab\u70b9", "biz": "080108 \u4f53\u80b2\u4f11\u95f2\u670d\u52a1;\u8fd0\u52a8\u573a\u9986;\u6237\u5916\u5065\u8eab\u573a\u6240", "pty": "0801"}}, {"type": "Feature", "geometry": {"type": "Point", "coordinates": [121.41318041614079, 31.19453953323673]}, "properties": {"name": "\u8679\u6b23\u5065\u8eab\u70b9", "biz": "080108 \u4f53\u80b2\u4f11\u95f2\u670d\u52a1;\u8fd0\u52a8\u573a\u9986;\u6237\u5916\u5065\u8eab\u573a\u6240", "pty": "0801"}}, {"type": "Feature", "geometry": {"type": "Point", "coordinates": [121.38047294126291, 31.207411248017358]}, "properties": {"name": "\u8fde\u99a8\u82d1\u5065\u8eab", "biz": "080108 \u4f53\u80b2\u4f11\u95f2\u670d\u52a1;\u8fd0\u52a8\u573a\u9986;\u6237\u5916\u5065\u8eab\u573a\u6240", "pty": "0801"}}, {"type": "Feature", "geometry": {"type": "Point", "coordinates": [121.38673089362186, 31.204417976454952]}, "properties": {"name": "\u8679\u65e5\u5c45\u6c11\u533a\u5065\u8eab\u70b9", "biz": "080108 \u4f53\u80b2\u4f11\u95f2\u670d\u52a1;\u8fd0\u52a8\u573a\u9986;\u6237\u5916\u5065\u8eab\u573a\u6240", "pty": "0801"}}, {"type": "Feature", "geometry": {"type": "Point", "coordinates": [121.4502753813332, 31.22759663082564]}, "properties": {"name": "\u534e\u4e1a\u5c45\u59d4\u5065\u8eab\u70b9", "biz": "080108 \u4f53\u80b2\u4f11\u95f2\u670d\u52a1;\u8fd0\u52a8\u573a\u9986;\u6237\u5916\u5065\u8eab\u573a\u6240", "pty": "0801"}}, {"type": "Feature", "geometry": {"type": "Point", "coordinates": [121.461507128039, 31.252174112828705]}, "properties": {"name": "\u82b7\u6c5f\u897f\u8def\u590d\u5143\u574a\u5065\u8eab\u82d1", "biz": "080108 \u4f53\u80b2\u4f11\u95f2\u670d\u52a1;\u8fd0\u52a8\u573a\u9986;\u6237\u5916\u5065\u8eab\u573a\u6240", "pty": "0801"}}, {"type": "Feature", "geometry": {"type": "Point", "coordinates": [121.46141552928104, 31.24428141108359]}, "properties": {"name": "\u56fd\u5e86\u7eff\u5730\u5065\u8eab\u70b9", "biz": "080108 \u4f53\u80b2\u4f11\u95f2\u670d\u52a1;\u8fd0\u52a8\u573a\u9986;\u6237\u5916\u5065\u8eab\u573a\u6240", "pty": "0801"}}, {"type": "Feature", "geometry": {"type": "Point", "coordinates": [121.43059765696724, 31.278434908525306]}, "properties": {"name": "\u5e7f\u4e2d\u897f\u8def999\u5f0472\u53f7\u5065\u8eab\u70b9", "biz": "080108 \u4f53\u80b2\u4f11\u95f2\u670d\u52a1;\u8fd0\u52a8\u573a\u9986;\u6237\u5916\u5065\u8eab\u573a\u6240", "pty": "0801"}}, {"type": "Feature", "geometry": {"type": "Point", "coordinates": [121.42391480857279, 31.25931030880297]}, "properties": {"name": "\u6d1b\u514b\u516c\u56ed\u534e\u6c60\u5e97(\u5ba4\u5185\u5916\u7bee\u7403)", "biz": "080108 \u4f53\u80b2\u4f11\u95f2\u670d\u52a1;\u8fd0\u52a8\u573a\u9986;\u6237\u5916\u5065\u8eab\u573a\u6240", "pty": "0801"}}, {"type": "Feature", "geometry": {"type": "Point", "coordinates": [121.38962309320533, 31.232480476898267]}, "properties": {"name": "\u5e08\u5927\u4e09\u6750\u5065\u8eab\u70b9", "biz": "080108 \u4f53\u80b2\u4f11\u95f2\u670d\u52a1;\u8fd0\u52a8\u573a\u9986;\u6237\u5916\u5065\u8eab\u573a\u6240", "pty": "0801"}}, {"type": "Feature", "geometry": {"type": "Point", "coordinates": [121.40274042213663, 31.24238807416867]}, "properties": {"name": "\u66f9\u6768\u793e\u533a\u7ea2\u6865\u5065\u8eab\u82d1", "biz": "080108 \u4f53\u80b2\u4f11\u95f2\u670d\u52a1;\u8fd0\u52a8\u573a\u9986;\u6237\u5916\u5065\u8eab\u573a\u6240", "pty": "0801"}}, {"type": "Feature", "geometry": {"type": "Point", "coordinates": [121.43830167803613, 31.242000194576903]}, "properties": {"name": "\u4e5d\u8302\u5065\u8eab\u70b9", "biz": "080108 \u4f53\u80b2\u4f11\u95f2\u670d\u52a1;\u8fd0\u52a8\u573a\u9986;\u6237\u5916\u5065\u8eab\u573a\u6240", "pty": "0801"}}, {"type": "Feature", "geometry": {"type": "Point", "coordinates": [121.4818644881718, 31.272340428953473]}, "properties": {"name": "\u5efa\u8bbe\u5c0f\u533a\u5065\u8eab\u70b9", "biz": "080108 \u4f53\u80b2\u4f11\u95f2\u670d\u52a1;\u8fd0\u52a8\u573a\u9986;\u6237\u5916\u5065\u8eab\u573a\u6240", "pty": "0801"}}, {"type": "Feature", "geometry": {"type": "Point", "coordinates": [121.48444299177157, 31.26725916156571]}, "properties": {"name": "\u5409\u7965\u5c45\u59d4\u65b0\u6587\u82d1\u5065\u8eab\u70b9", "biz": "080108 \u4f53\u80b2\u4f11\u95f2\u670d\u52a1;\u8fd0\u52a8\u573a\u9986;\u6237\u5916\u5065\u8eab\u573a\u6240", "pty": "0801"}}, {"type": "Feature", "geometry": {"type": "Point", "coordinates": [121.48262723008384, 31.27154599703157]}, "properties": {"name": "\u7eff\u7f18\u5c0f\u533a\u5065\u8eab\u70b9", "biz": "080108 \u4f53\u80b2\u4f11\u95f2\u670d\u52a1;\u8fd0\u52a8\u573a\u9986;\u6237\u5916\u5065\u8eab\u573a\u6240", "pty": "0801"}}, {"type": "Feature", "geometry": {"type": "Point", "coordinates": [121.54195010195595, 31.32207918535021]}, "properties": {"name": "\u4e0a\u6d77\u68ee\u6797\u5f69\u5f39\u5c04\u51fb\u8fd0\u52a8\u573a", "biz": "080108 \u4f53\u80b2\u4f11\u95f2\u670d\u52a1;\u8fd0\u52a8\u573a\u9986;\u6237\u5916\u5065\u8eab\u573a\u6240", "pty": "0801"}}, {"type": "Feature", "geometry": {"type": "Point", "coordinates": [121.52710507247102, 31.31457748553021]}, "properties": {"name": "\u957f\u6d77\u5e7f\u573a\u5065\u8eab\u82d1", "biz": "080108 \u4f53\u80b2\u4f11\u95f2\u670d\u52a1;\u8fd0\u52a8\u573a\u9986;\u6237\u5916\u5065\u8eab\u573a\u6240", "pty": "0801"}}, {"type": "Feature", "geometry": {"type": "Point", "coordinates": [121.53744918970942, 31.31568151364898]}, "properties": {"name": "\u6c11\u661f\u4e00\u6751\u7b2c\u4e00\u5c45\u59d4\u5065\u8eab\u70b9", "biz": "130106|080108 \u653f\u5e9c\u673a\u6784\u53ca\u793e\u4f1a\u56e2\u4f53;\u653f\u5e9c\u673a\u5173;\u4e61\u9547\u4ee5\u4e0b\u7ea7\u653f\u5e9c\u53ca\u4e8b\u4e1a\u5355\u4f4d|\u4f53\u80b2\u4f11\u95f2\u670d\u52a1;\u8fd0\u52a8\u573a\u9986;\u6237\u5916\u5065\u8eab\u573a\u6240", "pty": "1301"}}, {"type": "Feature", "geometry": {"type": "Point", "coordinates": [121.47010199549484, 31.044423457708287]}, "properties": {"name": "\u4e0a\u6d77\u65b0\u5bb6\u5065\u8eab\u82d1", "biz": "080108 \u4f53\u80b2\u4f11\u95f2\u670d\u52a1;\u8fd0\u52a8\u573a\u9986;\u6237\u5916\u5065\u8eab\u573a\u6240", "pty": "0801"}}, {"type": "Feature", "geometry": {"type": "Point", "coordinates": [121.40167282406419, 31.154318073232112]}, "properties": {"name": "\u53e4\u7f8e\u8def\u8857\u9053\u793e\u533a\u516c\u5171\u8fd0\u52a8\u573a", "biz": "080108 \u4f53\u80b2\u4f11\u95f2\u670d\u52a1;\u8fd0\u52a8\u573a\u9986;\u6237\u5916\u5065\u8eab\u573a\u6240", "pty": "0801"}}, {"type": "Feature", "geometry": {"type": "Point", "coordinates": [121.36716255058974, 31.14248313368929]}, "properties": {"name": "\u95f5\u884c\u533a\u5168\u6c11\u5065\u8eab\u6d3b\u52a8\u4e2d\u5fc3", "biz": "080108 \u4f53\u80b2\u4f11\u95f2\u670d\u52a1;\u8fd0\u52a8\u573a\u9986;\u6237\u5916\u5065\u8eab\u573a\u6240", "pty": "0801"}}, {"type": "Feature", "geometry": {"type": "Point", "coordinates": [121.52580860952033, 31.10315611470086]}, "properties": {"name": "\u52e4\u52b3\u6751\u5065\u8eab\u56ed\u5730", "biz": "080108 \u4f53\u80b2\u4f11\u95f2\u670d\u52a1;\u8fd0\u52a8\u573a\u9986;\u6237\u5916\u5065\u8eab\u573a\u6240", "pty": "0801"}}, {"type": "Feature", "geometry": {"type": "Point", "coordinates": [121.39348978931804, 31.153804394141943]}, "properties": {"name": "\u53e4\u9f99\u4e94\u5c45\u5065\u8eab\u70b9", "biz": "080108 \u4f53\u80b2\u4f11\u95f2\u670d\u52a1;\u8fd0\u52a8\u573a\u9986;\u6237\u5916\u5065\u8eab\u573a\u6240", "pty": "0801"}}, {"type": "Feature", "geometry": {"type": "Point", "coordinates": [121.34640232068514, 31.330274369458298]}, "properties": {"name": "\u9648\u5bb6\u884c\u4f11\u95f2\u5065\u8eab\u5e7f\u573a", "biz": "080108 \u4f53\u80b2\u4f11\u95f2\u670d\u52a1;\u8fd0\u52a8\u573a\u9986;\u6237\u5916\u5065\u8eab\u573a\u6240", "pty": "0801"}}, {"type": "Feature", "geometry": {"type": "Point", "coordinates": [121.48113549835733, 31.230624826931027]}, "properties": {"name": "\u91d1\u9675\u5065\u8eab\u82d1", "biz": "080108 \u4f53\u80b2\u4f11\u95f2\u670d\u52a1;\u8fd0\u52a8\u573a\u9986;\u6237\u5916\u5065\u8eab\u573a\u6240", "pty": "0801"}}, {"type": "Feature", "geometry": {"type": "Point", "coordinates": [121.46508814814436, 31.240863433035635]}, "properties": {"name": "\u798f\u6d77\u5065\u8eab\u70b9", "biz": "080108 \u4f53\u80b2\u4f11\u95f2\u670d\u52a1;\u8fd0\u52a8\u573a\u9986;\u6237\u5916\u5065\u8eab\u573a\u6240", "pty": "0801"}}, {"type": "Feature", "geometry": {"type": "Point", "coordinates": [121.47641648366927, 31.23918329117108]}, "properties": {"name": "\u6d66\u4e1c\u6237\u5916\u4ff1\u4e50\u90e8", "biz": "080108 \u4f53\u80b2\u4f11\u95f2\u670d\u52a1;\u8fd0\u52a8\u573a\u9986;\u6237\u5916\u5065\u8eab\u573a\u6240", "pty": "0801"}}, {"type": "Feature", "geometry": {"type": "Point", "coordinates": [121.49101096325298, 31.21357907012147]}, "properties": {"name": "\u666e\u76ca\u5fbd\u5b81\u8def\u7eff\u5730\u5065\u8eab\u70b9", "biz": "080108 \u4f53\u80b2\u4f11\u95f2\u670d\u52a1;\u8fd0\u52a8\u573a\u9986;\u6237\u5916\u5065\u8eab\u573a\u6240", "pty": "0801"}}, {"type": "Feature", "geometry": {"type": "Point", "coordinates": [121.4097136405613, 31.150809767708783]}, "properties": {"name": "\u5eb7\u5065\u6587\u5316\u5e7f\u573a\u5065\u8eab\u82d1", "biz": "080108 \u4f53\u80b2\u4f11\u95f2\u670d\u52a1;\u8fd0\u52a8\u573a\u9986;\u6237\u5916\u5065\u8eab\u573a\u6240", "pty": "0801"}}, {"type": "Feature", "geometry": {"type": "Point", "coordinates": [121.4375471028071, 31.195757786442265]}, "properties": {"name": "\u79d1\u6c47\u5c0f\u533a\u5065\u8eab\u82d1", "biz": "080108 \u4f53\u80b2\u4f11\u95f2\u670d\u52a1;\u8fd0\u52a8\u573a\u9986;\u6237\u5916\u5065\u8eab\u573a\u6240", "pty": "0801"}}, {"type": "Feature", "geometry": {"type": "Point", "coordinates": [121.43150336105612, 31.173484216282063]}, "properties": {"name": "\u6f15\u6eaa\u516c\u56ed-\u5065\u8eab\u82d1", "biz": "080108 \u4f53\u80b2\u4f11\u95f2\u670d\u52a1;\u8fd0\u52a8\u573a\u9986;\u6237\u5916\u5065\u8eab\u573a\u6240", "pty": "0801"}}, {"type": "Feature", "geometry": {"type": "Point", "coordinates": [121.43583660756616, 31.184371546777243]}, "properties": {"name": "\u4e1c\u4e9a\u4f53\u80b2\u6587\u5316\u4e2d\u5fc3\u5065\u8eab\u82d1\u7b2c\u4e8c\u5065\u8eab\u533a", "biz": "080108 \u4f53\u80b2\u4f11\u95f2\u670d\u52a1;\u8fd0\u52a8\u573a\u9986;\u6237\u5916\u5065\u8eab\u573a\u6240", "pty": "0801"}}, {"type": "Feature", "geometry": {"type": "Point", "coordinates": [121.25583546901845, 31.399341707136664]}, "properties": {"name": "\u83ca\u56ed\u793e\u533a\u5065\u8eab\u623f", "biz": "080108 \u4f53\u80b2\u4f11\u95f2\u670d\u52a1;\u8fd0\u52a8\u573a\u9986;\u6237\u5916\u5065\u8eab\u573a\u6240", "pty": "0801"}}, {"type": "Feature", "geometry": {"type": "Point", "coordinates": [121.31785882039951, 31.338134751951927]}, "properties": {"name": "\u5317\u7ba1\u6751\u4f11\u95f2\u5065\u8eab\u6d3b\u52a8\u4e2d\u5fc3", "biz": "080108 \u4f53\u80b2\u4f11\u95f2\u670d\u52a1;\u8fd0\u52a8\u573a\u9986;\u6237\u5916\u5065\u8eab\u573a\u6240", "pty": "0801"}}, {"type": "Feature", "geometry": {"type": "Point", "coordinates": [121.23756184969805, 31.38555075453878]}, "properties": {"name": "\u5609\u5b9a\u9547\u8857\u9053\u793e\u533a\u4f53\u80b2\u5065\u8eab\u4ff1\u4e50\u90e8\u5065\u8eab\u70b9", "biz": "080108 \u4f53\u80b2\u4f11\u95f2\u670d\u52a1;\u8fd0\u52a8\u573a\u9986;\u6237\u5916\u5065\u8eab\u573a\u6240", "pty": "0801"}}, {"type": "Feature", "geometry": {"type": "Point", "coordinates": [121.48125577547145, 31.17357602139812]}, "properties": {"name": "\u4e0a\u94a2\u4e5d\u6751\u5065\u8eab\u70b9", "biz": "080108 \u4f53\u80b2\u4f11\u95f2\u670d\u52a1;\u8fd0\u52a8\u573a\u9986;\u6237\u5916\u5065\u8eab\u573a\u6240", "pty": "0801"}}, {"type": "Feature", "geometry": {"type": "Point", "coordinates": [121.47744064970534, 31.172775404254903]}, "properties": {"name": "\u6d4e\u9633\u4e8c\u6751\u5065\u8eab\u70b9", "biz": "080108 \u4f53\u80b2\u4f11\u95f2\u670d\u52a1;\u8fd0\u52a8\u573a\u9986;\u6237\u5916\u5065\u8eab\u573a\u6240", "pty": "0801"}}, {"type": "Feature", "geometry": {"type": "Point", "coordinates": [121.47766860384709, 31.170748095980606]}, "properties": {"name": "\u6d4e\u4e2d\u5065\u8eab\u70b9", "biz": "080108 \u4f53\u80b2\u4f11\u95f2\u670d\u52a1;\u8fd0\u52a8\u573a\u9986;\u6237\u5916\u5065\u8eab\u573a\u6240", "pty": "0801"}}, {"type": "Feature", "geometry": {"type": "Point", "coordinates": [121.49703375397834, 31.176651358380365]}, "properties": {"name": "\u660c\u91cc\u8def98\u5f04\u5065\u8eab\u70b9", "biz": "080108 \u4f53\u80b2\u4f11\u95f2\u670d\u52a1;\u8fd0\u52a8\u573a\u9986;\u6237\u5916\u5065\u8eab\u573a\u6240", "pty": "0801"}}, {"type": "Feature", "geometry": {"type": "Point", "coordinates": [121.74545945647002, 31.040566194073]}, "properties": {"name": "\u5de2\u6237\u5916\u4ff1\u4e50\u90e8", "biz": "080108 \u4f53\u80b2\u4f11\u95f2\u670d\u52a1;\u8fd0\u52a8\u573a\u9986;\u6237\u5916\u5065\u8eab\u573a\u6240", "pty": "0801"}}, {"type": "Feature", "geometry": {"type": "Point", "coordinates": [121.89708227695789, 30.955933144806878]}, "properties": {"name": "\u4ead\u56ed\u5065\u8eab\u5e7f\u573a", "biz": "080108 \u4f53\u80b2\u4f11\u95f2\u670d\u52a1;\u8fd0\u52a8\u573a\u9986;\u6237\u5916\u5065\u8eab\u573a\u6240", "pty": "0801"}}, {"type": "Feature", "geometry": {"type": "Point", "coordinates": [121.50468689540911, 31.19250823159947]}, "properties": {"name": "\u6e2f\u673a\u5065\u8eab\u82d1", "biz": "080108 \u4f53\u80b2\u4f11\u95f2\u670d\u52a1;\u8fd0\u52a8\u573a\u9986;\u6237\u5916\u5065\u8eab\u573a\u6240", "pty": "0801"}}, {"type": "Feature", "geometry": {"type": "Point", "coordinates": [121.72134054347937, 31.06595189761998]}, "properties": {"name": "\u5149\u8f89\u6751\u5065\u8eab\u5e7f\u573a", "biz": "080108 \u4f53\u80b2\u4f11\u95f2\u670d\u52a1;\u8fd0\u52a8\u573a\u9986;\u6237\u5916\u5065\u8eab\u573a\u6240", "pty": "0801"}}, {"type": "Feature", "geometry": {"type": "Point", "coordinates": [121.56103588081908, 31.150153131320263]}, "properties": {"name": "\u5eb7\u6865\u9547\u6c47\u5eb7\u56ed\u5065\u8eab\u70b9", "biz": "080108 \u4f53\u80b2\u4f11\u95f2\u670d\u52a1;\u8fd0\u52a8\u573a\u9986;\u6237\u5916\u5065\u8eab\u573a\u6240", "pty": "0801"}}, {"type": "Feature", "geometry": {"type": "Point", "coordinates": [121.75286263365953, 31.187286789639444]}, "properties": {"name": "\u795d\u6865\u9547\u4ead\u4e1c\u6751\u5065\u8eab\u70b9", "biz": "080108 \u4f53\u80b2\u4f11\u95f2\u670d\u52a1;\u8fd0\u52a8\u573a\u9986;\u6237\u5916\u5065\u8eab\u573a\u6240", "pty": "0801"}}, {"type": "Feature", "geometry": {"type": "Point", "coordinates": [121.07444712156213, 30.870736815026998]}, "properties": {"name": "\u67ab\u6cfe\u9547\u5174\u5854\u793e\u533a\u5065\u8eab\u82d1", "biz": "080108 \u4f53\u80b2\u4f11\u95f2\u670d\u52a1;\u8fd0\u52a8\u573a\u9986;\u6237\u5916\u5065\u8eab\u573a\u6240", "pty": "0801"}}, {"type": "Feature", "geometry": {"type": "Point", "coordinates": [121.1942830039341, 30.89209310839249]}, "properties": {"name": "\u6731\u6cfe\u9547\u7261\u4e39\u6751\u5065\u8eab\u70b9", "biz": "080108 \u4f53\u80b2\u4f11\u95f2\u670d\u52a1;\u8fd0\u52a8\u573a\u9986;\u6237\u5916\u5065\u8eab\u573a\u6240", "pty": "0801"}}, {"type": "Feature", "geometry": {"type": "Point", "coordinates": [121.23331737396853, 30.841644637355564]}, "properties": {"name": "\u4e0a\u6d77\u9a8f\u9a6c\u56ed", "biz": "080108 \u4f53\u80b2\u4f11\u95f2\u670d\u52a1;\u8fd0\u52a8\u573a\u9986;\u6237\u5916\u5065\u8eab\u573a\u6240", "pty": "0801"}}, {"type": "Feature", "geometry": {"type": "Point", "coordinates": [121.1850655100418, 30.983562443536197]}, "properties": {"name": "\u4e1c\u6e2f\u6751\u65b0\u6c47\u5065\u8eab\u70b9", "biz": "080108 \u4f53\u80b2\u4f11\u95f2\u670d\u52a1;\u8fd0\u52a8\u573a\u9986;\u6237\u5916\u5065\u8eab\u573a\u6240", "pty": "0801"}}, {"type": "Feature", "geometry": {"type": "Point", "coordinates": [121.23337573840297, 31.02861586162041]}, "properties": {"name": "\u65b9\u677e\u8857\u9053\u7965\u548c\u5c0f\u533a\u5065\u8eab\u70b9", "biz": "080108 \u4f53\u80b2\u4f11\u95f2\u670d\u52a1;\u8fd0\u52a8\u573a\u9986;\u6237\u5916\u5065\u8eab\u573a\u6240", "pty": "0801"}}, {"type": "Feature", "geometry": {"type": "Point", "coordinates": [121.1738895260567, 30.98308036798469]}, "properties": {"name": "\u77f3\u6e56\u8361\u9547\u4e1c\u6e2f\u6751\u5317\u524d\u5065\u8eab\u70b9", "biz": "080108 \u4f53\u80b2\u4f11\u95f2\u670d\u52a1;\u8fd0\u52a8\u573a\u9986;\u6237\u5916\u5065\u8eab\u573a\u6240", "pty": "0801"}}, {"type": "Feature", "geometry": {"type": "Point", "coordinates": [121.17597516532304, 30.966031350494877]}, "properties": {"name": "\u91d1\u80dc\u6751\u95f8\u4e1c\u6d3b\u52a8\u5e7f\u573a\u5065\u8eab\u70b9", "biz": "080108 \u4f53\u80b2\u4f11\u95f2\u670d\u52a1;\u8fd0\u52a8\u573a\u9986;\u6237\u5916\u5065\u8eab\u573a\u6240", "pty": "0801"}}, {"type": "Feature", "geometry": {"type": "Point", "coordinates": [121.00201373439211, 31.103629881858648]}, "properties": {"name": "\u8da3\u6865\u4e16\u754c", "biz": "080108 \u4f53\u80b2\u4f11\u95f2\u670d\u52a1;\u8fd0\u52a8\u573a\u9986;\u6237\u5916\u5065\u8eab\u573a\u6240", "pty": "0801"}}, {"type": "Feature", "geometry": {"type": "Point", "coordinates": [121.06808662111173, 30.975852247890995]}, "properties": {"name": "\u7ec3\u5858\u9547\u9547\u6d66\u6751\u5065\u8eab\u70b9", "biz": "080108 \u4f53\u80b2\u4f11\u95f2\u670d\u52a1;\u8fd0\u52a8\u573a\u9986;\u6237\u5916\u5065\u8eab\u573a\u6240", "pty": "0801"}}, {"type": "Feature", "geometry": {"type": "Point", "coordinates": [121.18398913752098, 31.199754698111303]}, "properties": {"name": "\u91cd\u56fa\u9547\u798f\u6cc9\u5c45\u59d4\u5065\u8eab\u70b9", "biz": "080108 \u4f53\u80b2\u4f11\u95f2\u670d\u52a1;\u8fd0\u52a8\u573a\u9986;\u6237\u5916\u5065\u8eab\u573a\u6240", "pty": "0801"}}, {"type": "Feature", "geometry": {"type": "Point", "coordinates": [120.93881089437927, 31.061118169871996]}, "properties": {"name": "\u51fb\u6c34\u76ae\u5212\u8247\u4ff1\u4e50\u90e8", "biz": "080108 \u4f53\u80b2\u4f11\u95f2\u670d\u52a1;\u8fd0\u52a8\u573a\u9986;\u6237\u5916\u5065\u8eab\u573a\u6240", "pty": "0801"}}, {"type": "Feature", "geometry": {"type": "Point", "coordinates": [121.65666212559631, 30.92090518647706]}, "properties": {"name": "\u4e1c\u95e8\u6751\u5065\u8eab\u6d3b\u52a8\u4e2d\u5fc3", "biz": "080108 \u4f53\u80b2\u4f11\u95f2\u670d\u52a1;\u8fd0\u52a8\u573a\u9986;\u6237\u5916\u5065\u8eab\u573a\u6240", "pty": "0801"}}, {"type": "Feature", "geometry": {"type": "Point", "coordinates": [121.48631429509007, 31.679061231886124]}, "properties": {"name": "\u98ce\u4f1f\u5065\u8eab\u82d1", "biz": "080108 \u4f53\u80b2\u4f11\u95f2\u670d\u52a1;\u8fd0\u52a8\u573a\u9986;\u6237\u5916\u5065\u8eab\u573a\u6240", "pty": "0801"}}, {"type": "Feature", "geometry": {"type": "Point", "coordinates": [121.50526206888895, 31.72027789168725]}, "properties": {"name": "\u524d\u536b\u6751\u5065\u8eab\u70b9", "biz": "080108 \u4f53\u80b2\u4f11\u95f2\u670d\u52a1;\u8fd0\u52a8\u573a\u9986;\u6237\u5916\u5065\u8eab\u573a\u6240", "pty": "0801"}}, {"type": "Feature", "geometry": {"type": "Point", "coordinates": [121.39166238526573, 31.619506507665676]}, "properties": {"name": "\u57ce\u6865\u9547\u5d07\u5b89\u8def\u5065\u8eab\u70b9", "biz": "080108 \u4f53\u80b2\u4f11\u95f2\u670d\u52a1;\u8fd0\u52a8\u573a\u9986;\u6237\u5916\u5065\u8eab\u573a\u6240", "pty": "0801"}}, {"type": "Feature", "geometry": {"type": "Point", "coordinates": [121.45681593940868, 31.670716089960028]}, "properties": {"name": "\u5efa\u8bbe\u9547\u8679\u6865\u6751\u5065\u8eab\u70b9", "biz": "080108 \u4f53\u80b2\u4f11\u95f2\u670d\u52a1;\u8fd0\u52a8\u573a\u9986;\u6237\u5916\u5065\u8eab\u573a\u6240", "pty": "0801"}}, {"type": "Feature", "geometry": {"type": "Point", "coordinates": [121.46554135439817, 31.68262874129364]}, "properties": {"name": "\u8679\u6865\u6751\u4f11\u95f2\u5065\u8eab\u5e7f\u573a", "biz": "080108 \u4f53\u80b2\u4f11\u95f2\u670d\u52a1;\u8fd0\u52a8\u573a\u9986;\u6237\u5916\u5065\u8eab\u573a\u6240", "pty": "0801"}}, {"type": "Feature", "geometry": {"type": "Point", "coordinates": [121.50695107356401, 31.720723916407493]}, "properties": {"name": "\u7ad6\u65b0\u9547\u524d\u536b\u6751\u5065\u8eab\u70b9", "biz": "080108 \u4f53\u80b2\u4f11\u95f2\u670d\u52a1;\u8fd0\u52a8\u573a\u9986;\u6237\u5916\u5065\u8eab\u573a\u6240", "pty": "0801"}}, {"type": "Feature", "geometry": {"type": "Point", "coordinates": [121.53852704546601, 31.580017902113678]}, "properties": {"name": "\u77f3\u8def\u6751\u4f11\u95f2\u5e7f\u573a", "biz": "080108 \u4f53\u80b2\u4f11\u95f2\u670d\u52a1;\u8fd0\u52a8\u573a\u9986;\u6237\u5916\u5065\u8eab\u573a\u6240", "pty": "0801"}}, {"type": "Feature", "geometry": {"type": "Point", "coordinates": [121.53744918970942, 31.31568151364898]}, "properties": {"name": "\u6c11\u661f\u4e00\u6751\u7b2c\u4e00\u5c45\u59d4\u5065\u8eab\u70b9", "biz": "130106|080108 \u653f\u5e9c\u673a\u6784\u53ca\u793e\u4f1a\u56e2\u4f53;\u653f\u5e9c\u673a\u5173;\u4e61\u9547\u4ee5\u4e0b\u7ea7\u653f\u5e9c\u53ca\u4e8b\u4e1a\u5355\u4f4d|\u4f53\u80b2\u4f11\u95f2\u670d\u52a1;\u8fd0\u52a8\u573a\u9986;\u6237\u5916\u5065\u8eab\u573a\u6240", "pty": "1301"}}]}