{"type": "FeatureCollection", "features": [{"type": "Feature", "geometry": {"type": "Point", "coordinates": [121.30445851301042, 31.233923205541057]}, "properties": {"name": "\u54c7\u5494\u661f\u7403(\u7231\u7279\u5e97)", "biz": "080105|110101 \u4f53\u80b2\u4f11\u95f2\u670d\u52a1;\u8fd0\u52a8\u573a\u9986;\u8db3\u7403\u573a|\u98ce\u666f\u540d\u80dc;\u516c\u56ed\u5e7f\u573a;\u516c\u56ed", "pty": "0801"}}, {"type": "Feature", "geometry": {"type": "Point", "coordinates": [121.47346349581161, 31.157306136399708]}, "properties": {"name": "\u4e0a\u6d77\u4e1c\u65b9\u4f53\u80b2\u4e2d\u5fc3\u6e38\u6cf3\u9986", "biz": "080110|110000 \u4f53\u80b2\u4f11\u95f2\u670d\u52a1;\u8fd0\u52a8\u573a\u9986;\u6e38\u6cf3\u9986|\u98ce\u666f\u540d\u80dc;\u98ce\u666f\u540d\u80dc\u76f8\u5173;\u65c5\u6e38\u666f\u70b9", "pty": "0801"}}, {"type": "Feature", "geometry": {"type": "Point", "coordinates": [121.50956994118008, 31.24337344899345]}, "properties": {"name": "\u5965\u7f18\u4f53\u80b2\u516c\u56ed", "biz": "080111|110101 \u4f53\u80b2\u4f11\u95f2\u670d\u52a1;\u8fd0\u52a8\u573a\u9986;\u5065\u8eab\u4e2d\u5fc3|\u98ce\u666f\u540d\u80dc;\u516c\u56ed\u5e7f\u573a;\u516c\u56ed", "pty": "0801"}}, {"type": "Feature", "geometry": {"type": "Point", "coordinates": [121.38848026884926, 31.190150245186494]}, "properties": {"name": "Crossfit Bodyin Motion", "biz": "080111|050500 \u4f53\u80b2\u4f11\u95f2\u670d\u52a1;\u8fd0\u52a8\u573a\u9986;\u5065\u8eab\u4e2d\u5fc3|\u9910\u996e\u670d\u52a1;\u5496\u5561\u5385;\u5496\u5561\u5385", "pty": "0801"}}, {"type": "Feature", "geometry": {"type": "Point", "coordinates": [121.55409735587159, 31.205426130771198]}, "properties": {"name": "\u9879\u8bb0\u6f6e\u6c55\u725b\u8089\u706b\u9505(\u9f99\u9633\u8def\u5e97)", "biz": "050117|050119|080113 \u9910\u996e\u670d\u52a1;\u4e2d\u9910\u5385;\u706b\u9505\u5e97|\u9910\u996e\u670d\u52a1;\u4e2d\u9910\u5385;\u6d77\u9c9c\u9152\u697c|\u4f53\u80b2\u4f11\u95f2\u670d\u52a1;\u8fd0\u52a8\u573a\u9986;\u53f0\u7403\u5385", "pty": "0501"}}, {"type": "Feature", "geometry": {"type": "Point", "coordinates": [121.48015926239404, 31.228716875468354]}, "properties": {"name": "\u9f99\u683c\u4eb2\u5b50\u6e38\u6cf3\u4ff1\u4e50\u90e8(\u9732\u9999\u56ed\u5e97)", "biz": "072001|080110 \u751f\u6d3b\u670d\u52a1;\u5a74\u513f\u670d\u52a1\u573a\u6240;\u5a74\u513f\u6e38\u6cf3\u9986|\u4f53\u80b2\u4f11\u95f2\u670d\u52a1;\u8fd0\u52a8\u573a\u9986;\u6e38\u6cf3\u9986", "pty": "0720"}}, {"type": "Feature", "geometry": {"type": "Point", "coordinates": [121.4595221262639, 31.206234481411347]}, "properties": {"name": "\u5362\u6e7e\u4f53\u80b2\u9986", "biz": "080101 \u4f53\u80b2\u4f11\u95f2\u670d\u52a1;\u8fd0\u52a8\u573a\u9986;\u7efc\u5408\u4f53\u80b2\u9986", "pty": "0801"}}, {"type": "Feature", "geometry": {"type": "Point", "coordinates": [121.45943379220569, 31.207075854536377]}, "properties": {"name": "\u5362\u6e7e\u4f53\u80b2\u573a", "biz": "080101 \u4f53\u80b2\u4f11\u95f2\u670d\u52a1;\u8fd0\u52a8\u573a\u9986;\u7efc\u5408\u4f53\u80b2\u9986", "pty": "0801"}}, {"type": "Feature", "geometry": {"type": "Point", "coordinates": [121.47559222489306, 31.23280587441118]}, "properties": {"name": "\u683c\u81f4\u4f53\u80b2\u6d3b\u52a8\u4e2d\u5fc3", "biz": "080101 \u4f53\u80b2\u4f11\u95f2\u670d\u52a1;\u8fd0\u52a8\u573a\u9986;\u7efc\u5408\u4f53\u80b2\u9986", "pty": "0801"}}, {"type": "Feature", "geometry": {"type": "Point", "coordinates": [121.478047227651, 31.20215345053883]}, "properties": {"name": "\u5362\u5de5\u4f53\u80b2\u573a", "biz": "080101 \u4f53\u80b2\u4f11\u95f2\u670d\u52a1;\u8fd0\u52a8\u573a\u9986;\u7efc\u5408\u4f53\u80b2\u9986", "pty": "0801"}}, {"type": "Feature", "geometry": {"type": "Point", "coordinates": [121.45972647606675, 31.209222543820918]}, "properties": {"name": "\u4e0a\u6d77\u5e02\u5362\u6e7e\u4f53\u80b2\u4e2d\u5fc3", "biz": "080101 \u4f53\u80b2\u4f11\u95f2\u670d\u52a1;\u8fd0\u52a8\u573a\u9986;\u7efc\u5408\u4f53\u80b2\u9986", "pty": "0801"}}, {"type": "Feature", "geometry": {"type": "Point", "coordinates": [121.4782859314172, 31.215256809081726]}, "properties": {"name": "\u4e0a\u6d77\u5e02\u9ec4\u6d66\u5b66\u6821\u4e2d\u5fc3\u8bad\u7ec3\u9986", "biz": "080101 \u4f53\u80b2\u4f11\u95f2\u670d\u52a1;\u8fd0\u52a8\u573a\u9986;\u7efc\u5408\u4f53\u80b2\u9986", "pty": "0801"}}, {"type": "Feature", "geometry": {"type": "Point", "coordinates": [121.49939348217154, 31.20940818576944]}, "properties": {"name": "\u4e0a\u6d77\u603b\u5de5\u4f1a\u9ec4\u6d66\u533a\u5de5\u4eba\u4f53\u80b2\u9986\u7efc\u5408\u697c", "biz": "080101 \u4f53\u80b2\u4f11\u95f2\u670d\u52a1;\u8fd0\u52a8\u573a\u9986;\u7efc\u5408\u4f53\u80b2\u9986", "pty": "0801"}}, {"type": "Feature", "geometry": {"type": "Point", "coordinates": [121.46838889207287, 31.214794375038775]}, "properties": {"name": "\u4e0a\u6d77\u4ea4\u901a\u5927\u5b66\u533b\u5b66\u9662\u4f53\u80b2\u9986", "biz": "080101 \u4f53\u80b2\u4f11\u95f2\u670d\u52a1;\u8fd0\u52a8\u573a\u9986;\u7efc\u5408\u4f53\u80b2\u9986", "pty": "0801"}}, {"type": "Feature", "geometry": {"type": "Point", "coordinates": [121.47936171290463, 31.23790632728403]}, "properties": {"name": "\u4e0a\u6d77\u5e02\u9ec4\u6d66\u4f53\u80b2\u9986", "biz": "080101 \u4f53\u80b2\u4f11\u95f2\u670d\u52a1;\u8fd0\u52a8\u573a\u9986;\u7efc\u5408\u4f53\u80b2\u9986", "pty": "0801"}}, {"type": "Feature", "geometry": {"type": "Point", "coordinates": [121.49770021730211, 31.211398157246048]}, "properties": {"name": "\u5c0f\u4e1c\u95e8\u793e\u533a\u516c\u5171\u4f53\u80b2\u4e2d\u5fc3", "biz": "080101 \u4f53\u80b2\u4f11\u95f2\u670d\u52a1;\u8fd0\u52a8\u573a\u9986;\u7efc\u5408\u4f53\u80b2\u9986", "pty": "0801"}}, {"type": "Feature", "geometry": {"type": "Point", "coordinates": [121.4816660763277, 31.233852881883134]}, "properties": {"name": "\u57ce\u5e02\u8fd0\u52a8\u9986", "biz": "080101 \u4f53\u80b2\u4f11\u95f2\u670d\u52a1;\u8fd0\u52a8\u573a\u9986;\u7efc\u5408\u4f53\u80b2\u9986", "pty": "0801"}}, {"type": "Feature", "geometry": {"type": "Point", "coordinates": [121.49922383848364, 31.20980048895375]}, "properties": {"name": "\u4e0a\u6d77\u5e02\u603b\u5de5\u4f1a\u9ec4\u6d66\u533a\u5de5\u4eba\u4f53\u80b2\u9986", "biz": "080101 \u4f53\u80b2\u4f11\u95f2\u670d\u52a1;\u8fd0\u52a8\u573a\u9986;\u7efc\u5408\u4f53\u80b2\u9986", "pty": "0801"}}, {"type": "Feature", "geometry": {"type": "Point", "coordinates": [121.49515760213134, 31.22859439817563]}, "properties": {"name": "\u5916\u6ee9\u4fdd\u9f84\u7403\u9986", "biz": "080102 \u4f53\u80b2\u4f11\u95f2\u670d\u52a1;\u8fd0\u52a8\u573a\u9986;\u4fdd\u9f84\u7403\u9986", "pty": "0801"}}, {"type": "Feature", "geometry": {"type": "Point", "coordinates": [121.49915152797988, 31.210394986113094]}, "properties": {"name": "\u4e0a\u6d77\u603b\u5de5\u4f1a\u9ec4\u6d66\u533a\u5de5\u4eba\u4f53\u80b2\u9986\u4fdd\u9f84\u7403\u9986", "biz": "080102 \u4f53\u80b2\u4f11\u95f2\u670d\u52a1;\u8fd0\u52a8\u573a\u9986;\u4fdd\u9f84\u7403\u9986", "pty": "0801"}}, {"type": "Feature", "geometry": {"type": "Point", "coordinates": [121.46011888890642, 31.20637989692864]}, "properties": {"name": "\u5362\u6e7e\u7f51\u7403\u4e2d\u5fc3", "biz": "080103 \u4f53\u80b2\u4f11\u95f2\u670d\u52a1;\u8fd0\u52a8\u573a\u9986;\u7f51\u7403\u573a", "pty": "0801"}}, {"type": "Feature", "geometry": {"type": "Point", "coordinates": [121.4859384485755, 31.206608329756545]}, "properties": {"name": "KOME\u7f51\u7403\u4ff1\u4e50\u90e8", "biz": "080103 \u4f53\u80b2\u4f11\u95f2\u670d\u52a1;\u8fd0\u52a8\u573a\u9986;\u7f51\u7403\u573a", "pty": "0801"}}, {"type": "Feature", "geometry": {"type": "Point", "coordinates": [121.48582503545161, 31.206735932255654]}, "properties": {"name": "\u4e0a\u6d77\u5feb\u7f51\u7f51\u7403\u4ff1\u4e50\u90e8", "biz": "080103 \u4f53\u80b2\u4f11\u95f2\u670d\u52a1;\u8fd0\u52a8\u573a\u9986;\u7f51\u7403\u573a", "pty": "0801"}}, {"type": "Feature", "geometry": {"type": "Point", "coordinates": [121.47053783440961, 31.215406933221143]}, "properties": {"name": "\u7f51\u7403\u573a", "biz": "080103 \u4f53\u80b2\u4f11\u95f2\u670d\u52a1;\u8fd0\u52a8\u573a\u9986;\u7f51\u7403\u573a", "pty": "0801"}}, {"type": "Feature", "geometry": {"type": "Point", "coordinates": [121.46583453952661, 31.205404073569444]}, "properties": {"name": "\u8fc8\u5179\u7f51\u7403\u4ff1\u4e50\u90e8(\u6d77\u4e3d\u82b1\u56ed\u5e97)", "biz": "080103 \u4f53\u80b2\u4f11\u95f2\u670d\u52a1;\u8fd0\u52a8\u573a\u9986;\u7f51\u7403\u573a", "pty": "0801"}}, {"type": "Feature", "geometry": {"type": "Point", "coordinates": [121.4599303008594, 31.206680280659533]}, "properties": {"name": "\u53cb\u8054\u7f51\u7403", "biz": "080103 \u4f53\u80b2\u4f11\u95f2\u670d\u52a1;\u8fd0\u52a8\u573a\u9986;\u7f51\u7403\u573a", "pty": "0801"}}, {"type": "Feature", "geometry": {"type": "Point", "coordinates": [121.45977984974894, 31.20671988667727]}, "properties": {"name": "\u4e0a\u6d77\u56f4\u57ce\u7f51\u7403\u4ff1\u4e50\u90e8", "biz": "080103 \u4f53\u80b2\u4f11\u95f2\u670d\u52a1;\u8fd0\u52a8\u573a\u9986;\u7f51\u7403\u573a", "pty": "0801"}}, {"type": "Feature", "geometry": {"type": "Point", "coordinates": [121.48459168466977, 31.20655837497172]}, "properties": {"name": "\u65b0\u4e2d\u82d1\u5c0f\u533a\u7f51\u7403\u573a", "biz": "080103 \u4f53\u80b2\u4f11\u95f2\u670d\u52a1;\u8fd0\u52a8\u573a\u9986;\u7f51\u7403\u573a", "pty": "0801"}}, {"type": "Feature", "geometry": {"type": "Point", "coordinates": [121.45586215859122, 31.22185711553044]}, "properties": {"name": "\u5feb\u7f51\u7f51\u7403\u4ff1\u4e50\u90e8(\u9ec4\u6d66\u82b1\u56ed\u996d\u5e97\u7403\u573a)", "biz": "080103 \u4f53\u80b2\u4f11\u95f2\u670d\u52a1;\u8fd0\u52a8\u573a\u9986;\u7f51\u7403\u573a", "pty": "0801"}}, {"type": "Feature", "geometry": {"type": "Point", "coordinates": [121.45488452316356, 31.220429480480448]}, "properties": {"name": "\u82b1\u56ed\u996d\u5e97\u7f51\u7403\u573a", "biz": "080103 \u4f53\u80b2\u4f11\u95f2\u670d\u52a1;\u8fd0\u52a8\u573a\u9986;\u7f51\u7403\u573a", "pty": "0801"}}, {"type": "Feature", "geometry": {"type": "Point", "coordinates": [121.47799554283392, 31.23154231791044]}, "properties": {"name": "\u9ec4\u6d66\u533a\u5ef6\u798f\u7eff\u5730\u7bee\u7403\u573a", "biz": "080104 \u4f53\u80b2\u4f11\u95f2\u670d\u52a1;\u8fd0\u52a8\u573a\u9986;\u7bee\u7403\u573a\u9986", "pty": "0801"}}, {"type": "Feature", "geometry": {"type": "Point", "coordinates": [121.45961596792986, 31.22295072713733]}, "properties": {"name": "\u5411\u660e\u4e2d\u5b66-\u7bee\u7403\u573a", "biz": "080104 \u4f53\u80b2\u4f11\u95f2\u670d\u52a1;\u8fd0\u52a8\u573a\u9986;\u7bee\u7403\u573a\u9986", "pty": "0801"}}, {"type": "Feature", "geometry": {"type": "Point", "coordinates": [121.4839162513021, 31.218896469433453]}, "properties": {"name": "\u656c\u4e1a\u4e2d\u5b66-\u7bee\u7403\u573a(\u6682\u505c\u8425\u4e1a)", "biz": "080104 \u4f53\u80b2\u4f11\u95f2\u670d\u52a1;\u8fd0\u52a8\u573a\u9986;\u7bee\u7403\u573a\u9986", "pty": "0801"}}, {"type": "Feature", "geometry": {"type": "Point", "coordinates": [121.47502629154945, 31.20958423422115]}, "properties": {"name": "\u4e3d\u56ed\u516c\u56ed\u793e\u533a\u516c\u5171\u7bee\u7403\u573a", "biz": "080104 \u4f53\u80b2\u4f11\u95f2\u670d\u52a1;\u8fd0\u52a8\u573a\u9986;\u7bee\u7403\u573a\u9986", "pty": "0801"}}, {"type": "Feature", "geometry": {"type": "Point", "coordinates": [121.46762039898242, 31.215032192896697]}, "properties": {"name": "\u4e0a\u6d77\u4ea4\u901a\u5927\u5b66\u533b\u5b66\u9662\u4e1c\u533a\u7bee\u7403\u573a", "biz": "080104 \u4f53\u80b2\u4f11\u95f2\u670d\u52a1;\u8fd0\u52a8\u573a\u9986;\u7bee\u7403\u573a\u9986", "pty": "0801"}}, {"type": "Feature", "geometry": {"type": "Point", "coordinates": [121.45888712737808, 31.20766521796536]}, "properties": {"name": "\u4e0a\u6d77\u5e02\u5362\u6e7e\u4f53\u80b2\u4e2d\u5fc3-\u7bee\u7403\u573a", "biz": "080104 \u4f53\u80b2\u4f11\u95f2\u670d\u52a1;\u8fd0\u52a8\u573a\u9986;\u7bee\u7403\u573a\u9986", "pty": "0801"}}, {"type": "Feature", "geometry": {"type": "Point", "coordinates": [121.47596487508669, 31.228307018529772]}, "properties": {"name": "\u5149\u660e\u4e2d\u5b66-\u7bee\u7403\u573a", "biz": "080104 \u4f53\u80b2\u4f11\u95f2\u670d\u52a1;\u8fd0\u52a8\u573a\u9986;\u7bee\u7403\u573a\u9986", "pty": "0801"}}, {"type": "Feature", "geometry": {"type": "Point", "coordinates": [121.4656711650338, 31.215422818787932]}, "properties": {"name": "\u5341\u53f7\u9752\u5c11\u5e74\u8db3\u7403\u4ff1\u4e50\u90e8", "biz": "080105 \u4f53\u80b2\u4f11\u95f2\u670d\u52a1;\u8fd0\u52a8\u573a\u9986;\u8db3\u7403\u573a", "pty": "0801"}}, {"type": "Feature", "geometry": {"type": "Point", "coordinates": [121.47779106806394, 31.205431118746336]}, "properties": {"name": "\u534e\u4eba\u7403\u5e9c(\u5c40\u95e8\u8def\u5e97)", "biz": "080105 \u4f53\u80b2\u4f11\u95f2\u670d\u52a1;\u8fd0\u52a8\u573a\u9986;\u8db3\u7403\u573a", "pty": "0801"}}, {"type": "Feature", "geometry": {"type": "Point", "coordinates": [121.46523501854928, 31.20111858234985]}, "properties": {"name": "\u4e0a\u6d77\u8001\u514b\u52d2\u660e\u661f\u8db3\u7403\u4ff1\u4e50\u90e8", "biz": "080105 \u4f53\u80b2\u4f11\u95f2\u670d\u52a1;\u8fd0\u52a8\u573a\u9986;\u8db3\u7403\u573a", "pty": "0801"}}, {"type": "Feature", "geometry": {"type": "Point", "coordinates": [121.46848831670752, 31.23692828699043]}, "properties": {"name": "\u65b0\u4e16\u754c\u51b0\u4e0a\u4e50\u56ed", "biz": "080107 \u4f53\u80b2\u4f11\u95f2\u670d\u52a1;\u8fd0\u52a8\u573a\u9986;\u6e9c\u51b0\u573a", "pty": "0801"}}, {"type": "Feature", "geometry": {"type": "Point", "coordinates": [121.48017850942308, 31.21487246006969]}, "properties": {"name": "\u4e0a\u6d77\u5e02\u9ec4\u6d66\u5b66\u6821\u8f6e\u6ed1\u9986", "biz": "080107 \u4f53\u80b2\u4f11\u95f2\u670d\u52a1;\u8fd0\u52a8\u573a\u9986;\u6e9c\u51b0\u573a", "pty": "0801"}}, {"type": "Feature", "geometry": {"type": "Point", "coordinates": [121.48113549835733, 31.230624826931027]}, "properties": {"name": "\u91d1\u9675\u5065\u8eab\u82d1", "biz": "080108 \u4f53\u80b2\u4f11\u95f2\u670d\u52a1;\u8fd0\u52a8\u573a\u9986;\u6237\u5916\u5065\u8eab\u573a\u6240", "pty": "0801"}}, {"type": "Feature", "geometry": {"type": "Point", "coordinates": [121.46508814814436, 31.240863433035635]}, "properties": {"name": "\u798f\u6d77\u5065\u8eab\u70b9", "biz": "080108 \u4f53\u80b2\u4f11\u95f2\u670d\u52a1;\u8fd0\u52a8\u573a\u9986;\u6237\u5916\u5065\u8eab\u573a\u6240", "pty": "0801"}}, {"type": "Feature", "geometry": {"type": "Point", "coordinates": [121.47641648366927, 31.23918329117108]}, "properties": {"name": "\u6d66\u4e1c\u6237\u5916\u4ff1\u4e50\u90e8", "biz": "080108 \u4f53\u80b2\u4f11\u95f2\u670d\u52a1;\u8fd0\u52a8\u573a\u9986;\u6237\u5916\u5065\u8eab\u573a\u6240", "pty": "0801"}}, {"type": "Feature", "geometry": {"type": "Point", "coordinates": [121.49101096325298, 31.21357907012147]}, "properties": {"name": "\u666e\u76ca\u5fbd\u5b81\u8def\u7eff\u5730\u5065\u8eab\u70b9", "biz": "080108 \u4f53\u80b2\u4f11\u95f2\u670d\u52a1;\u8fd0\u52a8\u573a\u9986;\u6237\u5916\u5065\u8eab\u573a\u6240", "pty": "0801"}}, {"type": "Feature", "geometry": {"type": "Point", "coordinates": [121.48632188177976, 31.217525224463802]}, "properties": {"name": "\u656c\u4e1a\u6e38\u6cf3\u9986", "biz": "080110 \u4f53\u80b2\u4f11\u95f2\u670d\u52a1;\u8fd0\u52a8\u573a\u9986;\u6e38\u6cf3\u9986", "pty": "0801"}}, {"type": "Feature", "geometry": {"type": "Point", "coordinates": [121.45955499957749, 31.20884330068902]}, "properties": {"name": "\u661f\u4e4b\u6e38\u6cf3\u9986", "biz": "080110 \u4f53\u80b2\u4f11\u95f2\u670d\u52a1;\u8fd0\u52a8\u573a\u9986;\u6e38\u6cf3\u9986", "pty": "0801"}}, {"type": "Feature", "geometry": {"type": "Point", "coordinates": [121.47882778261484, 31.215452276262578]}, "properties": {"name": "\u659c\u6865\u6e38\u6cf3\u6c60(\u88c5\u4fee\u4e2d)", "biz": "080110 \u4f53\u80b2\u4f11\u95f2\u670d\u52a1;\u8fd0\u52a8\u573a\u9986;\u6e38\u6cf3\u9986", "pty": "0801"}}, {"type": "Feature", "geometry": {"type": "Point", "coordinates": [121.45255673497549, 31.224631122375115]}, "properties": {"name": "\u4e0a\u6d77\u57ce\u5e02\u9152\u5e97\u6e38\u6cf3\u9986", "biz": "080110 \u4f53\u80b2\u4f11\u95f2\u670d\u52a1;\u8fd0\u52a8\u573a\u9986;\u6e38\u6cf3\u9986", "pty": "0801"}}, {"type": "Feature", "geometry": {"type": "Point", "coordinates": [121.46432885226827, 31.239947862956317]}, "properties": {"name": "\u91d1\u8272\u5bb6\u56ed\u6e38\u6cf3\u9986", "biz": "080110 \u4f53\u80b2\u4f11\u95f2\u670d\u52a1;\u8fd0\u52a8\u573a\u9986;\u6e38\u6cf3\u9986", "pty": "0801"}}, {"type": "Feature", "geometry": {"type": "Point", "coordinates": [121.47368757289863, 31.22375072162924]}, "properties": {"name": "\u5df4\u5361\u62c9\u4f1a\u6240-\u6e38\u6cf3\u9986", "biz": "080110 \u4f53\u80b2\u4f11\u95f2\u670d\u52a1;\u8fd0\u52a8\u573a\u9986;\u6e38\u6cf3\u9986", "pty": "0801"}}, {"type": "Feature", "geometry": {"type": "Point", "coordinates": [121.47492697969463, 31.232715033630576]}, "properties": {"name": "\u683c\u81f4\u4e2d\u5b66\u6e38\u6cf3\u6c60", "biz": "080110 \u4f53\u80b2\u4f11\u95f2\u670d\u52a1;\u8fd0\u52a8\u573a\u9986;\u6e38\u6cf3\u9986", "pty": "0801"}}, {"type": "Feature", "geometry": {"type": "Point", "coordinates": [121.46688803724052, 31.20359375118586]}, "properties": {"name": "\u9152\u5e97\u5f0f\u5065\u8eab\u6e38\u6cf3\u9986", "biz": "080110 \u4f53\u80b2\u4f11\u95f2\u670d\u52a1;\u8fd0\u52a8\u573a\u9986;\u6e38\u6cf3\u9986", "pty": "0801"}}, {"type": "Feature", "geometry": {"type": "Point", "coordinates": [121.48991401636385, 31.213757707645026]}, "properties": {"name": "\u56db\u5b63\u6052\u6e29\u5065\u8eab\u6e38\u6cf3\u4f1a\u6240", "biz": "080110 \u4f53\u80b2\u4f11\u95f2\u670d\u52a1;\u8fd0\u52a8\u573a\u9986;\u6e38\u6cf3\u9986", "pty": "0801"}}, {"type": "Feature", "geometry": {"type": "Point", "coordinates": [121.46865489895336, 31.236418970753217]}, "properties": {"name": "\u65b0\u4e16\u754c\u4e3d\u7b19\u5927\u9152\u5e97-\u6e38\u6cf3\u6c60", "biz": "080110 \u4f53\u80b2\u4f11\u95f2\u670d\u52a1;\u8fd0\u52a8\u573a\u9986;\u6e38\u6cf3\u9986", "pty": "0801"}}, {"type": "Feature", "geometry": {"type": "Point", "coordinates": [121.47197589720271, 31.223368129086666]}, "properties": {"name": "popo\u9ad8\u7aef\u6e38\u6cf3\u4ff1\u4e50\u90e8", "biz": "080110 \u4f53\u80b2\u4f11\u95f2\u670d\u52a1;\u8fd0\u52a8\u573a\u9986;\u6e38\u6cf3\u9986", "pty": "0801"}}, {"type": "Feature", "geometry": {"type": "Point", "coordinates": [121.47829084945094, 31.21641627038497]}, "properties": {"name": "\u5065\u8eab\u745c\u4f3d\u821e\u8e48\u6e38\u6cf3\u9986", "biz": "080110 \u4f53\u80b2\u4f11\u95f2\u670d\u52a1;\u8fd0\u52a8\u573a\u9986;\u6e38\u6cf3\u9986", "pty": "0801"}}, {"type": "Feature", "geometry": {"type": "Point", "coordinates": [121.46914296724725, 31.19570469024163]}, "properties": {"name": "\u6251\u6251\u9cb8\u6e38\u6cf3\u9986", "biz": "080110 \u4f53\u80b2\u4f11\u95f2\u670d\u52a1;\u8fd0\u52a8\u573a\u9986;\u6e38\u6cf3\u9986", "pty": "0801"}}, {"type": "Feature", "geometry": {"type": "Point", "coordinates": [121.47865017377548, 31.21540578650953]}, "properties": {"name": "\u5251\u6865\u6e38\u6cf3\u6c60", "biz": "080110 \u4f53\u80b2\u4f11\u95f2\u670d\u52a1;\u8fd0\u52a8\u573a\u9986;\u6e38\u6cf3\u9986", "pty": "0801"}}, {"type": "Feature", "geometry": {"type": "Point", "coordinates": [121.47248747273704, 31.236503451254336]}, "properties": {"name": "\u8272\u5f69\u6591\u6593\u7684\u5ba4\u5185\u6e38\u6cf3\u6c60", "biz": "080110 \u4f53\u80b2\u4f11\u95f2\u670d\u52a1;\u8fd0\u52a8\u573a\u9986;\u6e38\u6cf3\u9986", "pty": "0801"}}, {"type": "Feature", "geometry": {"type": "Point", "coordinates": [121.48002580876954, 31.228601542125883]}, "properties": {"name": "\u51a0\u4fca\u6e38\u6cf3\u4ff1\u4e50\u90e8(\u9ec4\u6d66\u57f9\u8bad\u4e2d\u5fc3\u5e97)", "biz": "080110 \u4f53\u80b2\u4f11\u95f2\u670d\u52a1;\u8fd0\u52a8\u573a\u9986;\u6e38\u6cf3\u9986", "pty": "0801"}}, {"type": "Feature", "geometry": {"type": "Point", "coordinates": [121.45842446605582, 31.222818848615486]}, "properties": {"name": "\u65b0\u9526\u6c5f\u5927\u9152\u5e97-\u5ba4\u5185\u6e38\u6cf3\u6c60", "biz": "080110 \u4f53\u80b2\u4f11\u95f2\u670d\u52a1;\u8fd0\u52a8\u573a\u9986;\u6e38\u6cf3\u9986", "pty": "0801"}}, {"type": "Feature", "geometry": {"type": "Point", "coordinates": [121.46686165723601, 31.207048002958697]}, "properties": {"name": "\u4e0a\u6d77\u5929\u8bda\u5927\u9152\u5e97-\u6e38\u6cf3\u6c60", "biz": "080110 \u4f53\u80b2\u4f11\u95f2\u670d\u52a1;\u8fd0\u52a8\u573a\u9986;\u6e38\u6cf3\u9986", "pty": "0801"}}, {"type": "Feature", "geometry": {"type": "Point", "coordinates": [121.46836762100514, 31.193798533174512]}, "properties": {"name": "\u4e0a\u6d77\u7eff\u5730\u4e07\u8c6a\u9152\u5e97\u6e38\u6cf3\u6c60", "biz": "080110 \u4f53\u80b2\u4f11\u95f2\u670d\u52a1;\u8fd0\u52a8\u573a\u9986;\u6e38\u6cf3\u9986", "pty": "0801"}}, {"type": "Feature", "geometry": {"type": "Point", "coordinates": [121.45271014461778, 31.224719430249316]}, "properties": {"name": "\u7426\u5065\u8eab(\u57ce\u5e02\u9152\u5e97\u5e97)", "biz": "080111 \u4f53\u80b2\u4f11\u95f2\u670d\u52a1;\u8fd0\u52a8\u573a\u9986;\u5065\u8eab\u4e2d\u5fc3", "pty": "0801"}}, {"type": "Feature", "geometry": {"type": "Point", "coordinates": [121.47289302014732, 31.222521078111644]}, "properties": {"name": "ZE\u6781\u901f\u8fd0\u52a8\u7ad9(\u65b0\u5929\u5730\u5e97)", "biz": "080111 \u4f53\u80b2\u4f11\u95f2\u670d\u52a1;\u8fd0\u52a8\u573a\u9986;\u5065\u8eab\u4e2d\u5fc3", "pty": "0801"}}, {"type": "Feature", "geometry": {"type": "Point", "coordinates": [121.49848204564933, 31.223074945135078]}, "properties": {"name": "\u5a01\u5c14\u58eb\u5065\u8eab\u4ff1\u4e50\u90e8(\u4e0a\u6d77\u6ee9\u82b1\u56ed\u5e97)", "biz": "080111 \u4f53\u80b2\u4f11\u95f2\u670d\u52a1;\u8fd0\u52a8\u573a\u9986;\u5065\u8eab\u4e2d\u5fc3", "pty": "0801"}}, {"type": "Feature", "geometry": {"type": "Point", "coordinates": [121.48576132300332, 31.22422040176633]}, "properties": {"name": "\u7687\u5cad\u4f1a\u5065\u8eab\u9986", "biz": "080111 \u4f53\u80b2\u4f11\u95f2\u670d\u52a1;\u8fd0\u52a8\u573a\u9986;\u5065\u8eab\u4e2d\u5fc3", "pty": "0801"}}, {"type": "Feature", "geometry": {"type": "Point", "coordinates": [121.46484709293458, 31.23270353836751]}, "properties": {"name": "\u660e\u5929\u5e7f\u573aJW\u4e07\u8c6a\u9152\u5e97\u5065\u8eab\u4e2d\u5fc3", "biz": "080111 \u4f53\u80b2\u4f11\u95f2\u670d\u52a1;\u8fd0\u52a8\u573a\u9986;\u5065\u8eab\u4e2d\u5fc3", "pty": "0801"}}, {"type": "Feature", "geometry": {"type": "Point", "coordinates": [121.48970368658657, 31.232330341672142]}, "properties": {"name": "Liking Fit\u667a\u80fd\u5065\u8eab(\u5916\u6ee9\u5e97)", "biz": "080111 \u4f53\u80b2\u4f11\u95f2\u670d\u52a1;\u8fd0\u52a8\u573a\u9986;\u5065\u8eab\u4e2d\u5fc3", "pty": "0801"}}, {"type": "Feature", "geometry": {"type": "Point", "coordinates": [121.4823122875616, 31.210970548124102]}, "properties": {"name": "\u4e00\u5146\u97e6\u5fb7\u5065\u8eab(\u9ec4\u6d66\u4e3d\u56ed\u5e97)", "biz": "080111 \u4f53\u80b2\u4f11\u95f2\u670d\u52a1;\u8fd0\u52a8\u573a\u9986;\u5065\u8eab\u4e2d\u5fc3", "pty": "0801"}}, {"type": "Feature", "geometry": {"type": "Point", "coordinates": [121.46432902230096, 31.203011286056206]}, "properties": {"name": "\u8d85\u7ea7\u5065\u8eab(\u659c\u571f\u8def\u5e97)", "biz": "080111 \u4f53\u80b2\u4f11\u95f2\u670d\u52a1;\u8fd0\u52a8\u573a\u9986;\u5065\u8eab\u4e2d\u5fc3", "pty": "0801"}}, {"type": "Feature", "geometry": {"type": "Point", "coordinates": [121.46967056809451, 31.220423177948003]}, "properties": {"name": "WILL\u2019S", "biz": "080111 \u4f53\u80b2\u4f11\u95f2\u670d\u52a1;\u8fd0\u52a8\u573a\u9986;\u5065\u8eab\u4e2d\u5fc3", "pty": "0801"}}, {"type": "Feature", "geometry": {"type": "Point", "coordinates": [121.47878239574344, 31.218151860473487]}, "properties": {"name": "\u5a01\u5c14\u58eb\u5065\u8eab\u4f1a\u6240(\u8001\u897f\u95e8\u5e97)", "biz": "080111 \u4f53\u80b2\u4f11\u95f2\u670d\u52a1;\u8fd0\u52a8\u573a\u9986;\u5065\u8eab\u4e2d\u5fc3", "pty": "0801"}}, {"type": "Feature", "geometry": {"type": "Point", "coordinates": [121.49596981339428, 31.225225406885155]}, "properties": {"name": "\u4e00\u5146\u97e6\u5fb7\u5065\u8eab\u4f1a\u6240(\u91d1\u5916\u6ee9\u81f3\u5c0a\u5e97)", "biz": "080111 \u4f53\u80b2\u4f11\u95f2\u670d\u52a1;\u8fd0\u52a8\u573a\u9986;\u5065\u8eab\u4e2d\u5fc3", "pty": "0801"}}, {"type": "Feature", "geometry": {"type": "Point", "coordinates": [121.47839666911604, 31.211078129713293]}, "properties": {"name": "M13 FITNESS CLUB\u5065\u8eab\u5de5\u4f5c\u5ba4", "biz": "080111 \u4f53\u80b2\u4f11\u95f2\u670d\u52a1;\u8fd0\u52a8\u573a\u9986;\u5065\u8eab\u4e2d\u5fc3", "pty": "0801"}}, {"type": "Feature", "geometry": {"type": "Point", "coordinates": [121.49447846629884, 31.213129668541058]}, "properties": {"name": "Pure Lab\u5065\u8eab\u5de5\u4f5c\u5ba4", "biz": "080111 \u4f53\u80b2\u4f11\u95f2\u670d\u52a1;\u8fd0\u52a8\u573a\u9986;\u5065\u8eab\u4e2d\u5fc3", "pty": "0801"}}, {"type": "Feature", "geometry": {"type": "Point", "coordinates": [121.48222435640436, 31.218287794258398]}, "properties": {"name": "\u7231\u63d0\u6c99(\u4e2d\u534e\u8def\u5e97)", "biz": "080111|060000 \u4f53\u80b2\u4f11\u95f2\u670d\u52a1;\u8fd0\u52a8\u573a\u9986;\u5065\u8eab\u4e2d\u5fc3|\u8d2d\u7269\u670d\u52a1;\u8d2d\u7269\u76f8\u5173\u573a\u6240;\u8d2d\u7269\u76f8\u5173\u573a\u6240", "pty": "0801"}}, {"type": "Feature", "geometry": {"type": "Point", "coordinates": [121.47916903376576, 31.23805270367044]}, "properties": {"name": "\u9ec4\u6d66\u5e02\u6c11\u5065\u8eab\u4e2d\u5fc3", "biz": "080111 \u4f53\u80b2\u4f11\u95f2\u670d\u52a1;\u8fd0\u52a8\u573a\u9986;\u5065\u8eab\u4e2d\u5fc3", "pty": "0801"}}, {"type": "Feature", "geometry": {"type": "Point", "coordinates": [121.48476052520822, 31.20369026671975]}, "properties": {"name": "\u84dd\u8272\u661f\u7a7a\u5065\u8eab", "biz": "080111 \u4f53\u80b2\u4f11\u95f2\u670d\u52a1;\u8fd0\u52a8\u573a\u9986;\u5065\u8eab\u4e2d\u5fc3", "pty": "0801"}}, {"type": "Feature", "geometry": {"type": "Point", "coordinates": [121.47140189618656, 31.224554983451934]}, "properties": {"name": "\u701a\u6f9c\u5fb7\u5065\u8eab(\u65b0\u5929\u5730\u5e97)", "biz": "080111 \u4f53\u80b2\u4f11\u95f2\u670d\u52a1;\u8fd0\u52a8\u573a\u9986;\u5065\u8eab\u4e2d\u5fc3", "pty": "0801"}}, {"type": "Feature", "geometry": {"type": "Point", "coordinates": [121.47907972114457, 31.23809742534659]}, "properties": {"name": "\u96cd\u5170\u4f1a", "biz": "080111 \u4f53\u80b2\u4f11\u95f2\u670d\u52a1;\u8fd0\u52a8\u573a\u9986;\u5065\u8eab\u4e2d\u5fc3", "pty": "0801"}}, {"type": "Feature", "geometry": {"type": "Point", "coordinates": [121.4701524067898, 31.21732996090012]}, "properties": {"name": "Liking Fit(\u590d\u5174\u5e97)", "biz": "080111 \u4f53\u80b2\u4f11\u95f2\u670d\u52a1;\u8fd0\u52a8\u573a\u9986;\u5065\u8eab\u4e2d\u5fc3", "pty": "0801"}}, {"type": "Feature", "geometry": {"type": "Point", "coordinates": [121.46471761196221, 31.233586791893647]}, "properties": {"name": "\u9f99\u5065\u8eab(\u4ed9\u4e50\u65af\u5e7f\u573a)", "biz": "080111 \u4f53\u80b2\u4f11\u95f2\u670d\u52a1;\u8fd0\u52a8\u573a\u9986;\u5065\u8eab\u4e2d\u5fc3", "pty": "0801"}}, {"type": "Feature", "geometry": {"type": "Point", "coordinates": [121.47004290504482, 31.242361039078506]}, "properties": {"name": "IN-Fitness\u5065\u8eab\u5de5\u4f5c\u5ba4(\u9ec4\u6d66\u5e97)", "biz": "080111 \u4f53\u80b2\u4f11\u95f2\u670d\u52a1;\u8fd0\u52a8\u573a\u9986;\u5065\u8eab\u4e2d\u5fc3", "pty": "0801"}}, {"type": "Feature", "geometry": {"type": "Point", "coordinates": [121.4890236633742, 31.215729110002332]}, "properties": {"name": "\u7687\u9886\u4f1a\u4f1a\u9986(\u660e\u65e5\u661f\u57ce\u5e97)", "biz": "080111 \u4f53\u80b2\u4f11\u95f2\u670d\u52a1;\u8fd0\u52a8\u573a\u9986;\u5065\u8eab\u4e2d\u5fc3", "pty": "0801"}}, {"type": "Feature", "geometry": {"type": "Point", "coordinates": [121.47343073206545, 31.23521267573535]}, "properties": {"name": "infinity\u8fd0\u52a8\u5065\u8eab\u9986", "biz": "080111 \u4f53\u80b2\u4f11\u95f2\u670d\u52a1;\u8fd0\u52a8\u573a\u9986;\u5065\u8eab\u4e2d\u5fc3", "pty": "0801"}}, {"type": "Feature", "geometry": {"type": "Point", "coordinates": [121.47363135770048, 31.20065864514537]}, "properties": {"name": "\u5a01\u5c14\u58eb\u5065\u8eab(\u6c47\u66bb\u751f\u6d3b\u5e7f\u573a)", "biz": "080111 \u4f53\u80b2\u4f11\u95f2\u670d\u52a1;\u8fd0\u52a8\u573a\u9986;\u5065\u8eab\u4e2d\u5fc3", "pty": "0801"}}, {"type": "Feature", "geometry": {"type": "Point", "coordinates": [121.45678380168046, 31.22172538068229]}, "properties": {"name": "\u9526\u6c5f\u5065\u8eab\u4e2d\u5fc3", "biz": "080111 \u4f53\u80b2\u4f11\u95f2\u670d\u52a1;\u8fd0\u52a8\u573a\u9986;\u5065\u8eab\u4e2d\u5fc3", "pty": "0801"}}, {"type": "Feature", "geometry": {"type": "Point", "coordinates": [121.46082172260176, 31.221185574643055]}, "properties": {"name": "Jun YOGA", "biz": "080111 \u4f53\u80b2\u4f11\u95f2\u670d\u52a1;\u8fd0\u52a8\u573a\u9986;\u5065\u8eab\u4e2d\u5fc3", "pty": "0801"}}, {"type": "Feature", "geometry": {"type": "Point", "coordinates": [121.46411019673393, 31.228007793072432]}, "properties": {"name": "CrossFit BodyInMotion(\u9ec4\u6d66\u5e97)", "biz": "080111 \u4f53\u80b2\u4f11\u95f2\u670d\u52a1;\u8fd0\u52a8\u573a\u9986;\u5065\u8eab\u4e2d\u5fc3", "pty": "0801"}}, {"type": "Feature", "geometry": {"type": "Point", "coordinates": [121.48126669092316, 31.233736770541313]}, "properties": {"name": "\u4e00\u5146\u97e6\u5fb7\u5065\u8eab(\u57ce\u5e02\u4f1a\u6240)", "biz": "080111 \u4f53\u80b2\u4f11\u95f2\u670d\u52a1;\u8fd0\u52a8\u573a\u9986;\u5065\u8eab\u4e2d\u5fc3", "pty": "0801"}}, {"type": "Feature", "geometry": {"type": "Point", "coordinates": [121.47453309038492, 31.22756231382653]}, "properties": {"name": "\u7b2c\u4e5d\u5c0f\u65f6\u5065\u8eab(\u6dee\u6d77\u5e97)", "biz": "080111 \u4f53\u80b2\u4f11\u95f2\u670d\u52a1;\u8fd0\u52a8\u573a\u9986;\u5065\u8eab\u4e2d\u5fc3", "pty": "0801"}}, {"type": "Feature", "geometry": {"type": "Point", "coordinates": [121.46527645694755, 31.22084920266256]}, "properties": {"name": "My Soul Yoga", "biz": "080111 \u4f53\u80b2\u4f11\u95f2\u670d\u52a1;\u8fd0\u52a8\u573a\u9986;\u5065\u8eab\u4e2d\u5fc3", "pty": "0801"}}, {"type": "Feature", "geometry": {"type": "Point", "coordinates": [121.4799769640727, 31.201324424936484]}, "properties": {"name": "\u5916\u6ee9\u00b7\u6e7e\u749f\u4f1a\u5065\u8eab\u4e2d\u5fc3", "biz": "080111 \u4f53\u80b2\u4f11\u95f2\u670d\u52a1;\u8fd0\u52a8\u573a\u9986;\u5065\u8eab\u4e2d\u5fc3", "pty": "0801"}}, {"type": "Feature", "geometry": {"type": "Point", "coordinates": [121.47835878331891, 31.219933795778147]}, "properties": {"name": "\u5c1a\u9f99\u745c\u4f3d\u5065\u8eab\u5de5\u4f5c\u5ba4", "biz": "080111 \u4f53\u80b2\u4f11\u95f2\u670d\u52a1;\u8fd0\u52a8\u573a\u9986;\u5065\u8eab\u4e2d\u5fc3", "pty": "0801"}}, {"type": "Feature", "geometry": {"type": "Point", "coordinates": [121.47419335660658, 31.22275960794467]}, "properties": {"name": "GU CYCLE(\u65b0\u5929\u5730\u5e97)", "biz": "080111 \u4f53\u80b2\u4f11\u95f2\u670d\u52a1;\u8fd0\u52a8\u573a\u9986;\u5065\u8eab\u4e2d\u5fc3", "pty": "0801"}}, {"type": "Feature", "geometry": {"type": "Point", "coordinates": [121.47154850669348, 31.21139163998056]}, "properties": {"name": "Tidecaller\u5524\u6f6e\u5065\u8eab\u4f1a\u6240(\u9a6c\u5f53\u5e97)", "biz": "080111 \u4f53\u80b2\u4f11\u95f2\u670d\u52a1;\u8fd0\u52a8\u573a\u9986;\u5065\u8eab\u4e2d\u5fc3", "pty": "0801"}}, {"type": "Feature", "geometry": {"type": "Point", "coordinates": [121.4744913412259, 31.222980342838554]}, "properties": {"name": "Y+\u745c\u4f3d\u4f1a\u6240", "biz": "080111 \u4f53\u80b2\u4f11\u95f2\u670d\u52a1;\u8fd0\u52a8\u573a\u9986;\u5065\u8eab\u4e2d\u5fc3", "pty": "0801"}}, {"type": "Feature", "geometry": {"type": "Point", "coordinates": [121.4658011975377, 31.208165647446805]}, "properties": {"name": "\u60a6\u4eab\u5065\u8eab\u5de5\u4f5c\u5ba4(\u65e5\u6708\u5149\u7cbe\u54c1\u5e97)", "biz": "080111 \u4f53\u80b2\u4f11\u95f2\u670d\u52a1;\u8fd0\u52a8\u573a\u9986;\u5065\u8eab\u4e2d\u5fc3", "pty": "0801"}}, {"type": "Feature", "geometry": {"type": "Point", "coordinates": [121.46533647734235, 31.199485649169517]}, "properties": {"name": "\u60a6\u4eab\u5065\u8eab\u5de5\u4f5c\u5ba4(\u745e\u91d1\u5e97)", "biz": "080111 \u4f53\u80b2\u4f11\u95f2\u670d\u52a1;\u8fd0\u52a8\u573a\u9986;\u5065\u8eab\u4e2d\u5fc3", "pty": "0801"}}, {"type": "Feature", "geometry": {"type": "Point", "coordinates": [121.49924791143627, 31.20996248291377]}, "properties": {"name": "\u7f8e\u683c\u83f2\u5065\u8eab\u4e2d\u5fc3(\u5916\u6ee9\u5e97)", "biz": "080111 \u4f53\u80b2\u4f11\u95f2\u670d\u52a1;\u8fd0\u52a8\u573a\u9986;\u5065\u8eab\u4e2d\u5fc3", "pty": "0801"}}, {"type": "Feature", "geometry": {"type": "Point", "coordinates": [121.48119651889482, 31.2446106092361]}, "properties": {"name": "HK130", "biz": "080111 \u4f53\u80b2\u4f11\u95f2\u670d\u52a1;\u8fd0\u52a8\u573a\u9986;\u5065\u8eab\u4e2d\u5fc3", "pty": "0801"}}, {"type": "Feature", "geometry": {"type": "Point", "coordinates": [121.46471201529314, 31.21702853344153]}, "properties": {"name": "\u601d\u5357\u516c\u9986\u5065\u8eab\u4f1a\u6240", "biz": "080111 \u4f53\u80b2\u4f11\u95f2\u670d\u52a1;\u8fd0\u52a8\u573a\u9986;\u5065\u8eab\u4e2d\u5fc3", "pty": "0801"}}, {"type": "Feature", "geometry": {"type": "Point", "coordinates": [121.46303143156037, 31.20969968110134]}, "properties": {"name": "\u5168\u7136\u745c\u4f3d(Ryoga\u65e5\u6708\u5149\u5e97)", "biz": "080111 \u4f53\u80b2\u4f11\u95f2\u670d\u52a1;\u8fd0\u52a8\u573a\u9986;\u5065\u8eab\u4e2d\u5fc3", "pty": "0801"}}, {"type": "Feature", "geometry": {"type": "Point", "coordinates": [121.45918589798933, 31.208949334960597]}, "properties": {"name": "\u661f\u4e4b\u5065\u8eab(\u5362\u6e7e\u5e97)", "biz": "080111 \u4f53\u80b2\u4f11\u95f2\u670d\u52a1;\u8fd0\u52a8\u573a\u9986;\u5065\u8eab\u4e2d\u5fc3", "pty": "0801"}}, {"type": "Feature", "geometry": {"type": "Point", "coordinates": [121.46372160219255, 31.209230690256014]}, "properties": {"name": "\u5a01\u5c14\u58eb\u5065\u8eab(\u65e5\u6708\u5149\u4e2d\u5fc3\u5e97)", "biz": "080111 \u4f53\u80b2\u4f11\u95f2\u670d\u52a1;\u8fd0\u52a8\u573a\u9986;\u5065\u8eab\u4e2d\u5fc3", "pty": "0801"}}, {"type": "Feature", "geometry": {"type": "Point", "coordinates": [121.4890728886997, 31.20336621836955]}, "properties": {"name": "\u9ec4\u6d66\u6ee9\u540d\u82d1\u5065\u8eab\u4ff1\u4e50\u90e8", "biz": "080111 \u4f53\u80b2\u4f11\u95f2\u670d\u52a1;\u8fd0\u52a8\u573a\u9986;\u5065\u8eab\u4e2d\u5fc3", "pty": "0801"}}, {"type": "Feature", "geometry": {"type": "Point", "coordinates": [121.47911034383941, 31.243758942189768]}, "properties": {"name": "ManiYoga\u66fc\u9038\u745c\u4f3d", "biz": "080111 \u4f53\u80b2\u4f11\u95f2\u670d\u52a1;\u8fd0\u52a8\u573a\u9986;\u5065\u8eab\u4e2d\u5fc3", "pty": "0801"}}, {"type": "Feature", "geometry": {"type": "Point", "coordinates": [121.49507846789237, 31.21500656935308]}, "properties": {"name": "\u99a8\u56ed\u5065\u8eab\u4f1a\u6240", "biz": "080111 \u4f53\u80b2\u4f11\u95f2\u670d\u52a1;\u8fd0\u52a8\u573a\u9986;\u5065\u8eab\u4e2d\u5fc3", "pty": "0801"}}, {"type": "Feature", "geometry": {"type": "Point", "coordinates": [121.46909784654936, 31.218768403099947]}, "properties": {"name": "\u695a\u5b81\u745c\u4f3d\u9986", "biz": "080111 \u4f53\u80b2\u4f11\u95f2\u670d\u52a1;\u8fd0\u52a8\u573a\u9986;\u5065\u8eab\u4e2d\u5fc3", "pty": "0801"}}, {"type": "Feature", "geometry": {"type": "Point", "coordinates": [121.48194593246764, 31.211817069986537]}, "properties": {"name": "FIX BOUTIQUE FITNESS", "biz": "080111 \u4f53\u80b2\u4f11\u95f2\u670d\u52a1;\u8fd0\u52a8\u573a\u9986;\u5065\u8eab\u4e2d\u5fc3", "pty": "0801"}}, {"type": "Feature", "geometry": {"type": "Point", "coordinates": [121.47440404520046, 31.223002086726268]}, "properties": {"name": "Xbody Impulse\u79c1\u4eba\u5065\u8eab\u623f(\u65b0\u5929\u5730\u5e97)", "biz": "080111 \u4f53\u80b2\u4f11\u95f2\u670d\u52a1;\u8fd0\u52a8\u573a\u9986;\u5065\u8eab\u4e2d\u5fc3", "pty": "0801"}}, {"type": "Feature", "geometry": {"type": "Point", "coordinates": [121.4726283313136, 31.208561999320857]}, "properties": {"name": "UFC\u5065\u8eab\u5de5\u4f5c\u5ba4", "biz": "080111 \u4f53\u80b2\u4f11\u95f2\u670d\u52a1;\u8fd0\u52a8\u573a\u9986;\u5065\u8eab\u4e2d\u5fc3", "pty": "0801"}}, {"type": "Feature", "geometry": {"type": "Point", "coordinates": [121.48123811462642, 31.215859070238704]}, "properties": {"name": "\u8fa9\u559c\u745c\u4f3d", "biz": "080111 \u4f53\u80b2\u4f11\u95f2\u670d\u52a1;\u8fd0\u52a8\u573a\u9986;\u5065\u8eab\u4e2d\u5fc3", "pty": "0801"}}, {"type": "Feature", "geometry": {"type": "Point", "coordinates": [121.4646036273325, 31.24090614449217]}, "properties": {"name": "\u5fc3\u513f\u745c\u4f3d\u79c1\u6559\u5de5\u4f5c\u5ba4", "biz": "080111 \u4f53\u80b2\u4f11\u95f2\u670d\u52a1;\u8fd0\u52a8\u573a\u9986;\u5065\u8eab\u4e2d\u5fc3", "pty": "0801"}}, {"type": "Feature", "geometry": {"type": "Point", "coordinates": [121.45779293091176, 31.207616561991784]}, "properties": {"name": "\u4e2d\u5065\u94f6\u5ea7\u5065\u8eab(\u5609\u5584\u8def\u5e97)", "biz": "080111 \u4f53\u80b2\u4f11\u95f2\u670d\u52a1;\u8fd0\u52a8\u573a\u9986;\u5065\u8eab\u4e2d\u5fc3", "pty": "0801"}}, {"type": "Feature", "geometry": {"type": "Point", "coordinates": [121.47991036177689, 31.217415470706115]}, "properties": {"name": "\u5361\u739b\u751f\u6d3b\u745c\u4f3d\u4f1a\u9986(\u8001\u897f\u95e8\u5e97)", "biz": "080111 \u4f53\u80b2\u4f11\u95f2\u670d\u52a1;\u8fd0\u52a8\u573a\u9986;\u5065\u8eab\u4e2d\u5fc3", "pty": "0801"}}, {"type": "Feature", "geometry": {"type": "Point", "coordinates": [121.48566699014312, 31.224201131757873]}, "properties": {"name": "\u65b0\u7687\u9886\u4f1a(\u9999\u6e2f\u540d\u90fd)", "biz": "080111 \u4f53\u80b2\u4f11\u95f2\u670d\u52a1;\u8fd0\u52a8\u573a\u9986;\u5065\u8eab\u4e2d\u5fc3", "pty": "0801"}}, {"type": "Feature", "geometry": {"type": "Point", "coordinates": [121.48015926239404, 31.228716875468354]}, "properties": {"name": "\u7f8e\u683c\u83f2\u9732\u9999\u56ed\u4f1a\u6240", "biz": "080111 \u4f53\u80b2\u4f11\u95f2\u670d\u52a1;\u8fd0\u52a8\u573a\u9986;\u5065\u8eab\u4e2d\u5fc3", "pty": "0801"}}, {"type": "Feature", "geometry": {"type": "Point", "coordinates": [121.46932756764846, 31.207382482993058]}, "properties": {"name": "\u5a01\u5c14\u58eb\u5065\u8eab\u4ff1\u4e50\u90e8(\u5927\u540c\u82b1\u56ed\u5e97)", "biz": "080111 \u4f53\u80b2\u4f11\u95f2\u670d\u52a1;\u8fd0\u52a8\u573a\u9986;\u5065\u8eab\u4e2d\u5fc3", "pty": "0801"}}, {"type": "Feature", "geometry": {"type": "Point", "coordinates": [121.45679049175087, 31.213929100249608]}, "properties": {"name": "TTS\u683c\u6597\u5065\u8eab\u5de5\u4f5c\u5ba4", "biz": "080111 \u4f53\u80b2\u4f11\u95f2\u670d\u52a1;\u8fd0\u52a8\u573a\u9986;\u5065\u8eab\u4e2d\u5fc3", "pty": "0801"}}, {"type": "Feature", "geometry": {"type": "Point", "coordinates": [121.49354565999613, 31.218428345863845]}, "properties": {"name": "NEW YOU GO\u5065\u8eab\u5de5\u4f5c\u5ba4", "biz": "080111 \u4f53\u80b2\u4f11\u95f2\u670d\u52a1;\u8fd0\u52a8\u573a\u9986;\u5065\u8eab\u4e2d\u5fc3", "pty": "0801"}}, {"type": "Feature", "geometry": {"type": "Point", "coordinates": [121.4631952251006, 31.206328732923456]}, "properties": {"name": "Transform\u65b0\u53d8\u5316\u5065\u8eab\u5de5\u4f5c\u5ba4", "biz": "080111 \u4f53\u80b2\u4f11\u95f2\u670d\u52a1;\u8fd0\u52a8\u573a\u9986;\u5065\u8eab\u4e2d\u5fc3", "pty": "0801"}}, {"type": "Feature", "geometry": {"type": "Point", "coordinates": [121.47280562841362, 31.223693282985348]}, "properties": {"name": "\u7426\u5065\u8eab(\u65b0\u5929\u5730\u5e97)", "biz": "080111 \u4f53\u80b2\u4f11\u95f2\u670d\u52a1;\u8fd0\u52a8\u573a\u9986;\u5065\u8eab\u4e2d\u5fc3", "pty": "0801"}}, {"type": "Feature", "geometry": {"type": "Point", "coordinates": [121.46690553837419, 31.21006766143558]}, "properties": {"name": "ralax\u5065\u8eab\u5de5\u4f5c\u5ba4", "biz": "080111 \u4f53\u80b2\u4f11\u95f2\u670d\u52a1;\u8fd0\u52a8\u573a\u9986;\u5065\u8eab\u4e2d\u5fc3", "pty": "0801"}}, {"type": "Feature", "geometry": {"type": "Point", "coordinates": [121.4835550777018, 31.229481437923702]}, "properties": {"name": "\u8c6b\u56ed\u4e07\u4e3d\u9152\u5e97\u5065\u8eab\u4e2d\u5fc3", "biz": "080111 \u4f53\u80b2\u4f11\u95f2\u670d\u52a1;\u8fd0\u52a8\u573a\u9986;\u5065\u8eab\u4e2d\u5fc3", "pty": "0801"}}, {"type": "Feature", "geometry": {"type": "Point", "coordinates": [121.49331825515195, 31.213550989663982]}, "properties": {"name": "BeniFit\u4f34\u4f60\u5065\u8eab(\u9ec4\u6d66\u5206\u5e97)", "biz": "080111 \u4f53\u80b2\u4f11\u95f2\u670d\u52a1;\u8fd0\u52a8\u573a\u9986;\u5065\u8eab\u4e2d\u5fc3", "pty": "0801"}}, {"type": "Feature", "geometry": {"type": "Point", "coordinates": [121.47976390521366, 31.24026441579692]}, "properties": {"name": "\u4eba\u9a6c\u7ebf\u5168\u56fd\u8fde\u9501\u5065\u8eab(\u6052\u57fa\u540d\u4eba\u5e97)", "biz": "080111 \u4f53\u80b2\u4f11\u95f2\u670d\u52a1;\u8fd0\u52a8\u573a\u9986;\u5065\u8eab\u4e2d\u5fc3", "pty": "0801"}}, {"type": "Feature", "geometry": {"type": "Point", "coordinates": [121.50109858250867, 31.22161845614914]}, "properties": {"name": "\u51ef\u8fea\u65af\u9752\u5c11\u513f\u8fd0\u52a8\u4ff1\u4e50\u90e8", "biz": "080111 \u4f53\u80b2\u4f11\u95f2\u670d\u52a1;\u8fd0\u52a8\u573a\u9986;\u5065\u8eab\u4e2d\u5fc3", "pty": "0801"}}, {"type": "Feature", "geometry": {"type": "Point", "coordinates": [121.46309970976627, 31.208906239700095]}, "properties": {"name": "Aryavarta Yoga\u745c\u4f3d\u9986", "biz": "080111 \u4f53\u80b2\u4f11\u95f2\u670d\u52a1;\u8fd0\u52a8\u573a\u9986;\u5065\u8eab\u4e2d\u5fc3", "pty": "0801"}}, {"type": "Feature", "geometry": {"type": "Point", "coordinates": [121.46874503560394, 31.238228386836656]}, "properties": {"name": "\u96c5\u5c45\u4e50\u4e07\u8c6a\u9152\u5e97-\u5065\u8eab\u4e2d\u5fc3", "biz": "080111 \u4f53\u80b2\u4f11\u95f2\u670d\u52a1;\u8fd0\u52a8\u573a\u9986;\u5065\u8eab\u4e2d\u5fc3", "pty": "0801"}}, {"type": "Feature", "geometry": {"type": "Point", "coordinates": [121.4803689209894, 31.217807614478126]}, "properties": {"name": "\u6267\u7422\u5065\u8eab", "biz": "080111 \u4f53\u80b2\u4f11\u95f2\u670d\u52a1;\u8fd0\u52a8\u573a\u9986;\u5065\u8eab\u4e2d\u5fc3", "pty": "0801"}}, {"type": "Feature", "geometry": {"type": "Point", "coordinates": [121.45485152553026, 31.219327924351827]}, "properties": {"name": "\u90d1\u591a\u71d5(\u767e\u76db\u6dee\u6d77\u8def\u5e97)", "biz": "080111 \u4f53\u80b2\u4f11\u95f2\u670d\u52a1;\u8fd0\u52a8\u573a\u9986;\u5065\u8eab\u4e2d\u5fc3", "pty": "0801"}}, {"type": "Feature", "geometry": {"type": "Point", "coordinates": [121.46823130400813, 31.239064617088108]}, "properties": {"name": "Curves\u5065\u8eab", "biz": "080111 \u4f53\u80b2\u4f11\u95f2\u670d\u52a1;\u8fd0\u52a8\u573a\u9986;\u5065\u8eab\u4e2d\u5fc3", "pty": "0801"}}, {"type": "Feature", "geometry": {"type": "Point", "coordinates": [121.45255673497549, 31.224631122375115]}, "properties": {"name": "\u57ce\u5e02\u9152\u5e97\u5065\u8eab\u4e2d\u5fc3", "biz": "080111 \u4f53\u80b2\u4f11\u95f2\u670d\u52a1;\u8fd0\u52a8\u573a\u9986;\u5065\u8eab\u4e2d\u5fc3", "pty": "0801"}}, {"type": "Feature", "geometry": {"type": "Point", "coordinates": [121.48237652012891, 31.234366721756622]}, "properties": {"name": "\u5a01\u65af\u6c40\u8212\u9002\u5065\u8eab\u4e2d\u5fc3", "biz": "080111 \u4f53\u80b2\u4f11\u95f2\u670d\u52a1;\u8fd0\u52a8\u573a\u9986;\u5065\u8eab\u4e2d\u5fc3", "pty": "0801"}}, {"type": "Feature", "geometry": {"type": "Point", "coordinates": [121.48498915565739, 31.241048347541966]}, "properties": {"name": "\u548c\u5e73\u996d\u5e97-\u5065\u8eab\u4e2d\u5fc3", "biz": "080111 \u4f53\u80b2\u4f11\u95f2\u670d\u52a1;\u8fd0\u52a8\u573a\u9986;\u5065\u8eab\u4e2d\u5fc3", "pty": "0801"}}, {"type": "Feature", "geometry": {"type": "Point", "coordinates": [121.46845368911593, 31.20792984934576]}, "properties": {"name": "\u745c\u820d\u8fde\u9501\u745c\u4f3d\u6559\u5ba4(\u6253\u6d66\u6865\u5e97)", "biz": "080111 \u4f53\u80b2\u4f11\u95f2\u670d\u52a1;\u8fd0\u52a8\u573a\u9986;\u5065\u8eab\u4e2d\u5fc3", "pty": "0801"}}, {"type": "Feature", "geometry": {"type": "Point", "coordinates": [121.47820577179877, 31.23733225735872]}, "properties": {"name": "\u8212\u9002\u5821\u5065\u8eab(\u534e\u76db\u5e7f\u573a\u5e97)", "biz": "080111 \u4f53\u80b2\u4f11\u95f2\u670d\u52a1;\u8fd0\u52a8\u573a\u9986;\u5065\u8eab\u4e2d\u5fc3", "pty": "0801"}}, {"type": "Feature", "geometry": {"type": "Point", "coordinates": [121.47800485937158, 31.22820889262182]}, "properties": {"name": "\u9b54\u517d\u5065\u8eab\u4e2d\u5fc3", "biz": "080111 \u4f53\u80b2\u4f11\u95f2\u670d\u52a1;\u8fd0\u52a8\u573a\u9986;\u5065\u8eab\u4e2d\u5fc3", "pty": "0801"}}, {"type": "Feature", "geometry": {"type": "Point", "coordinates": [121.47335352124357, 31.2112627219864]}, "properties": {"name": "\u4e00\u5146\u97e6\u5fb7(\u6c38\u4e1a\u516c\u5bd3\u5e97)", "biz": "080111 \u4f53\u80b2\u4f11\u95f2\u670d\u52a1;\u8fd0\u52a8\u573a\u9986;\u5065\u8eab\u4e2d\u5fc3", "pty": "0801"}}, {"type": "Feature", "geometry": {"type": "Point", "coordinates": [121.48453835421822, 31.243482914801255]}, "properties": {"name": "\u534a\u5c9b\u9152\u5e97-\u5065\u8eab\u4e2d\u5fc3", "biz": "080111 \u4f53\u80b2\u4f11\u95f2\u670d\u52a1;\u8fd0\u52a8\u573a\u9986;\u5065\u8eab\u4e2d\u5fc3", "pty": "0801"}}, {"type": "Feature", "geometry": {"type": "Point", "coordinates": [121.46520208526937, 31.199133468602362]}, "properties": {"name": "Innostudio\u4e00\u8bfa\u79c1\u6559\u5065\u8eab\u5de5\u4f5c\u5ba4(\u6253\u6d66\u6865\u5e97)", "biz": "080111 \u4f53\u80b2\u4f11\u95f2\u670d\u52a1;\u8fd0\u52a8\u573a\u9986;\u5065\u8eab\u4e2d\u5fc3", "pty": "0801"}}, {"type": "Feature", "geometry": {"type": "Point", "coordinates": [121.46404546696608, 31.222515197926807]}, "properties": {"name": "\u8212\u9002\u5821(\u9526\u6c5f\u5e97)", "biz": "080111 \u4f53\u80b2\u4f11\u95f2\u670d\u52a1;\u8fd0\u52a8\u573a\u9986;\u5065\u8eab\u4e2d\u5fc3", "pty": "0801"}}, {"type": "Feature", "geometry": {"type": "Point", "coordinates": [121.46942288750469, 31.19558151215821]}, "properties": {"name": "\u8212\u9002\u5821(\u6d77\u5916\u6ee9\u5e97)", "biz": "080111 \u4f53\u80b2\u4f11\u95f2\u670d\u52a1;\u8fd0\u52a8\u573a\u9986;\u5065\u8eab\u4e2d\u5fc3", "pty": "0801"}}, {"type": "Feature", "geometry": {"type": "Point", "coordinates": [121.46830364442287, 31.23781538250406]}, "properties": {"name": "\u4eba\u9a6c\u541bFITSTART(\u4eba\u6c11\u5e7f\u573a\u5e97)", "biz": "080111 \u4f53\u80b2\u4f11\u95f2\u670d\u52a1;\u8fd0\u52a8\u573a\u9986;\u5065\u8eab\u4e2d\u5fc3", "pty": "0801"}}, {"type": "Feature", "geometry": {"type": "Point", "coordinates": [121.46451528780696, 31.2066869851794]}, "properties": {"name": "\u6d77\u534e\u5065\u8eab\u623f", "biz": "080111 \u4f53\u80b2\u4f11\u95f2\u670d\u52a1;\u8fd0\u52a8\u573a\u9986;\u5065\u8eab\u4e2d\u5fc3", "pty": "0801"}}, {"type": "Feature", "geometry": {"type": "Point", "coordinates": [121.48917426450936, 31.20320859741777]}, "properties": {"name": "MOFit\u79d1\u6280\u5065\u8eab(\u9ec4\u6d66\u5e97)", "biz": "080111 \u4f53\u80b2\u4f11\u95f2\u670d\u52a1;\u8fd0\u52a8\u573a\u9986;\u5065\u8eab\u4e2d\u5fc3", "pty": "0801"}}, {"type": "Feature", "geometry": {"type": "Point", "coordinates": [121.4744259898876, 31.22451443794911]}, "properties": {"name": "Hercules\u5065\u8eab\u8ba2\u5236\u5de5\u4f5c\u5ba4(\u65b0\u5929\u5730\u5e97)", "biz": "080111 \u4f53\u80b2\u4f11\u95f2\u670d\u52a1;\u8fd0\u52a8\u573a\u9986;\u5065\u8eab\u4e2d\u5fc3", "pty": "0801"}}, {"type": "Feature", "geometry": {"type": "Point", "coordinates": [121.47499791148658, 31.236318575899787]}, "properties": {"name": "\u5eb7\u4e50\u5065\u8eab\u4e2d\u5fc3", "biz": "080111 \u4f53\u80b2\u4f11\u95f2\u670d\u52a1;\u8fd0\u52a8\u573a\u9986;\u5065\u8eab\u4e2d\u5fc3", "pty": "0801"}}, {"type": "Feature", "geometry": {"type": "Point", "coordinates": [121.4732654124612, 31.23248047211642]}, "properties": {"name": "\u53cc\u5143\u8bba\u745c\u4f3d\u5065\u8eab\u9986", "biz": "080111 \u4f53\u80b2\u4f11\u95f2\u670d\u52a1;\u8fd0\u52a8\u573a\u9986;\u5065\u8eab\u4e2d\u5fc3", "pty": "0801"}}, {"type": "Feature", "geometry": {"type": "Point", "coordinates": [121.480626802424, 31.21799127642017]}, "properties": {"name": "\u60a6\u5e73\u5065\u8eab\u5de5\u4f5c\u5ba4(\u6b63\u9aa8\u62c9\u4f38\u5eb7\u590d\u62f3\u51fb)", "biz": "080111 \u4f53\u80b2\u4f11\u95f2\u670d\u52a1;\u8fd0\u52a8\u573a\u9986;\u5065\u8eab\u4e2d\u5fc3", "pty": "0801"}}, {"type": "Feature", "geometry": {"type": "Point", "coordinates": [121.45955899553923, 31.209028221351545]}, "properties": {"name": "\u4e2d\u5efa\u94f6\u5ea7\u5065\u8eab\u4ff1\u4e50\u90e8", "biz": "080111 \u4f53\u80b2\u4f11\u95f2\u670d\u52a1;\u8fd0\u52a8\u573a\u9986;\u5065\u8eab\u4e2d\u5fc3", "pty": "0801"}}, {"type": "Feature", "geometry": {"type": "Point", "coordinates": [121.46144481990983, 31.24193254730989]}, "properties": {"name": "\u65b9\u591c\u8e22\u8e0f\u821e", "biz": "080111 \u4f53\u80b2\u4f11\u95f2\u670d\u52a1;\u8fd0\u52a8\u573a\u9986;\u5065\u8eab\u4e2d\u5fc3", "pty": "0801"}}, {"type": "Feature", "geometry": {"type": "Point", "coordinates": [121.47399053098832, 31.22444024801329]}, "properties": {"name": "\u9646\u5ba4\u5065\u8eab\u79c1\u6559", "biz": "080111 \u4f53\u80b2\u4f11\u95f2\u670d\u52a1;\u8fd0\u52a8\u573a\u9986;\u5065\u8eab\u4e2d\u5fc3", "pty": "0801"}}, {"type": "Feature", "geometry": {"type": "Point", "coordinates": [121.459678859187, 31.214754769466047]}, "properties": {"name": "\u745e\u91d1\u6d32\u9645\u9152\u5e97-\u5065\u8eab\u4e2d\u5fc3", "biz": "080111 \u4f53\u80b2\u4f11\u95f2\u670d\u52a1;\u8fd0\u52a8\u573a\u9986;\u5065\u8eab\u4e2d\u5fc3", "pty": "0801"}}, {"type": "Feature", "geometry": {"type": "Point", "coordinates": [121.47312996098333, 31.23246410111936]}, "properties": {"name": "\u68b5\u7075\u745c\u4f3d(\u4eba\u6c11\u5e7f\u573a\u5e97)", "biz": "080111 \u4f53\u80b2\u4f11\u95f2\u670d\u52a1;\u8fd0\u52a8\u573a\u9986;\u5065\u8eab\u4e2d\u5fc3", "pty": "0801"}}, {"type": "Feature", "geometry": {"type": "Point", "coordinates": [121.47813664791845, 31.212557671350893]}, "properties": {"name": "Sankhya\u745c\u4f3d(\u5927\u6797\u5e97)", "biz": "080111 \u4f53\u80b2\u4f11\u95f2\u670d\u52a1;\u8fd0\u52a8\u573a\u9986;\u5065\u8eab\u4e2d\u5fc3", "pty": "0801"}}, {"type": "Feature", "geometry": {"type": "Point", "coordinates": [121.4749858717179, 31.236307546935386]}, "properties": {"name": "\u53e4\u8c61\u5927\u9152\u5e97-\u5065\u8eab\u4e2d\u5fc3", "biz": "080111 \u4f53\u80b2\u4f11\u95f2\u670d\u52a1;\u8fd0\u52a8\u573a\u9986;\u5065\u8eab\u4e2d\u5fc3", "pty": "0801"}}, {"type": "Feature", "geometry": {"type": "Point", "coordinates": [121.4583482561425, 31.222665733962458]}, "properties": {"name": "\u9526\u4e50\u5065\u8eab\u4f1a\u6240", "biz": "080111 \u4f53\u80b2\u4f11\u95f2\u670d\u52a1;\u8fd0\u52a8\u573a\u9986;\u5065\u8eab\u4e2d\u5fc3", "pty": "0801"}}, {"type": "Feature", "geometry": {"type": "Point", "coordinates": [121.4732952345418, 31.200632716827226]}, "properties": {"name": "\u4e50\u523b\u8fd0\u52a8\u5065\u8eab(\u6c47\u749f\u5e7f\u573a\u5e97)", "biz": "080111 \u4f53\u80b2\u4f11\u95f2\u670d\u52a1;\u8fd0\u52a8\u573a\u9986;\u5065\u8eab\u4e2d\u5fc3", "pty": "0801"}}, {"type": "Feature", "geometry": {"type": "Point", "coordinates": [121.47378060041595, 31.2270794234444]}, "properties": {"name": "\u4e00\u5146\u97e6\u5fb7(\u4e0a\u6d77\u5e7f\u573a)", "biz": "080111 \u4f53\u80b2\u4f11\u95f2\u670d\u52a1;\u8fd0\u52a8\u573a\u9986;\u5065\u8eab\u4e2d\u5fc3", "pty": "0801"}}, {"type": "Feature", "geometry": {"type": "Point", "coordinates": [121.46597006995319, 31.227539891451116]}, "properties": {"name": "MyPT\u7f8e\u9b44\u7279\u7cbe\u54c1\u5065\u8eab\u9986(1322\u5e97)", "biz": "080111 \u4f53\u80b2\u4f11\u95f2\u670d\u52a1;\u8fd0\u52a8\u573a\u9986;\u5065\u8eab\u4e2d\u5fc3", "pty": "0801"}}, {"type": "Feature", "geometry": {"type": "Point", "coordinates": [121.4865346794004, 31.217036087772446]}, "properties": {"name": "PE\u5065\u8eab\u5de5\u4f5c\u5ba4(\u9ec4\u6d66\u5e97)", "biz": "080111 \u4f53\u80b2\u4f11\u95f2\u670d\u52a1;\u8fd0\u52a8\u573a\u9986;\u5065\u8eab\u4e2d\u5fc3", "pty": "0801"}}, {"type": "Feature", "geometry": {"type": "Point", "coordinates": [121.478500432173, 31.218048097397187]}, "properties": {"name": "\u8001\u897f\u95e8\u65b0\u82d1\u4f1a\u6240", "biz": "080111 \u4f53\u80b2\u4f11\u95f2\u670d\u52a1;\u8fd0\u52a8\u573a\u9986;\u5065\u8eab\u4e2d\u5fc3", "pty": "0801"}}, {"type": "Feature", "geometry": {"type": "Point", "coordinates": [121.49101940075656, 31.20877740425016]}, "properties": {"name": "\u597d\u5e2e\u624b\u534a\u6dde\u56ed\u4e50\u9f84\u5065\u751f\u9986", "biz": "080111 \u4f53\u80b2\u4f11\u95f2\u670d\u52a1;\u8fd0\u52a8\u573a\u9986;\u5065\u8eab\u4e2d\u5fc3", "pty": "0801"}}, {"type": "Feature", "geometry": {"type": "Point", "coordinates": [121.47138295861262, 31.223094617214013]}, "properties": {"name": "\u745c\u4f3d\u7406\u5ff5\u4f1a\u6240", "biz": "080111 \u4f53\u80b2\u4f11\u95f2\u670d\u52a1;\u8fd0\u52a8\u573a\u9986;\u5065\u8eab\u4e2d\u5fc3", "pty": "0801"}}, {"type": "Feature", "geometry": {"type": "Point", "coordinates": [121.479048452244, 31.228261872856763]}, "properties": {"name": "\u640f\u6bc5\u79c1\u4eba\u5065\u8eab\u4f1a\u9986", "biz": "080111 \u4f53\u80b2\u4f11\u95f2\u670d\u52a1;\u8fd0\u52a8\u573a\u9986;\u5065\u8eab\u4e2d\u5fc3", "pty": "0801"}}, {"type": "Feature", "geometry": {"type": "Point", "coordinates": [121.48385250331059, 31.21329395202953]}, "properties": {"name": "\u9ea6\u8212\u745c\u4f3d(\u9646\u5bb6\u6d5c\u8def\u5e97)", "biz": "080111 \u4f53\u80b2\u4f11\u95f2\u670d\u52a1;\u8fd0\u52a8\u573a\u9986;\u5065\u8eab\u4e2d\u5fc3", "pty": "0801"}}, {"type": "Feature", "geometry": {"type": "Point", "coordinates": [121.46648023569028, 31.20947581430105]}, "properties": {"name": "\u963f\u6839\u5ef7\u63a2\u6208\u4ff1\u4e50\u90e8", "biz": "080111 \u4f53\u80b2\u4f11\u95f2\u670d\u52a1;\u8fd0\u52a8\u573a\u9986;\u5065\u8eab\u4e2d\u5fc3", "pty": "0801"}}, {"type": "Feature", "geometry": {"type": "Point", "coordinates": [121.48208910282817, 31.23917867673037]}, "properties": {"name": "\u8d85\u7ea7\u7329\u7329\u5065\u8eab(\u5357\u4eac\u4e1c\u8def\u7c73\u57df\u5e97)", "biz": "080111 \u4f53\u80b2\u4f11\u95f2\u670d\u52a1;\u8fd0\u52a8\u573a\u9986;\u5065\u8eab\u4e2d\u5fc3", "pty": "0801"}}, {"type": "Feature", "geometry": {"type": "Point", "coordinates": [121.45554201075605, 31.2246530413757]}, "properties": {"name": "\u7f8e\u683c\u745c\u4f3d\u5065\u8eab\u9986", "biz": "080111 \u4f53\u80b2\u4f11\u95f2\u670d\u52a1;\u8fd0\u52a8\u573a\u9986;\u5065\u8eab\u4e2d\u5fc3", "pty": "0801"}}, {"type": "Feature", "geometry": {"type": "Point", "coordinates": [121.47634037052111, 31.237470856359657]}, "properties": {"name": "\u4e0a\u6d77\u7d22\u83f2\u7279\u6d77\u4ed1\u5bbe\u9986-\u5065\u8eab\u4e2d\u5fc3", "biz": "080111 \u4f53\u80b2\u4f11\u95f2\u670d\u52a1;\u8fd0\u52a8\u573a\u9986;\u5065\u8eab\u4e2d\u5fc3", "pty": "0801"}}, {"type": "Feature", "geometry": {"type": "Point", "coordinates": [121.46579818984128, 31.208144649649874]}, "properties": {"name": "\u661f\u7a7a\u821e\u8e48(\u6253\u6d66\u6865\u5e97)", "biz": "080111 \u4f53\u80b2\u4f11\u95f2\u670d\u52a1;\u8fd0\u52a8\u573a\u9986;\u5065\u8eab\u4e2d\u5fc3", "pty": "0801"}}, {"type": "Feature", "geometry": {"type": "Point", "coordinates": [121.47217964406532, 31.23422864073237]}, "properties": {"name": "\u8212\u9002\u5821(\u6765\u798f\u58eb\u5e7f\u573a)", "biz": "080111|070000 \u4f53\u80b2\u4f11\u95f2\u670d\u52a1;\u8fd0\u52a8\u573a\u9986;\u5065\u8eab\u4e2d\u5fc3|\u751f\u6d3b\u670d\u52a1;\u751f\u6d3b\u670d\u52a1\u573a\u6240;\u751f\u6d3b\u670d\u52a1\u573a\u6240", "pty": "0801"}}, {"type": "Feature", "geometry": {"type": "Point", "coordinates": [121.47634035869636, 31.23760879323899]}, "properties": {"name": "\u6e90\u6c34\u7597\u53ca\u5065\u8eab\u4e2d\u5fc3", "biz": "080111 \u4f53\u80b2\u4f11\u95f2\u670d\u52a1;\u8fd0\u52a8\u573a\u9986;\u5065\u8eab\u4e2d\u5fc3", "pty": "0801"}}, {"type": "Feature", "geometry": {"type": "Point", "coordinates": [121.47980537318668, 31.201273952418244]}, "properties": {"name": "\u6208\u67cf\u5065\u8eab", "biz": "080111 \u4f53\u80b2\u4f11\u95f2\u670d\u52a1;\u8fd0\u52a8\u573a\u9986;\u5065\u8eab\u4e2d\u5fc3", "pty": "0801"}}, {"type": "Feature", "geometry": {"type": "Point", "coordinates": [121.47965151813762, 31.240234104206024]}, "properties": {"name": "\u4eba\u9a6c\u7ebf\u5168\u56fd\u8fde\u9501\u79c1\u6559\u5de5\u4f5c\u5ba4(\u6052\u57fa\u540d\u4eba\u8d2d\u7269\u4e2d\u5fc3)", "biz": "080111 \u4f53\u80b2\u4f11\u95f2\u670d\u52a1;\u8fd0\u52a8\u573a\u9986;\u5065\u8eab\u4e2d\u5fc3", "pty": "0801"}}, {"type": "Feature", "geometry": {"type": "Point", "coordinates": [121.47039649933325, 31.22558873249576]}, "properties": {"name": "DIGPOTENCY(\u9999\u6e2f\u5e7f\u573a\u8d2d\u7269\u4e2d\u5fc3\u5317\u533a)", "biz": "080111 \u4f53\u80b2\u4f11\u95f2\u670d\u52a1;\u8fd0\u52a8\u573a\u9986;\u5065\u8eab\u4e2d\u5fc3", "pty": "0801"}}, {"type": "Feature", "geometry": {"type": "Point", "coordinates": [121.46650129461612, 31.209568825425084]}, "properties": {"name": "\u6d77\u7f18\u745c\u4f3d", "biz": "080111 \u4f53\u80b2\u4f11\u95f2\u670d\u52a1;\u8fd0\u52a8\u573a\u9986;\u5065\u8eab\u4e2d\u5fc3", "pty": "0801"}}, {"type": "Feature", "geometry": {"type": "Point", "coordinates": [121.47360228285298, 31.223798460152146]}, "properties": {"name": "\u4efb\u745c\u4f3d", "biz": "080111 \u4f53\u80b2\u4f11\u95f2\u670d\u52a1;\u8fd0\u52a8\u573a\u9986;\u5065\u8eab\u4e2d\u5fc3", "pty": "0801"}}, {"type": "Feature", "geometry": {"type": "Point", "coordinates": [121.4762271464266, 31.212158401605638]}, "properties": {"name": "FineYoga\u68b5\u97f3\u745c\u4f3d(\u9a6c\u5f53\u8def\u5e97)", "biz": "080111 \u4f53\u80b2\u4f11\u95f2\u670d\u52a1;\u8fd0\u52a8\u573a\u9986;\u5065\u8eab\u4e2d\u5fc3", "pty": "0801"}}, {"type": "Feature", "geometry": {"type": "Point", "coordinates": [121.46589786808919, 31.227231844201093]}, "properties": {"name": "MYPT GYM\u745c\u4f3d\u5065\u8eab", "biz": "080111 \u4f53\u80b2\u4f11\u95f2\u670d\u52a1;\u8fd0\u52a8\u573a\u9986;\u5065\u8eab\u4e2d\u5fc3", "pty": "0801"}}, {"type": "Feature", "geometry": {"type": "Point", "coordinates": [121.48035948749127, 31.234237900730584]}, "properties": {"name": "\u5c0f\u9ed1\u88d9\u745c\u4f3d(\u6469\u820d\u5206\u9986)", "biz": "080111 \u4f53\u80b2\u4f11\u95f2\u670d\u52a1;\u8fd0\u52a8\u573a\u9986;\u5065\u8eab\u4e2d\u5fc3", "pty": "0801"}}, {"type": "Feature", "geometry": {"type": "Point", "coordinates": [121.46577336609741, 31.205174023693097]}, "properties": {"name": "FineYoga\u68b5\u97f3\u745c\u4f3d(\u6253\u6d66\u6865\u5e97)", "biz": "080111 \u4f53\u80b2\u4f11\u95f2\u670d\u52a1;\u8fd0\u52a8\u573a\u9986;\u5065\u8eab\u4e2d\u5fc3", "pty": "0801"}}, {"type": "Feature", "geometry": {"type": "Point", "coordinates": [121.47568785818481, 31.229192819760513]}, "properties": {"name": "\u5149\u732aTM\u5708\u5065\u8eab(\u4e9a\u9f99\u56fd\u9645\u5e7f\u573a)", "biz": "080111 \u4f53\u80b2\u4f11\u95f2\u670d\u52a1;\u8fd0\u52a8\u573a\u9986;\u5065\u8eab\u4e2d\u5fc3", "pty": "0801"}}, {"type": "Feature", "geometry": {"type": "Point", "coordinates": [121.46914143539922, 31.225221479527537]}, "properties": {"name": "VILAB\u5065\u8eab\u4f53\u9a8c\u4e2d\u5fc3", "biz": "080111 \u4f53\u80b2\u4f11\u95f2\u670d\u52a1;\u8fd0\u52a8\u573a\u9986;\u5065\u8eab\u4e2d\u5fc3", "pty": "0801"}}, {"type": "Feature", "geometry": {"type": "Point", "coordinates": [121.46865489895336, 31.236418970753217]}, "properties": {"name": "\u65b0\u4e16\u754c\u4e3d\u7b19\u5927\u9152\u5e97-\u5065\u8eab\u4e2d\u5fc3", "biz": "080111 \u4f53\u80b2\u4f11\u95f2\u670d\u52a1;\u8fd0\u52a8\u573a\u9986;\u5065\u8eab\u4e2d\u5fc3", "pty": "0801"}}, {"type": "Feature", "geometry": {"type": "Point", "coordinates": [121.467642990414, 31.208974161879578]}, "properties": {"name": "BT\u5065\u8eab\u5de5\u4f5c\u5ba4(\u659c\u5f90\u8def\u5e97)", "biz": "080111 \u4f53\u80b2\u4f11\u95f2\u670d\u52a1;\u8fd0\u52a8\u573a\u9986;\u5065\u8eab\u4e2d\u5fc3", "pty": "0801"}}, {"type": "Feature", "geometry": {"type": "Point", "coordinates": [121.4739829811018, 31.207173459438398]}, "properties": {"name": "\u6253\u6d66\u6865\u8857\u9053\u4f53\u80b2\u5065\u8eab\u4ff1\u4e50\u90e8", "biz": "080111 \u4f53\u80b2\u4f11\u95f2\u670d\u52a1;\u8fd0\u52a8\u573a\u9986;\u5065\u8eab\u4e2d\u5fc3", "pty": "0801"}}, {"type": "Feature", "geometry": {"type": "Point", "coordinates": [121.4820573035581, 31.212037289745105]}, "properties": {"name": "\u8fd0\u52a8\u5065\u8eab\u821e\u8e48\u745c\u4f3d", "biz": "080111 \u4f53\u80b2\u4f11\u95f2\u670d\u52a1;\u8fd0\u52a8\u573a\u9986;\u5065\u8eab\u4e2d\u5fc3", "pty": "0801"}}, {"type": "Feature", "geometry": {"type": "Point", "coordinates": [121.47233612518116, 31.222993305289155]}, "properties": {"name": "\u91d1\u65af\u5821\u6e38\u6cf3\u745c\u4f3d\u9986", "biz": "080111 \u4f53\u80b2\u4f11\u95f2\u670d\u52a1;\u8fd0\u52a8\u573a\u9986;\u5065\u8eab\u4e2d\u5fc3", "pty": "0801"}}, {"type": "Feature", "geometry": {"type": "Point", "coordinates": [121.47450438510576, 31.222981379101917]}, "properties": {"name": "\u4e0a\u6d77Y\u52a0\u745c\u4f3d", "biz": "080111 \u4f53\u80b2\u4f11\u95f2\u670d\u52a1;\u8fd0\u52a8\u573a\u9986;\u5065\u8eab\u4e2d\u5fc3", "pty": "0801"}}, {"type": "Feature", "geometry": {"type": "Point", "coordinates": [121.47271055812547, 31.220809376871028]}, "properties": {"name": "\u529b\u4e91\u5065\u8eab\u4f1a\u6240", "biz": "080111 \u4f53\u80b2\u4f11\u95f2\u670d\u52a1;\u8fd0\u52a8\u573a\u9986;\u5065\u8eab\u4e2d\u5fc3", "pty": "0801"}}, {"type": "Feature", "geometry": {"type": "Point", "coordinates": [121.46675409961047, 31.2095575036216]}, "properties": {"name": "\u970e\u54c8\u5609\u745c\u4f3d", "biz": "080111 \u4f53\u80b2\u4f11\u95f2\u670d\u52a1;\u8fd0\u52a8\u573a\u9986;\u5065\u8eab\u4e2d\u5fc3", "pty": "0801"}}, {"type": "Feature", "geometry": {"type": "Point", "coordinates": [121.46584401848027, 31.21183199418319]}, "properties": {"name": "\u4f3d\u4fe1\u745c\u4f3d", "biz": "080111 \u4f53\u80b2\u4f11\u95f2\u670d\u52a1;\u8fd0\u52a8\u573a\u9986;\u5065\u8eab\u4e2d\u5fc3", "pty": "0801"}}, {"type": "Feature", "geometry": {"type": "Point", "coordinates": [121.48654270776079, 31.2170381106109]}, "properties": {"name": "\u9a90\u60a6\u5065\u8eab", "biz": "080111 \u4f53\u80b2\u4f11\u95f2\u670d\u52a1;\u8fd0\u52a8\u573a\u9986;\u5065\u8eab\u4e2d\u5fc3", "pty": "0801"}}, {"type": "Feature", "geometry": {"type": "Point", "coordinates": [121.4707582488101, 31.21902381847462]}, "properties": {"name": "\u8d85\u7ea7\u7329\u7329\u5065\u8eab(\u4e0a\u6d77\u65b0\u5929\u5730\u65f6\u5c1a\u5e97)", "biz": "080111 \u4f53\u80b2\u4f11\u95f2\u670d\u52a1;\u8fd0\u52a8\u573a\u9986;\u5065\u8eab\u4e2d\u5fc3", "pty": "0801"}}, {"type": "Feature", "geometry": {"type": "Point", "coordinates": [121.4655453016774, 31.220863903550285]}, "properties": {"name": "soulyiga\u745c\u4f3d\u4f1a\u6240", "biz": "080111 \u4f53\u80b2\u4f11\u95f2\u670d\u52a1;\u8fd0\u52a8\u573a\u9986;\u5065\u8eab\u4e2d\u5fc3", "pty": "0801"}}, {"type": "Feature", "geometry": {"type": "Point", "coordinates": [121.47199593674429, 31.235369606345603]}, "properties": {"name": "\u4e0a\u6d77\u626c\u5b50\u7cbe\u54c1\u9152\u5e97-\u5065\u8eab\u4f1a\u6240", "biz": "080111 \u4f53\u80b2\u4f11\u95f2\u670d\u52a1;\u8fd0\u52a8\u573a\u9986;\u5065\u8eab\u4e2d\u5fc3", "pty": "0801"}}, {"type": "Feature", "geometry": {"type": "Point", "coordinates": [121.47259119819996, 31.208672842400045]}, "properties": {"name": "UFO\u5065\u8eab\u5de5\u4f5c\u5ba4", "biz": "080111 \u4f53\u80b2\u4f11\u95f2\u670d\u52a1;\u8fd0\u52a8\u573a\u9986;\u5065\u8eab\u4e2d\u5fc3", "pty": "0801"}}, {"type": "Feature", "geometry": {"type": "Point", "coordinates": [121.48654270776079, 31.2170381106109]}, "properties": {"name": "\u4e0a\u6d77\u9a7f\u5bb6\u5065\u8eab\u5de5\u4f5c\u5ba4", "biz": "080111 \u4f53\u80b2\u4f11\u95f2\u670d\u52a1;\u8fd0\u52a8\u573a\u9986;\u5065\u8eab\u4e2d\u5fc3", "pty": "0801"}}, {"type": "Feature", "geometry": {"type": "Point", "coordinates": [121.46749853168902, 31.208922799199964]}, "properties": {"name": "\u7ea2\u8f69\u9ad8\u7ea7\u5065\u8eab\u4f1a\u6240", "biz": "080111 \u4f53\u80b2\u4f11\u95f2\u670d\u52a1;\u8fd0\u52a8\u573a\u9986;\u5065\u8eab\u4e2d\u5fc3", "pty": "0801"}}, {"type": "Feature", "geometry": {"type": "Point", "coordinates": [121.47814054246236, 31.202224683885554]}, "properties": {"name": "\u5362\u5de5\u4f53\u80b2\u573a-\u4e52\u4e53\u9986", "biz": "080112 \u4f53\u80b2\u4f11\u95f2\u670d\u52a1;\u8fd0\u52a8\u573a\u9986;\u4e52\u4e53\u7403\u9986", "pty": "0801"}}, {"type": "Feature", "geometry": {"type": "Point", "coordinates": [121.49915152797988, 31.210394986113094]}, "properties": {"name": "\u4e0a\u6d77\u603b\u5de5\u4f1a\u9ec4\u6d66\u533a\u5de5\u4eba\u4f53\u80b2\u9986\u4e52\u4e53\u7403\u9986", "biz": "080112 \u4f53\u80b2\u4f11\u95f2\u670d\u52a1;\u8fd0\u52a8\u573a\u9986;\u4e52\u4e53\u7403\u9986", "pty": "0801"}}, {"type": "Feature", "geometry": {"type": "Point", "coordinates": [121.45971069713084, 31.20610401320605]}, "properties": {"name": "\u5f20\u5fb7\u82f1\u4e52\u4e53\u4e2d\u5fc3", "biz": "080112 \u4f53\u80b2\u4f11\u95f2\u670d\u52a1;\u8fd0\u52a8\u573a\u9986;\u4e52\u4e53\u7403\u9986", "pty": "0801"}}, {"type": "Feature", "geometry": {"type": "Point", "coordinates": [121.4766860630275, 31.231461606967585]}, "properties": {"name": "\u6c38\u5b81\u53f0\u7403", "biz": "080113 \u4f53\u80b2\u4f11\u95f2\u670d\u52a1;\u8fd0\u52a8\u573a\u9986;\u53f0\u7403\u5385", "pty": "0801"}}, {"type": "Feature", "geometry": {"type": "Point", "coordinates": [121.46342189405298, 31.206681147286535]}, "properties": {"name": "\u65b0\u65b0\u684c\u7403\u68cb\u724c(\u5f90\u5bb6\u6c47\u8def)", "biz": "080113 \u4f53\u80b2\u4f11\u95f2\u670d\u52a1;\u8fd0\u52a8\u573a\u9986;\u53f0\u7403\u5385", "pty": "0801"}}, {"type": "Feature", "geometry": {"type": "Point", "coordinates": [121.49351499396178, 31.213184754557005]}, "properties": {"name": "\u4e45\u65af\u53f0\u7403\u4ff1\u4e50\u90e8(\u9646\u5bb6\u6d5c\u8def\u5e97)", "biz": "080113 \u4f53\u80b2\u4f11\u95f2\u670d\u52a1;\u8fd0\u52a8\u573a\u9986;\u53f0\u7403\u5385", "pty": "0801"}}, {"type": "Feature", "geometry": {"type": "Point", "coordinates": [121.49387414252715, 31.214882018800086]}, "properties": {"name": "\u666e\u4f70\u53f0\u7403\u4ff1\u4e50\u90e8", "biz": "080113 \u4f53\u80b2\u4f11\u95f2\u670d\u52a1;\u8fd0\u52a8\u573a\u9986;\u53f0\u7403\u5385", "pty": "0801"}}, {"type": "Feature", "geometry": {"type": "Point", "coordinates": [121.47162200037549, 31.20846025572479]}, "properties": {"name": "\u4f9d\u8fbe\u53f0\u7403\u4ff1\u4e50\u90e8", "biz": "080113 \u4f53\u80b2\u4f11\u95f2\u670d\u52a1;\u8fd0\u52a8\u573a\u9986;\u53f0\u7403\u5385", "pty": "0801"}}, {"type": "Feature", "geometry": {"type": "Point", "coordinates": [121.47411301597919, 31.235280558316884]}, "properties": {"name": "\u541b\u5b89\u684c\u7403", "biz": "080113 \u4f53\u80b2\u4f11\u95f2\u670d\u52a1;\u8fd0\u52a8\u573a\u9986;\u53f0\u7403\u5385", "pty": "0801"}}, {"type": "Feature", "geometry": {"type": "Point", "coordinates": [121.47017316424873, 31.209272876820833]}, "properties": {"name": "\u5de8\u7acb\u5f39\u5b50\u623f", "biz": "080113|070000 \u4f53\u80b2\u4f11\u95f2\u670d\u52a1;\u8fd0\u52a8\u573a\u9986;\u53f0\u7403\u5385|\u751f\u6d3b\u670d\u52a1;\u751f\u6d3b\u670d\u52a1\u573a\u6240;\u751f\u6d3b\u670d\u52a1\u573a\u6240", "pty": "0801"}}, {"type": "Feature", "geometry": {"type": "Point", "coordinates": [121.4779654485637, 31.207993377612304]}, "properties": {"name": "\u963f\u534e\u53f0\u7403", "biz": "080113 \u4f53\u80b2\u4f11\u95f2\u670d\u52a1;\u8fd0\u52a8\u573a\u9986;\u53f0\u7403\u5385", "pty": "0801"}}, {"type": "Feature", "geometry": {"type": "Point", "coordinates": [121.4605521788843, 31.206451947036335]}, "properties": {"name": "\u9996\u5a01\u53f0\u7403\u4ff1\u4e50\u90e8", "biz": "080113 \u4f53\u80b2\u4f11\u95f2\u670d\u52a1;\u8fd0\u52a8\u573a\u9986;\u53f0\u7403\u5385", "pty": "0801"}}, {"type": "Feature", "geometry": {"type": "Point", "coordinates": [121.47784239979498, 31.215332498695478]}, "properties": {"name": "\u6770\u68ee\u5065\u8eab(77\u516c\u9986\u5e97)", "biz": "080113 \u4f53\u80b2\u4f11\u95f2\u670d\u52a1;\u8fd0\u52a8\u573a\u9986;\u53f0\u7403\u5385", "pty": "0801"}}, {"type": "Feature", "geometry": {"type": "Point", "coordinates": [121.47343073206545, 31.23521267573535]}, "properties": {"name": "\u7f8e\u597d\u65f6\u5149\u6c47\u4f73\u684c\u7403", "biz": "080113 \u4f53\u80b2\u4f11\u95f2\u670d\u52a1;\u8fd0\u52a8\u573a\u9986;\u53f0\u7403\u5385", "pty": "0801"}}, {"type": "Feature", "geometry": {"type": "Point", "coordinates": [121.46865489895336, 31.236418970753217]}, "properties": {"name": "\u65b0\u4e16\u754c\u4e3d\u7b19\u5927\u9152\u5e97-\u684c\u7403\u5ba4", "biz": "080113 \u4f53\u80b2\u4f11\u95f2\u670d\u52a1;\u8fd0\u52a8\u573a\u9986;\u53f0\u7403\u5385", "pty": "0801"}}, {"type": "Feature", "geometry": {"type": "Point", "coordinates": [121.47401561501538, 31.236139890146422]}, "properties": {"name": "\u7687\u704c\u53f0\u7403\u623f", "biz": "080113 \u4f53\u80b2\u4f11\u95f2\u670d\u52a1;\u8fd0\u52a8\u573a\u9986;\u53f0\u7403\u5385", "pty": "0801"}}, {"type": "Feature", "geometry": {"type": "Point", "coordinates": [121.47694245043186, 31.237182705317995]}, "properties": {"name": "\u4e0a\u6d77\u5927\u9152\u5e97-\u684c\u7403\u623f", "biz": "080113 \u4f53\u80b2\u4f11\u95f2\u670d\u52a1;\u8fd0\u52a8\u573a\u9986;\u53f0\u7403\u5385", "pty": "0801"}}, {"type": "Feature", "geometry": {"type": "Point", "coordinates": [121.49580088285123, 31.21721668180327]}, "properties": {"name": "\u4e8c\u697c\u53f0\u7403", "biz": "080113 \u4f53\u80b2\u4f11\u95f2\u670d\u52a1;\u8fd0\u52a8\u573a\u9986;\u53f0\u7403\u5385", "pty": "0801"}}, {"type": "Feature", "geometry": {"type": "Point", "coordinates": [121.49580088285123, 31.21721668180327]}, "properties": {"name": "\u5929\u798f\u53f0\u7403", "biz": "080113 \u4f53\u80b2\u4f11\u95f2\u670d\u52a1;\u8fd0\u52a8\u573a\u9986;\u53f0\u7403\u5385", "pty": "0801"}}, {"type": "Feature", "geometry": {"type": "Point", "coordinates": [121.4997075708097, 31.209899888299713]}, "properties": {"name": "\u4e52\u4e53\u7403\u9986\u4fdd\u9f84\u7403\u9986\u53f0\u7403\u9986", "biz": "080113 \u4f53\u80b2\u4f11\u95f2\u670d\u52a1;\u8fd0\u52a8\u573a\u9986;\u53f0\u7403\u5385", "pty": "0801"}}, {"type": "Feature", "geometry": {"type": "Point", "coordinates": [121.4739222933376, 31.2362345846354]}, "properties": {"name": "\u4e2d\u798f\u5927\u9152\u5e97-\u684c\u7403\u5ba4", "biz": "080113 \u4f53\u80b2\u4f11\u95f2\u670d\u52a1;\u8fd0\u52a8\u573a\u9986;\u53f0\u7403\u5385", "pty": "0801"}}, {"type": "Feature", "geometry": {"type": "Point", "coordinates": [121.46317114147467, 31.206438617544947]}, "properties": {"name": "\u53cc\u6770\u6c47\u53f0\u7403\u5b66\u4e60(\u57f9\u8bad)\u4e2d\u5fc3", "biz": "080113 \u4f53\u80b2\u4f11\u95f2\u670d\u52a1;\u8fd0\u52a8\u573a\u9986;\u53f0\u7403\u5385", "pty": "0801"}}, {"type": "Feature", "geometry": {"type": "Point", "coordinates": [121.49523808887783, 31.226270723784086]}, "properties": {"name": "\u6ee8\u6c5f\u6b23\u666f\u5927\u9152\u5e97-\u684c\u7403\u5ba4", "biz": "080113 \u4f53\u80b2\u4f11\u95f2\u670d\u52a1;\u8fd0\u52a8\u573a\u9986;\u53f0\u7403\u5385", "pty": "0801"}}, {"type": "Feature", "geometry": {"type": "Point", "coordinates": [121.46865489895336, 31.236418970753217]}, "properties": {"name": "\u65b0\u4e16\u754c\u4e3d\u7b19\u5927\u9152\u5e97-\u58c1\u7403\u573a", "biz": "080114 \u4f53\u80b2\u4f11\u95f2\u670d\u52a1;\u8fd0\u52a8\u573a\u9986;\u58c1\u7403\u573a", "pty": "0801"}}, {"type": "Feature", "geometry": {"type": "Point", "coordinates": [121.48000993468139, 31.21474803061741]}, "properties": {"name": "\u9ec4\u6d66\u8f6e\u6ed1\u9986\u7fbd\u6bdb\u7403\u9986", "biz": "080118 \u4f53\u80b2\u4f11\u95f2\u670d\u52a1;\u8fd0\u52a8\u573a\u9986;\u7fbd\u6bdb\u7403\u573a", "pty": "0801"}}, {"type": "Feature", "geometry": {"type": "Point", "coordinates": [121.49863559771956, 31.22308540000913]}, "properties": {"name": "WILLS\u5065\u8eab\u4f1a\u6240", "biz": "080118 \u4f53\u80b2\u4f11\u95f2\u670d\u52a1;\u8fd0\u52a8\u573a\u9986;\u7fbd\u6bdb\u7403\u573a", "pty": "0801"}}, {"type": "Feature", "geometry": {"type": "Point", "coordinates": [121.45977589294455, 31.206080186973974]}, "properties": {"name": "\u5362\u6e7e\u4f53\u80b2\u4e2d\u5fc3\u7fbd\u6bdb\u7403\u9986", "biz": "080118 \u4f53\u80b2\u4f11\u95f2\u670d\u52a1;\u8fd0\u52a8\u573a\u9986;\u7fbd\u6bdb\u7403\u573a", "pty": "0801"}}, {"type": "Feature", "geometry": {"type": "Point", "coordinates": [121.47560728804767, 31.23266498218498]}, "properties": {"name": "\u683c\u81f4\u9752\u5c11\u5e74\u4f53\u80b2\u4ff1\u4e50\u90e8-\u7fbd\u6bdb\u7403\u9986", "biz": "080118 \u4f53\u80b2\u4f11\u95f2\u670d\u52a1;\u8fd0\u52a8\u573a\u9986;\u7fbd\u6bdb\u7403\u573a", "pty": "0801"}}, {"type": "Feature", "geometry": {"type": "Point", "coordinates": [121.48631269669522, 31.207552980585405]}, "properties": {"name": "\u84ec\u83b1\u516c\u56ed\u7fbd\u6bdb\u7403\u573a", "biz": "080118 \u4f53\u80b2\u4f11\u95f2\u670d\u52a1;\u8fd0\u52a8\u573a\u9986;\u7fbd\u6bdb\u7403\u573a", "pty": "0801"}}, {"type": "Feature", "geometry": {"type": "Point", "coordinates": [121.47868331184479, 31.215127015052104]}, "properties": {"name": "\u8dc6\u98ce\u8dc6\u62f3\u9053\u8bad\u7ec3\u4e2d\u5fc3", "biz": "080119 \u4f53\u80b2\u4f11\u95f2\u670d\u52a1;\u8fd0\u52a8\u573a\u9986;\u8dc6\u62f3\u9053\u573a\u9986", "pty": "0801"}}, {"type": "Feature", "geometry": {"type": "Point", "coordinates": [121.4858051426176, 31.204644888554835]}, "properties": {"name": "\u767e\u5f81\u8dc6\u62f3\u9053(\u4e2d\u5c71\u5357\u8def\u5e97)", "biz": "080119 \u4f53\u80b2\u4f11\u95f2\u670d\u52a1;\u8fd0\u52a8\u573a\u9986;\u8dc6\u62f3\u9053\u573a\u9986", "pty": "0801"}}, {"type": "Feature", "geometry": {"type": "Point", "coordinates": [121.48557222740924, 31.217461035956227]}, "properties": {"name": "\u5927\u6210\u4e1c\u82f1\u8dc6\u62f3\u9053", "biz": "080119 \u4f53\u80b2\u4f11\u95f2\u670d\u52a1;\u8fd0\u52a8\u573a\u9986;\u8dc6\u62f3\u9053\u573a\u9986", "pty": "0801"}}, {"type": "Feature", "geometry": {"type": "Point", "coordinates": [121.48216469782699, 31.2118237063161]}, "properties": {"name": "\u91d1\u8f7d\u52f2\u56fd\u9645\u8dc6\u62f3\u9053\u573a", "biz": "080119 \u4f53\u80b2\u4f11\u95f2\u670d\u52a1;\u8fd0\u52a8\u573a\u9986;\u8dc6\u62f3\u9053\u573a\u9986", "pty": "0801"}}, {"type": "Feature", "geometry": {"type": "Point", "coordinates": [121.46602529482499, 31.20362644279653]}, "properties": {"name": "\u9f99\u9cde\u8dc6\u62f3\u9053(\u5f90\u5bb6\u6c47\u8def\u5e97)", "biz": "080119 \u4f53\u80b2\u4f11\u95f2\u670d\u52a1;\u8fd0\u52a8\u573a\u9986;\u8dc6\u62f3\u9053\u573a\u9986", "pty": "0801"}}, {"type": "Feature", "geometry": {"type": "Point", "coordinates": [121.48216469782699, 31.2118237063161]}, "properties": {"name": "\u91d1\u54c9\u52f2\u8dc6\u62f3\u9053\u9986", "biz": "080119 \u4f53\u80b2\u4f11\u95f2\u670d\u52a1;\u8fd0\u52a8\u573a\u9986;\u8dc6\u62f3\u9053\u573a\u9986", "pty": "0801"}}, {"type": "Feature", "geometry": {"type": "Point", "coordinates": [121.45977984974894, 31.20671988667727]}, "properties": {"name": "\u8dc6\u62f3\u9053\u8bad\u7ec3\u9986", "biz": "080119 \u4f53\u80b2\u4f11\u95f2\u670d\u52a1;\u8fd0\u52a8\u573a\u9986;\u8dc6\u62f3\u9053\u573a\u9986", "pty": "0801"}}, {"type": "Feature", "geometry": {"type": "Point", "coordinates": [121.48264523496779, 31.213557281586223]}, "properties": {"name": "\u5495\u565c\u5495\u565c\u8dc6\u62f3\u9053", "biz": "080119 \u4f53\u80b2\u4f11\u95f2\u670d\u52a1;\u8fd0\u52a8\u573a\u9986;\u8dc6\u62f3\u9053\u573a\u9986", "pty": "0801"}}, {"type": "Feature", "geometry": {"type": "Point", "coordinates": [121.48543611393795, 31.224882129572784]}, "properties": {"name": "T\u4e00STAR\u56fd\u9645\u8dc6\u62f3\u9053\u4e2d\u5fc3", "biz": "080119 \u4f53\u80b2\u4f11\u95f2\u670d\u52a1;\u8fd0\u52a8\u573a\u9986;\u8dc6\u62f3\u9053\u573a\u9986", "pty": "0801"}}, {"type": "Feature", "geometry": {"type": "Point", "coordinates": [121.4645934339295, 31.207827637123856]}, "properties": {"name": "PASSION(\u65e5\u6708\u5149\u4e2d\u5fc3\u897f\u533a)", "biz": "080119 \u4f53\u80b2\u4f11\u95f2\u670d\u52a1;\u8fd0\u52a8\u573a\u9986;\u8dc6\u62f3\u9053\u573a\u9986", "pty": "0801"}}, {"type": "Feature", "geometry": {"type": "Point", "coordinates": [121.48582320829246, 31.20462595122284]}, "properties": {"name": "T STAR\u8dc6\u62f3\u9053\u4ff1\u4e50\u90e8(\u897f\u85cf\u5357\u8def\u603b\u9986)", "biz": "080119 \u4f53\u80b2\u4f11\u95f2\u670d\u52a1;\u8fd0\u52a8\u573a\u9986;\u8dc6\u62f3\u9053\u573a\u9986", "pty": "0801"}}, {"type": "Feature", "geometry": {"type": "Point", "coordinates": [121.43727861933651, 31.183367498994237]}, "properties": {"name": "\u4e0a\u6d77\u4f53\u80b2\u573a", "biz": "080101 \u4f53\u80b2\u4f11\u95f2\u670d\u52a1;\u8fd0\u52a8\u573a\u9986;\u7efc\u5408\u4f53\u80b2\u9986", "pty": "0801"}}, {"type": "Feature", "geometry": {"type": "Point", "coordinates": [121.43782719157338, 31.12046552206125]}, "properties": {"name": "\u4e0a\u6d77\u5e02\u5f90\u6c47\u4f53\u80b2\u9986", "biz": "080101 \u4f53\u80b2\u4f11\u95f2\u670d\u52a1;\u8fd0\u52a8\u573a\u9986;\u7efc\u5408\u4f53\u80b2\u9986", "pty": "0801"}}, {"type": "Feature", "geometry": {"type": "Point", "coordinates": [121.41551488810079, 31.14417913925159]}, "properties": {"name": "\u534e\u4e1c\u7406\u5de5\u5927\u5b66\u4f53\u80b2\u9986", "biz": "080101 \u4f53\u80b2\u4f11\u95f2\u670d\u52a1;\u8fd0\u52a8\u573a\u9986;\u7efc\u5408\u4f53\u80b2\u9986", "pty": "0801"}}, {"type": "Feature", "geometry": {"type": "Point", "coordinates": [121.43820134165766, 31.185685942926263]}, "properties": {"name": "\u4e0a\u6d77\u4f53\u80b2\u573a\u8bad\u7ec3\u573a", "biz": "080101 \u4f53\u80b2\u4f11\u95f2\u670d\u52a1;\u8fd0\u52a8\u573a\u9986;\u7efc\u5408\u4f53\u80b2\u9986", "pty": "0801"}}, {"type": "Feature", "geometry": {"type": "Point", "coordinates": [121.42552726141194, 31.14268013287684]}, "properties": {"name": "\u4e0a\u6d77\u4f53\u80b2\u804c\u4e1a\u5b66\u9662\u8bad\u7ec3\u9986", "biz": "080101 \u4f53\u80b2\u4f11\u95f2\u670d\u52a1;\u8fd0\u52a8\u573a\u9986;\u7efc\u5408\u4f53\u80b2\u9986", "pty": "0801"}}, {"type": "Feature", "geometry": {"type": "Point", "coordinates": [121.4316726397136, 31.162212275180323]}, "properties": {"name": "\u6f15\u6cb3\u6cfe\u6587\u5316\u4f53\u80b2\u5206\u4e2d\u5fc3", "biz": "080101 \u4f53\u80b2\u4f11\u95f2\u670d\u52a1;\u8fd0\u52a8\u573a\u9986;\u7efc\u5408\u4f53\u80b2\u9986", "pty": "0801"}}, {"type": "Feature", "geometry": {"type": "Point", "coordinates": [121.41776599656245, 31.157843844911532]}, "properties": {"name": "\u4e0a\u6d77\u5e02\u5eb7\u6797\u4f53\u80b2\u4e2d\u5fc3", "biz": "080101 \u4f53\u80b2\u4f11\u95f2\u670d\u52a1;\u8fd0\u52a8\u573a\u9986;\u7efc\u5408\u4f53\u80b2\u9986", "pty": "0801"}}, {"type": "Feature", "geometry": {"type": "Point", "coordinates": [121.43751641190867, 31.18335767539425]}, "properties": {"name": "\u4e1c\u4e9a\u4f53\u80b2\u6587\u5316\u4e2d\u5fc3", "biz": "080101 \u4f53\u80b2\u4f11\u95f2\u670d\u52a1;\u8fd0\u52a8\u573a\u9986;\u7efc\u5408\u4f53\u80b2\u9986", "pty": "0801"}}, {"type": "Feature", "geometry": {"type": "Point", "coordinates": [121.4141640334213, 31.162682386229264]}, "properties": {"name": "\u4e0a\u6d77\u5e08\u8303\u5927\u5b66\u897f\u90e8\u7403\u7c7b\u9986", "biz": "080101 \u4f53\u80b2\u4f11\u95f2\u670d\u52a1;\u8fd0\u52a8\u573a\u9986;\u7efc\u5408\u4f53\u80b2\u9986", "pty": "0801"}}, {"type": "Feature", "geometry": {"type": "Point", "coordinates": [121.45034266098162, 31.2148128135878]}, "properties": {"name": "\u4e0a\u6d77\u97f3\u4e50\u5b66\u9662\u4f53\u80b2\u9986", "biz": "080101 \u4f53\u80b2\u4f11\u95f2\u670d\u52a1;\u8fd0\u52a8\u573a\u9986;\u7efc\u5408\u4f53\u80b2\u9986", "pty": "0801"}}, {"type": "Feature", "geometry": {"type": "Point", "coordinates": [121.46457320413008, 31.19810832429723]}, "properties": {"name": "\u745e\u91d1\u5357\u8def\u516c\u5171\u8fd0\u52a8\u573a", "biz": "080101 \u4f53\u80b2\u4f11\u95f2\u670d\u52a1;\u8fd0\u52a8\u573a\u9986;\u7efc\u5408\u4f53\u80b2\u9986", "pty": "0801"}}, {"type": "Feature", "geometry": {"type": "Point", "coordinates": [121.43743477021377, 31.185352771018877]}, "properties": {"name": "\u4e0a\u6d77\u4f53\u80b2\u573a2\u53f7\u6276\u68af", "biz": "080101 \u4f53\u80b2\u4f11\u95f2\u670d\u52a1;\u8fd0\u52a8\u573a\u9986;\u7efc\u5408\u4f53\u80b2\u9986", "pty": "0801"}}, {"type": "Feature", "geometry": {"type": "Point", "coordinates": [121.43978874242487, 31.18568079126233]}, "properties": {"name": "\u4e0a\u6d77\u4f53\u80b2\u573a(\u62db\u547c\u7ad9)", "biz": "080101 \u4f53\u80b2\u4f11\u95f2\u670d\u52a1;\u8fd0\u52a8\u573a\u9986;\u7efc\u5408\u4f53\u80b2\u9986", "pty": "0801"}}, {"type": "Feature", "geometry": {"type": "Point", "coordinates": [121.43683781424117, 31.182218321211305]}, "properties": {"name": "\u4e0a\u6d77\u4f53\u80b2\u573a4\u901a\u9053", "biz": "080101 \u4f53\u80b2\u4f11\u95f2\u670d\u52a1;\u8fd0\u52a8\u573a\u9986;\u7efc\u5408\u4f53\u80b2\u9986", "pty": "0801"}}, {"type": "Feature", "geometry": {"type": "Point", "coordinates": [121.4378218798996, 31.181826219109468]}, "properties": {"name": "\u4e0a\u6d77\u4f53\u80b2\u573a-5\u53f7\u6276\u68af", "biz": "080101 \u4f53\u80b2\u4f11\u95f2\u670d\u52a1;\u8fd0\u52a8\u573a\u9986;\u7efc\u5408\u4f53\u80b2\u9986", "pty": "0801"}}, {"type": "Feature", "geometry": {"type": "Point", "coordinates": [121.43829968254376, 31.18414089234505]}, "properties": {"name": "\u4e0a\u6d77\u4f53\u80b2\u573a2\u53f7\u901a\u9053", "biz": "080101 \u4f53\u80b2\u4f11\u95f2\u670d\u52a1;\u8fd0\u52a8\u573a\u9986;\u7efc\u5408\u4f53\u80b2\u9986", "pty": "0801"}}, {"type": "Feature", "geometry": {"type": "Point", "coordinates": [121.45223633754398, 31.172720878558028]}, "properties": {"name": "\u4e0a\u6d77\u6c11\u822a\u804c\u4e1a\u6280\u672f\u5b66\u9662-\u4f53\u80b2\u8fd0\u52a8\u9986", "biz": "080101 \u4f53\u80b2\u4f11\u95f2\u670d\u52a1;\u8fd0\u52a8\u573a\u9986;\u7efc\u5408\u4f53\u80b2\u9986", "pty": "0801"}}, {"type": "Feature", "geometry": {"type": "Point", "coordinates": [121.4420108110109, 31.207482191436526]}, "properties": {"name": "\u6b27\u767b\u4fdd\u9f84\u7403\u9986", "biz": "080102 \u4f53\u80b2\u4f11\u95f2\u670d\u52a1;\u8fd0\u52a8\u573a\u9986;\u4fdd\u9f84\u7403\u9986", "pty": "0801"}}, {"type": "Feature", "geometry": {"type": "Point", "coordinates": [121.44468568604833, 31.200296925254193]}, "properties": {"name": "\u9752\u677e\u57ce\u4fdd\u9f84\u7403\u9986", "biz": "080102 \u4f53\u80b2\u4f11\u95f2\u670d\u52a1;\u8fd0\u52a8\u573a\u9986;\u4fdd\u9f84\u7403\u9986", "pty": "0801"}}, {"type": "Feature", "geometry": {"type": "Point", "coordinates": [121.43820677234382, 31.203957920139217]}, "properties": {"name": "\u4e0a\u6d77\u56fd\u9645\u7f51\u7403\u4e2d\u5fc3", "biz": "080103 \u4f53\u80b2\u4f11\u95f2\u670d\u52a1;\u8fd0\u52a8\u573a\u9986;\u7f51\u7403\u573a", "pty": "0801"}}, {"type": "Feature", "geometry": {"type": "Point", "coordinates": [121.4176288417989, 31.157927678559588]}, "properties": {"name": "\u5eb7\u4e1c\u7f51\u7403\u9986", "biz": "080103 \u4f53\u80b2\u4f11\u95f2\u670d\u52a1;\u8fd0\u52a8\u573a\u9986;\u7f51\u7403\u573a", "pty": "0801"}}, {"type": "Feature", "geometry": {"type": "Point", "coordinates": [121.43363253434468, 31.181992165777512]}, "properties": {"name": "\u4e0a\u6d77\u4e1c\u4e9a\u7f51\u7403\u573a", "biz": "080103 \u4f53\u80b2\u4f11\u95f2\u670d\u52a1;\u8fd0\u52a8\u573a\u9986;\u7f51\u7403\u573a", "pty": "0801"}}, {"type": "Feature", "geometry": {"type": "Point", "coordinates": [121.42811630712208, 31.176899664081166]}, "properties": {"name": "\u5feb\u7f51\u7f51\u7403\u4ff1\u4e50\u90e8", "biz": "080103 \u4f53\u80b2\u4f11\u95f2\u670d\u52a1;\u8fd0\u52a8\u573a\u9986;\u7f51\u7403\u573a", "pty": "0801"}}, {"type": "Feature", "geometry": {"type": "Point", "coordinates": [121.45743303408345, 31.17099794668552]}, "properties": {"name": "\u4e7e\u5143\u7f51\u7403\u9986", "biz": "080103 \u4f53\u80b2\u4f11\u95f2\u670d\u52a1;\u8fd0\u52a8\u573a\u9986;\u7f51\u7403\u573a", "pty": "0801"}}, {"type": "Feature", "geometry": {"type": "Point", "coordinates": [121.4153026120478, 31.145026521162688]}, "properties": {"name": "\u534e\u4e1c\u7406\u5de5\u5927\u5b66\u7f51\u7403\u573a", "biz": "080103 \u4f53\u80b2\u4f11\u95f2\u670d\u52a1;\u8fd0\u52a8\u573a\u9986;\u7f51\u7403\u573a", "pty": "0801"}}, {"type": "Feature", "geometry": {"type": "Point", "coordinates": [121.4153096700136, 31.144435840421686]}, "properties": {"name": "\u534e\u4e1c\u7406\u5de5\u5927\u5b66\u7f51\u7403\u9986", "biz": "080103 \u4f53\u80b2\u4f11\u95f2\u670d\u52a1;\u8fd0\u52a8\u573a\u9986;\u7f51\u7403\u573a", "pty": "0801"}}, {"type": "Feature", "geometry": {"type": "Point", "coordinates": [121.41528344591228, 31.15824854506009]}, "properties": {"name": "\u7ef4\u4e5f\u7eb3\u56fd\u9645\u9152\u5e97-\u7f51\u7403\u573a", "biz": "080103 \u4f53\u80b2\u4f11\u95f2\u670d\u52a1;\u8fd0\u52a8\u573a\u9986;\u7f51\u7403\u573a", "pty": "0801"}}, {"type": "Feature", "geometry": {"type": "Point", "coordinates": [121.42414229570011, 31.176830676694813]}, "properties": {"name": "\u4e0a\u6d77\u5e02\u7530\u6797\u4f53\u80b2\u4ff1\u4e50\u90e8\u7f51\u7403\u573a", "biz": "080103 \u4f53\u80b2\u4f11\u95f2\u670d\u52a1;\u8fd0\u52a8\u573a\u9986;\u7f51\u7403\u573a", "pty": "0801"}}, {"type": "Feature", "geometry": {"type": "Point", "coordinates": [121.44968908442962, 31.178453297043685]}, "properties": {"name": "\u76db\u5927\u82b1\u56ed\u7f51\u7403\u573a", "biz": "080103 \u4f53\u80b2\u4f11\u95f2\u670d\u52a1;\u8fd0\u52a8\u573a\u9986;\u7f51\u7403\u573a", "pty": "0801"}}, {"type": "Feature", "geometry": {"type": "Point", "coordinates": [121.45743604278664, 31.17099795397173]}, "properties": {"name": "\u4e50\u7f51\u7f51\u7403\u4ff1\u4e50\u90e8", "biz": "080103 \u4f53\u80b2\u4f11\u95f2\u670d\u52a1;\u8fd0\u52a8\u573a\u9986;\u7f51\u7403\u573a", "pty": "0801"}}, {"type": "Feature", "geometry": {"type": "Point", "coordinates": [121.42391501325929, 31.164873542677793]}, "properties": {"name": "\u5929\u8292\u7f51\u7403\u4ff1\u4e50\u90e8", "biz": "080103 \u4f53\u80b2\u4f11\u95f2\u670d\u52a1;\u8fd0\u52a8\u573a\u9986;\u7f51\u7403\u573a", "pty": "0801"}}, {"type": "Feature", "geometry": {"type": "Point", "coordinates": [121.4240001508727, 31.164663750810774]}, "properties": {"name": "\u4e2d\u6d77\u99a8\u56ed\u7f51\u7403\u573a", "biz": "080103 \u4f53\u80b2\u4f11\u95f2\u670d\u52a1;\u8fd0\u52a8\u573a\u9986;\u7f51\u7403\u573a", "pty": "0801"}}, {"type": "Feature", "geometry": {"type": "Point", "coordinates": [121.41778004425863, 31.15746905328953]}, "properties": {"name": "\u5065\u4f5c\u7f51\u7403\u4ff1\u4e50\u90e8", "biz": "080103 \u4f53\u80b2\u4f11\u95f2\u670d\u52a1;\u8fd0\u52a8\u573a\u9986;\u7f51\u7403\u573a", "pty": "0801"}}, {"type": "Feature", "geometry": {"type": "Point", "coordinates": [121.42698538660403, 31.18988462904242]}, "properties": {"name": "\u8fc8\u51ef\u7f51\u7403\u4ff1\u4e50\u90e8(\u5f90\u6c47\u5e97)", "biz": "080103 \u4f53\u80b2\u4f11\u95f2\u670d\u52a1;\u8fd0\u52a8\u573a\u9986;\u7f51\u7403\u573a", "pty": "0801"}}, {"type": "Feature", "geometry": {"type": "Point", "coordinates": [121.4176148737745, 31.157386948579422]}, "properties": {"name": "\u4e0a\u6d77\u6885\u4f53\u7f51\u7403\u4ff1\u4e50\u90e8", "biz": "080103 \u4f53\u80b2\u4f11\u95f2\u670d\u52a1;\u8fd0\u52a8\u573a\u9986;\u7f51\u7403\u573a", "pty": "0801"}}, {"type": "Feature", "geometry": {"type": "Point", "coordinates": [121.42005951521446, 31.147406506581973]}, "properties": {"name": "\u534e\u4e1c\u7406\u5de5\u5927\u5b66\u7f51\u7403\u573a(\u6c42\u5b9e\u8def)", "biz": "080103 \u4f53\u80b2\u4f11\u95f2\u670d\u52a1;\u8fd0\u52a8\u573a\u9986;\u7f51\u7403\u573a", "pty": "0801"}}, {"type": "Feature", "geometry": {"type": "Point", "coordinates": [121.42747014450772, 31.143770039450732]}, "properties": {"name": "\u4e0a\u6d77\u4f53\u80b2\u804c\u4e1a\u5b66\u9662\u7f51\u7403\u573a", "biz": "080103 \u4f53\u80b2\u4f11\u95f2\u670d\u52a1;\u8fd0\u52a8\u573a\u9986;\u7f51\u7403\u573a", "pty": "0801"}}, {"type": "Feature", "geometry": {"type": "Point", "coordinates": [121.43832003382836, 31.20369624739575]}, "properties": {"name": "\u5bcc\u8c6a\u73af\u7403\u4e1c\u4e9a\u9152\u5e97\u5ba4\u5916\u7f51\u7403\u573a", "biz": "080103 \u4f53\u80b2\u4f11\u95f2\u670d\u52a1;\u8fd0\u52a8\u573a\u9986;\u7f51\u7403\u573a", "pty": "0801"}}, {"type": "Feature", "geometry": {"type": "Point", "coordinates": [121.45315415893174, 31.18057397641418]}, "properties": {"name": "\u9ea6\u65af\u7279\u7f51\u7403(\u5c1a\u6d77\u6e7e\u5e97)", "biz": "080103 \u4f53\u80b2\u4f11\u95f2\u670d\u52a1;\u8fd0\u52a8\u573a\u9986;\u7f51\u7403\u573a", "pty": "0801"}}, {"type": "Feature", "geometry": {"type": "Point", "coordinates": [121.4323630781344, 31.183125622744434]}, "properties": {"name": "\u4e0a\u4f53\u7bee\u7403\u516c\u56ed", "biz": "080104 \u4f53\u80b2\u4f11\u95f2\u670d\u52a1;\u8fd0\u52a8\u573a\u9986;\u7bee\u7403\u573a\u9986", "pty": "0801"}}, {"type": "Feature", "geometry": {"type": "Point", "coordinates": [121.41082646583067, 31.161534777783288]}, "properties": {"name": "\u4e0a\u6d77\u5e08\u8303\u5927\u5b66\u7bee\u7403\u573a(\u4e0a\u6d77\u5e08\u8303\u5927\u5b66\u6821\u533b\u9662\u897f\u5317)", "biz": "080104 \u4f53\u80b2\u4f11\u95f2\u670d\u52a1;\u8fd0\u52a8\u573a\u9986;\u7bee\u7403\u573a\u9986", "pty": "0801"}}, {"type": "Feature", "geometry": {"type": "Point", "coordinates": [121.46483601834488, 31.198192970214887]}, "properties": {"name": "\u659c\u571f\u793e\u533a\u7bee\u7403\u573a", "biz": "080104 \u4f53\u80b2\u4f11\u95f2\u670d\u52a1;\u8fd0\u52a8\u573a\u9986;\u7bee\u7403\u573a\u9986", "pty": "0801"}}, {"type": "Feature", "geometry": {"type": "Point", "coordinates": [121.45238972446734, 31.196281387632194]}, "properties": {"name": "\u590d\u65e6\u5927\u5b66\u62a4\u7406\u5b66\u9662\u7bee\u7403\u573a", "biz": "080104 \u4f53\u80b2\u4f11\u95f2\u670d\u52a1;\u8fd0\u52a8\u573a\u9986;\u7bee\u7403\u573a\u9986", "pty": "0801"}}, {"type": "Feature", "geometry": {"type": "Point", "coordinates": [121.43898674361733, 31.200323081551282]}, "properties": {"name": "\u5f90\u5bb6\u6c47\u516c\u56ed-\u7bee\u7403\u573a", "biz": "080104 \u4f53\u80b2\u4f11\u95f2\u670d\u52a1;\u8fd0\u52a8\u573a\u9986;\u7bee\u7403\u573a\u9986", "pty": "0801"}}, {"type": "Feature", "geometry": {"type": "Point", "coordinates": [121.41920273834063, 31.167784023131006]}, "properties": {"name": "\u5e94\u7528\u6280\u672f\u5927\u5b66\u7bee\u7403\u573a", "biz": "080104 \u4f53\u80b2\u4f11\u95f2\u670d\u52a1;\u8fd0\u52a8\u573a\u9986;\u7bee\u7403\u573a\u9986", "pty": "0801"}}, {"type": "Feature", "geometry": {"type": "Point", "coordinates": [121.41669632819288, 31.18713492602886]}, "properties": {"name": "\u4e0a\u6d77\u793e\u4f1a\u79d1\u5b66\u9662\u5206\u90e8\u7bee\u7403\u573a", "biz": "080104 \u4f53\u80b2\u4f11\u95f2\u670d\u52a1;\u8fd0\u52a8\u573a\u9986;\u7bee\u7403\u573a\u9986", "pty": "0801"}}, {"type": "Feature", "geometry": {"type": "Point", "coordinates": [121.45133810240681, 31.19388720232188]}, "properties": {"name": "\u6709\u673a\u6240\u7bee\u7403\u573a", "biz": "080104 \u4f53\u80b2\u4f11\u95f2\u670d\u52a1;\u8fd0\u52a8\u573a\u9986;\u7bee\u7403\u573a\u9986", "pty": "0801"}}, {"type": "Feature", "geometry": {"type": "Point", "coordinates": [121.44452817117968, 31.15554131628345]}, "properties": {"name": "\u690d\u7269\u56ed\u7bee\u7403\u573a", "biz": "080104 \u4f53\u80b2\u4f11\u95f2\u670d\u52a1;\u8fd0\u52a8\u573a\u9986;\u7bee\u7403\u573a\u9986", "pty": "0801"}}, {"type": "Feature", "geometry": {"type": "Point", "coordinates": [121.40412002599008, 31.1601056082462]}, "properties": {"name": "\u6842\u5e73\u5c0f\u533a\u7bee\u7403\u573a", "biz": "080104 \u4f53\u80b2\u4f11\u95f2\u670d\u52a1;\u8fd0\u52a8\u573a\u9986;\u7bee\u7403\u573a\u9986", "pty": "0801"}}, {"type": "Feature", "geometry": {"type": "Point", "coordinates": [121.42579461825774, 31.200818709773436]}, "properties": {"name": "\u4e0a\u6d77\u4ea4\u901a\u5927\u5b66\u5f90\u6c47\u6821\u533a\u7bee\u7403\u573a", "biz": "080104 \u4f53\u80b2\u4f11\u95f2\u670d\u52a1;\u8fd0\u52a8\u573a\u9986;\u7bee\u7403\u573a\u9986", "pty": "0801"}}, {"type": "Feature", "geometry": {"type": "Point", "coordinates": [121.41894003899611, 31.195387839654938]}, "properties": {"name": "\u575a\u679c\u7bee\u7403\u4ff1\u4e50\u90e8(\u51ef\u65cb\u8def)", "biz": "080104 \u4f53\u80b2\u4f11\u95f2\u670d\u52a1;\u8fd0\u52a8\u573a\u9986;\u7bee\u7403\u573a\u9986", "pty": "0801"}}, {"type": "Feature", "geometry": {"type": "Point", "coordinates": [121.42562341314353, 31.142577306857262]}, "properties": {"name": "\u4e0a\u6d77\u4f53\u80b2\u804c\u4e1a\u5b66\u9662\u7bee\u7403\u9986", "biz": "080104 \u4f53\u80b2\u4f11\u95f2\u670d\u52a1;\u8fd0\u52a8\u573a\u9986;\u7bee\u7403\u573a\u9986", "pty": "0801"}}, {"type": "Feature", "geometry": {"type": "Point", "coordinates": [121.45633625224306, 31.213216352438415]}, "properties": {"name": "\u4e0a\u6d77\u7406\u5de5\u5927\u5b66\u7bee\u7403\u573a", "biz": "080104 \u4f53\u80b2\u4f11\u95f2\u670d\u52a1;\u8fd0\u52a8\u573a\u9986;\u7bee\u7403\u573a\u9986", "pty": "0801"}}, {"type": "Feature", "geometry": {"type": "Point", "coordinates": [121.44538756408181, 31.19814739711643]}, "properties": {"name": "\u590d\u65e6\u5927\u5b66\u4e0a\u6d77\u533b\u5b66\u9662\u67ab\u6797\u8def\u6821\u533a\u897f\u533a\u7bee\u7403\u573a", "biz": "080104 \u4f53\u80b2\u4f11\u95f2\u670d\u52a1;\u8fd0\u52a8\u573a\u9986;\u7bee\u7403\u573a\u9986", "pty": "0801"}}, {"type": "Feature", "geometry": {"type": "Point", "coordinates": [121.44512493607297, 31.198057908865596]}, "properties": {"name": "\u590d\u65e6\u5927\u5b66\u67ab\u6797\u6821\u533a\u897f\u533a\u84dd\u6392\u7403\u573a", "biz": "080104 \u4f53\u80b2\u4f11\u95f2\u670d\u52a1;\u8fd0\u52a8\u573a\u9986;\u7bee\u7403\u573a\u9986", "pty": "0801"}}, {"type": "Feature", "geometry": {"type": "Point", "coordinates": [121.45334004897856, 31.17615264602904]}, "properties": {"name": "\u4e2d\u56fd\u5546\u98de\u6c11\u7528\u98de\u673a\u8bd5\u98de\u4e2d\u5fc3\u7bee\u7403\u573a", "biz": "080104 \u4f53\u80b2\u4f11\u95f2\u670d\u52a1;\u8fd0\u52a8\u573a\u9986;\u7bee\u7403\u573a\u9986", "pty": "0801"}}, {"type": "Feature", "geometry": {"type": "Point", "coordinates": [121.42418583349719, 31.182866672921023]}, "properties": {"name": "\u4e0a\u6d77\u7acb\u4fe1\u4f1a\u8ba1\u91d1\u878d\u5b66\u9662\u5f90\u6c47\u6821\u533a\u7bee\u7403\u573a", "biz": "080104 \u4f53\u80b2\u4f11\u95f2\u670d\u52a1;\u8fd0\u52a8\u573a\u9986;\u7bee\u7403\u573a\u9986", "pty": "0801"}}, {"type": "Feature", "geometry": {"type": "Point", "coordinates": [121.41684246605686, 31.18727498049303]}, "properties": {"name": "\u745e\u88d5\u5bbe\u9986\u767d\u7389\u5170\u9152\u5e97\u4e2d\u5c71\u897f\u8def\u5e97-\u7bee\u7403\u573a", "biz": "080104 \u4f53\u80b2\u4f11\u95f2\u670d\u52a1;\u8fd0\u52a8\u573a\u9986;\u7bee\u7403\u573a\u9986", "pty": "0801"}}, {"type": "Feature", "geometry": {"type": "Point", "coordinates": [121.41802725509463, 31.146610990020736]}, "properties": {"name": "\u534e\u4e1c\u7406\u5de5\u5927\u5b66\u5f90\u6c47\u6821\u533a\u7bee\u7403\u573a(\u7559\u5b66\u751f\u516c\u5bd32\u4e1c\u5317)", "biz": "080104 \u4f53\u80b2\u4f11\u95f2\u670d\u52a1;\u8fd0\u52a8\u573a\u9986;\u7bee\u7403\u573a\u9986", "pty": "0801"}}, {"type": "Feature", "geometry": {"type": "Point", "coordinates": [121.40781471032581, 31.17140712391791]}, "properties": {"name": "\u534e\u4eba\u7403\u5e9c\u5929\u7a7a\u4e94\u4eba\u5236\u8db3\u7403\u573a", "biz": "080105 \u4f53\u80b2\u4f11\u95f2\u670d\u52a1;\u8fd0\u52a8\u573a\u9986;\u8db3\u7403\u573a", "pty": "0801"}}, {"type": "Feature", "geometry": {"type": "Point", "coordinates": [121.45687566925903, 31.16817904911584]}, "properties": {"name": "\u5723\u897f\u5cb8\u8db3\u7403\u516c\u56ed", "biz": "080105 \u4f53\u80b2\u4f11\u95f2\u670d\u52a1;\u8fd0\u52a8\u573a\u9986;\u8db3\u7403\u573a", "pty": "0801"}}, {"type": "Feature", "geometry": {"type": "Point", "coordinates": [121.4077165984159, 31.172076736986387]}, "properties": {"name": "keep\u5c11\u513f\u8db3\u7403\u4ff1\u4e50\u90e8", "biz": "080105 \u4f53\u80b2\u4f11\u95f2\u670d\u52a1;\u8fd0\u52a8\u573a\u9986;\u8db3\u7403\u573a", "pty": "0801"}}, {"type": "Feature", "geometry": {"type": "Point", "coordinates": [121.46039490551335, 31.192503395176036]}, "properties": {"name": "\u5357\u6d0b\u4e2d\u5b66-\u8db3\u7403\u573a", "biz": "080105 \u4f53\u80b2\u4f11\u95f2\u670d\u52a1;\u8fd0\u52a8\u573a\u9986;\u8db3\u7403\u573a", "pty": "0801"}}, {"type": "Feature", "geometry": {"type": "Point", "coordinates": [121.41535542216313, 31.170821095592803]}, "properties": {"name": "\u5e94\u7528\u6280\u672f\u5927\u5b66\u8db3\u7403\u573a", "biz": "080105 \u4f53\u80b2\u4f11\u95f2\u670d\u52a1;\u8fd0\u52a8\u573a\u9986;\u8db3\u7403\u573a", "pty": "0801"}}, {"type": "Feature", "geometry": {"type": "Point", "coordinates": [121.4097136405613, 31.150809767708783]}, "properties": {"name": "\u5eb7\u5065\u6587\u5316\u5e7f\u573a\u5065\u8eab\u82d1", "biz": "080108 \u4f53\u80b2\u4f11\u95f2\u670d\u52a1;\u8fd0\u52a8\u573a\u9986;\u6237\u5916\u5065\u8eab\u573a\u6240", "pty": "0801"}}, {"type": "Feature", "geometry": {"type": "Point", "coordinates": [121.4375471028071, 31.195757786442265]}, "properties": {"name": "\u79d1\u6c47\u5c0f\u533a\u5065\u8eab\u82d1", "biz": "080108 \u4f53\u80b2\u4f11\u95f2\u670d\u52a1;\u8fd0\u52a8\u573a\u9986;\u6237\u5916\u5065\u8eab\u573a\u6240", "pty": "0801"}}, {"type": "Feature", "geometry": {"type": "Point", "coordinates": [121.43150336105612, 31.173484216282063]}, "properties": {"name": "\u6f15\u6eaa\u516c\u56ed-\u5065\u8eab\u82d1", "biz": "080108 \u4f53\u80b2\u4f11\u95f2\u670d\u52a1;\u8fd0\u52a8\u573a\u9986;\u6237\u5916\u5065\u8eab\u573a\u6240", "pty": "0801"}}, {"type": "Feature", "geometry": {"type": "Point", "coordinates": [121.43583660756616, 31.184371546777243]}, "properties": {"name": "\u4e1c\u4e9a\u4f53\u80b2\u6587\u5316\u4e2d\u5fc3\u5065\u8eab\u82d1\u7b2c\u4e8c\u5065\u8eab\u533a", "biz": "080108 \u4f53\u80b2\u4f11\u95f2\u670d\u52a1;\u8fd0\u52a8\u573a\u9986;\u6237\u5916\u5065\u8eab\u573a\u6240", "pty": "0801"}}, {"type": "Feature", "geometry": {"type": "Point", "coordinates": [121.45284002967921, 31.19533887783824]}, "properties": {"name": "\u5f90\u6c47\u6e38\u6cf3\u9986(\u67ab\u6797\u8def)", "biz": "080110 \u4f53\u80b2\u4f11\u95f2\u670d\u52a1;\u8fd0\u52a8\u573a\u9986;\u6e38\u6cf3\u9986", "pty": "0801"}}, {"type": "Feature", "geometry": {"type": "Point", "coordinates": [121.43611947214741, 31.1809207594304]}, "properties": {"name": "\u4e0a\u6d77\u6e38\u6cf3\u9986(\u6682\u505c\u8425\u4e1a)", "biz": "080110 \u4f53\u80b2\u4f11\u95f2\u670d\u52a1;\u8fd0\u52a8\u573a\u9986;\u6e38\u6cf3\u9986", "pty": "0801"}}, {"type": "Feature", "geometry": {"type": "Point", "coordinates": [121.42812031324625, 31.1769036674507]}, "properties": {"name": "\u4e0a\u6d77\u795e\u4e43\u5065\u4f53\u80b2\u4ff1\u4e50\u90e8", "biz": "080111|080110 \u4f53\u80b2\u4f11\u95f2\u670d\u52a1;\u8fd0\u52a8\u573a\u9986;\u5065\u8eab\u4e2d\u5fc3|\u4f53\u80b2\u4f11\u95f2\u670d\u52a1;\u8fd0\u52a8\u573a\u9986;\u6e38\u6cf3\u9986", "pty": "0801"}}, {"type": "Feature", "geometry": {"type": "Point", "coordinates": [121.42812031324625, 31.1769036674507]}, "properties": {"name": "\u4e0a\u6d77\u795e\u4e43\u5065\u4f53\u80b2\u4ff1\u4e50\u90e8", "biz": "080111|080110 \u4f53\u80b2\u4f11\u95f2\u670d\u52a1;\u8fd0\u52a8\u573a\u9986;\u5065\u8eab\u4e2d\u5fc3|\u4f53\u80b2\u4f11\u95f2\u670d\u52a1;\u8fd0\u52a8\u573a\u9986;\u6e38\u6cf3\u9986", "pty": "0801"}}, {"type": "Feature", "geometry": {"type": "Point", "coordinates": [121.43070489475096, 31.13949281601032]}, "properties": {"name": "\u4e0a\u6d77\u4e2d\u5b66-\u6e38\u6cf3\u6c60", "biz": "080110 \u4f53\u80b2\u4f11\u95f2\u670d\u52a1;\u8fd0\u52a8\u573a\u9986;\u6e38\u6cf3\u9986", "pty": "0801"}}, {"type": "Feature", "geometry": {"type": "Point", "coordinates": [121.44947111201165, 31.21795840858076]}, "properties": {"name": "\u4e1c\u6e56\u5bbe\u9986-\u6e38\u6cf3\u6c60", "biz": "080110 \u4f53\u80b2\u4f11\u95f2\u670d\u52a1;\u8fd0\u52a8\u573a\u9986;\u6e38\u6cf3\u9986", "pty": "0801"}}, {"type": "Feature", "geometry": {"type": "Point", "coordinates": [121.43107173282161, 31.183443525198367]}, "properties": {"name": "\u534e\u4ead\u5bbe\u9986-\u6e38\u6cf3\u6c60", "biz": "080110 \u4f53\u80b2\u4f11\u95f2\u670d\u52a1;\u8fd0\u52a8\u573a\u9986;\u6e38\u6cf3\u9986", "pty": "0801"}}, {"type": "Feature", "geometry": {"type": "Point", "coordinates": [121.43963677978513, 31.216111624855035]}, "properties": {"name": "\u4ea6\u56ed\u6e38\u6cf3\u6c60", "biz": "080110 \u4f53\u80b2\u4f11\u95f2\u670d\u52a1;\u8fd0\u52a8\u573a\u9986;\u6e38\u6cf3\u9986", "pty": "0801"}}, {"type": "Feature", "geometry": {"type": "Point", "coordinates": [121.43933943660787, 31.12003744258387]},