{"type": "FeatureCollection", "features": [{"type": "Feature", "geometry": {"type": "Point", "coordinates": [121.4936579008517, 31.29106567755422]}, "properties": {"name": "\u66f2\u9633\u793e\u533a\u5e02\u6c11\u670d\u52a1\u9a7f\u7ad9(\u8f89\u6cb3\u8def)", "biz": "050300|070000 \u9910\u996e\u670d\u52a1;\u5feb\u9910\u5385;\u5feb\u9910\u5385|\u751f\u6d3b\u670d\u52a1;\u751f\u6d3b\u670d\u52a1\u573a\u6240;\u751f\u6d3b\u670d\u52a1\u573a\u6240", "pty": "0503"}}, {"type": "Feature", "geometry": {"type": "Point", "coordinates": [121.44338599577901, 31.218954354734763]}, "properties": {"name": "CHARLIE'S\u7c89\u7ea2\u6c49\u5821(\u5e38\u719f\u8def\u5e97)", "biz": "050300|050400 \u9910\u996e\u670d\u52a1;\u5feb\u9910\u5385;\u5feb\u9910\u5385|\u9910\u996e\u670d\u52a1;\u4f11\u95f2\u9910\u996e\u573a\u6240;\u4f11\u95f2\u9910\u996e\u573a\u6240", "pty": "0503"}}, {"type": "Feature", "geometry": {"type": "Point", "coordinates": [121.43640530670389, 31.235669803990927]}, "properties": {"name": "delimuses\u897f\u9910\u5496\u5561(\u660c\u5e73\u8def\u5e97)", "biz": "050300|050400 \u9910\u996e\u670d\u52a1;\u5feb\u9910\u5385;\u5feb\u9910\u5385|\u9910\u996e\u670d\u52a1;\u4f11\u95f2\u9910\u996e\u573a\u6240;\u4f11\u95f2\u9910\u996e\u573a\u6240", "pty": "0503"}}, {"type": "Feature", "geometry": {"type": "Point", "coordinates": [121.44233981867035, 31.227657233653133]}, "properties": {"name": "PAPA JOHNS(\u6676\u54c1)", "biz": "050400|050300 \u9910\u996e\u670d\u52a1;\u4f11\u95f2\u9910\u996e\u573a\u6240;\u4f11\u95f2\u9910\u996e\u573a\u6240|\u9910\u996e\u670d\u52a1;\u5feb\u9910\u5385;\u5feb\u9910\u5385", "pty": "0504"}}, {"type": "Feature", "geometry": {"type": "Point", "coordinates": [121.43360037073879, 31.240865845907077]}, "properties": {"name": "\u8c6a\u5927\u5927\u9999\u9e21\u6392(\u4e9a\u65b0\u751f\u6d3b\u5e7f\u573a)", "biz": "050400|050300 \u9910\u996e\u670d\u52a1;\u4f11\u95f2\u9910\u996e\u573a\u6240;\u4f11\u95f2\u9910\u996e\u573a\u6240|\u9910\u996e\u670d\u52a1;\u5feb\u9910\u5385;\u5feb\u9910\u5385", "pty": "0504"}}, {"type": "Feature", "geometry": {"type": "Point", "coordinates": [121.65286469047031, 31.144760196687084]}, "properties": {"name": "\u6b22\u5bb4\u5e7f\u573a", "biz": "050400|050300 \u9910\u996e\u670d\u52a1;\u4f11\u95f2\u9910\u996e\u573a\u6240;\u4f11\u95f2\u9910\u996e\u573a\u6240|\u9910\u996e\u670d\u52a1;\u5feb\u9910\u5385;\u5feb\u9910\u5385", "pty": "0504"}}, {"type": "Feature", "geometry": {"type": "Point", "coordinates": [121.65379372244986, 31.147562001569188]}, "properties": {"name": "\u8001\u85e4\u6811\u98df\u6808", "biz": "050400|050300 \u9910\u996e\u670d\u52a1;\u4f11\u95f2\u9910\u996e\u573a\u6240;\u4f11\u95f2\u9910\u996e\u573a\u6240|\u9910\u996e\u670d\u52a1;\u5feb\u9910\u5385;\u5feb\u9910\u5385", "pty": "0504"}}, {"type": "Feature", "geometry": {"type": "Point", "coordinates": [121.49855001295873, 31.238176145549613]}, "properties": {"name": "\u7f8e\u53a8\u6c47(\u56fd\u91d1\u4e2d\u5fc3\u5546\u573a)", "biz": "050300|050400 \u9910\u996e\u670d\u52a1;\u5feb\u9910\u5385;\u5feb\u9910\u5385|\u9910\u996e\u670d\u52a1;\u4f11\u95f2\u9910\u996e\u573a\u6240;\u4f11\u95f2\u9910\u996e\u573a\u6240", "pty": "0503"}}, {"type": "Feature", "geometry": {"type": "Point", "coordinates": [121.49063166489549, 31.177461768306316]}, "properties": {"name": "\u4e09\u5bb6\u9994\u610f\u9762", "biz": "050300|050400 \u9910\u996e\u670d\u52a1;\u5feb\u9910\u5385;\u5feb\u9910\u5385|\u9910\u996e\u670d\u52a1;\u4f11\u95f2\u9910\u996e\u573a\u6240;\u4f11\u95f2\u9910\u996e\u573a\u6240", "pty": "0503"}}, {"type": "Feature", "geometry": {"type": "Point", "coordinates": [121.53078408225774, 31.18862663972991]}, "properties": {"name": "\u8fbe\u7f8e\u4e50(\u5c71\u59c6\u4f1a\u5458\u5546\u5e97)", "biz": "050400|050300 \u9910\u996e\u670d\u52a1;\u4f11\u95f2\u9910\u996e\u573a\u6240;\u4f11\u95f2\u9910\u996e\u573a\u6240|\u9910\u996e\u670d\u52a1;\u5feb\u9910\u5385;\u5feb\u9910\u5385", "pty": "0504"}}, {"type": "Feature", "geometry": {"type": "Point", "coordinates": [121.3378973681563, 30.735294593463525]}, "properties": {"name": "\u5965\u4f26\u4e09\u660e\u6cbb\u9c9c\u69a8\u679c\u6c41", "biz": "050400|050300|050700 \u9910\u996e\u670d\u52a1;\u4f11\u95f2\u9910\u996e\u573a\u6240;\u4f11\u95f2\u9910\u996e\u573a\u6240|\u9910\u996e\u670d\u52a1;\u5feb\u9910\u5385;\u5feb\u9910\u5385|\u9910\u996e\u670d\u52a1;\u51b7\u996e\u5e97;\u51b7\u996e\u5e97", "pty": "0504"}}, {"type": "Feature", "geometry": {"type": "Point", "coordinates": [121.19534041311275, 31.22854910502471]}, "properties": {"name": "\u4f18\u529b\u514b", "biz": "170200|050300 \u516c\u53f8\u4f01\u4e1a;\u516c\u53f8;\u516c\u53f8|\u9910\u996e\u670d\u52a1;\u5feb\u9910\u5385;\u5feb\u9910\u5385", "pty": "1702"}}, {"type": "Feature", "geometry": {"type": "Point", "coordinates": [121.39204799503209, 31.622677384772626]}, "properties": {"name": "\u6dd8\u6c14\u5821(8\u58f9\u5e7f\u573a)", "biz": "080501|050300 \u4f53\u80b2\u4f11\u95f2\u670d\u52a1;\u4f11\u95f2\u573a\u6240;\u6e38\u4e50\u573a|\u9910\u996e\u670d\u52a1;\u5feb\u9910\u5385;\u5feb\u9910\u5385", "pty": "0805"}}, {"type": "Feature", "geometry": {"type": "Point", "coordinates": [121.4410112569722, 31.210928640637256]}, "properties": {"name": "CU2+CONFIDENTIAL", "biz": "080304|050300 \u4f53\u80b2\u4f11\u95f2\u670d\u52a1;\u5a31\u4e50\u573a\u6240;\u9152\u5427|\u9910\u996e\u670d\u52a1;\u5feb\u9910\u5385;\u5feb\u9910\u5385", "pty": "0803"}}, {"type": "Feature", "geometry": {"type": "Point", "coordinates": [121.44572934399363, 31.129153796570666]}, "properties": {"name": "\u5927\u6caa\u60c5\u7533(\u4e1c\u9614\u751f\u6d3b\u5e7f\u573a)", "biz": "080306|050300 \u4f53\u80b2\u4f11\u95f2\u670d\u52a1;\u5a31\u4e50\u573a\u6240;\u68cb\u724c\u5ba4|\u9910\u996e\u670d\u52a1;\u5feb\u9910\u5385;\u5feb\u9910\u5385", "pty": "0803"}}, {"type": "Feature", "geometry": {"type": "Point", "coordinates": [121.55388631458734, 31.212448375306792]}, "properties": {"name": "Le Pub", "biz": "080304|050300 \u4f53\u80b2\u4f11\u95f2\u670d\u52a1;\u5a31\u4e50\u573a\u6240;\u9152\u5427|\u9910\u996e\u670d\u52a1;\u5feb\u9910\u5385;\u5feb\u9910\u5385", "pty": "0803"}}, {"type": "Feature", "geometry": {"type": "Point", "coordinates": [121.4350171122564, 31.194502141297054]}, "properties": {"name": "SUBWAY\u8d5b\u767e\u5473\u9910\u5385(\u7f8e\u7f57\u57ce)", "biz": "050800|050300 \u9910\u996e\u670d\u52a1;\u7cd5\u997c\u5e97;\u7cd5\u997c\u5e97|\u9910\u996e\u670d\u52a1;\u5feb\u9910\u5385;\u5feb\u9910\u5385", "pty": "0508"}}, {"type": "Feature", "geometry": {"type": "Point", "coordinates": [121.44325460234222, 31.219952624898777]}, "properties": {"name": "\u9eba\u5c4b\u6b66\u58eb\u9f99", "biz": "050300|050800 \u9910\u996e\u670d\u52a1;\u5feb\u9910\u5385;\u5feb\u9910\u5385|\u9910\u996e\u670d\u52a1;\u7cd5\u997c\u5e97;\u7cd5\u997c\u5e97", "pty": "0503"}}, {"type": "Feature", "geometry": {"type": "Point", "coordinates": [121.4209001833679, 31.26659083325498]}, "properties": {"name": "\u9f0e\u65fa\u70d8\u7119\u4f18\u9009", "biz": "050300|050800 \u9910\u996e\u670d\u52a1;\u5feb\u9910\u5385;\u5feb\u9910\u5385|\u9910\u996e\u670d\u52a1;\u7cd5\u997c\u5e97;\u7cd5\u997c\u5e97", "pty": "0503"}}, {"type": "Feature", "geometry": {"type": "Point", "coordinates": [121.51728971024367, 31.290955166647752]}, "properties": {"name": "\u4e50\u5ba2\u9e2d(\u5927\u6da6\u53d1)", "biz": "050800|050300 \u9910\u996e\u670d\u52a1;\u7cd5\u997c\u5e97;\u7cd5\u997c\u5e97|\u9910\u996e\u670d\u52a1;\u5feb\u9910\u5385;\u5feb\u9910\u5385", "pty": "0508"}}, {"type": "Feature", "geometry": {"type": "Point", "coordinates": [121.64995715377057, 31.263360846726783]}, "properties": {"name": "\u4f73\u610f\u897f\u997c\u5c4b(\u73af\u4e1c\u8def)", "biz": "050800|050300 \u9910\u996e\u670d\u52a1;\u7cd5\u997c\u5e97;\u7cd5\u997c\u5e97|\u9910\u996e\u670d\u52a1;\u5feb\u9910\u5385;\u5feb\u9910\u5385", "pty": "0508"}}, {"type": "Feature", "geometry": {"type": "Point", "coordinates": [121.47570192858166, 31.2289279828578]}, "properties": {"name": "\u714e\u6c99\u5480(\u4e9a\u9f99\u56fd\u9645\u5e7f\u573a)", "biz": "050700|050300 \u9910\u996e\u670d\u52a1;\u51b7\u996e\u5e97;\u51b7\u996e\u5e97|\u9910\u996e\u670d\u52a1;\u5feb\u9910\u5385;\u5feb\u9910\u5385", "pty": "0507"}}, {"type": "Feature", "geometry": {"type": "Point", "coordinates": [121.47121061820215, 31.23211093647082]}, "properties": {"name": "T&CHENG", "biz": "050700|050300 \u9910\u996e\u670d\u52a1;\u51b7\u996e\u5e97;\u51b7\u996e\u5e97|\u9910\u996e\u670d\u52a1;\u5feb\u9910\u5385;\u5feb\u9910\u5385", "pty": "0507"}}, {"type": "Feature", "geometry": {"type": "Point", "coordinates": [121.51305925929873, 31.301526931043714]}, "properties": {"name": "\u7c73\u829d\u83b2(\u5408\u751f\u6c47)", "biz": "050700|050300 \u9910\u996e\u670d\u52a1;\u51b7\u996e\u5e97;\u51b7\u996e\u5e97|\u9910\u996e\u670d\u52a1;\u5feb\u9910\u5385;\u5feb\u9910\u5385", "pty": "0507"}}, {"type": "Feature", "geometry": {"type": "Point", "coordinates": [121.38129088318276, 31.14295749758751]}, "properties": {"name": "\u68b5\u8336(\u9f99\u8317\u8def\u5e97)", "biz": "050300|050700 \u9910\u996e\u670d\u52a1;\u5feb\u9910\u5385;\u5feb\u9910\u5385|\u9910\u996e\u670d\u52a1;\u51b7\u996e\u5e97;\u51b7\u996e\u5e97", "pty": "0503"}}, {"type": "Feature", "geometry": {"type": "Point", "coordinates": [121.38333911422151, 31.317622696247994]}, "properties": {"name": "\u7235\u58eb\u73b0\u69a8\u679c\u6c41\u4e13\u5356", "biz": "050700|050300 \u9910\u996e\u670d\u52a1;\u51b7\u996e\u5e97;\u51b7\u996e\u5e97|\u9910\u996e\u670d\u52a1;\u5feb\u9910\u5385;\u5feb\u9910\u5385", "pty": "0507"}}, {"type": "Feature", "geometry": {"type": "Point", "coordinates": [121.28936131451924, 31.293684158783357]}, "properties": {"name": "\u901f\u5ba2\u58eb", "biz": "050300|050700 \u9910\u996e\u670d\u52a1;\u5feb\u9910\u5385;\u5feb\u9910\u5385|\u9910\u996e\u670d\u52a1;\u51b7\u996e\u5e97;\u51b7\u996e\u5e97", "pty": "0503"}}, {"type": "Feature", "geometry": {"type": "Point", "coordinates": [121.51485037990713, 31.23118225735886]}, "properties": {"name": "\u8336\u6854\u4fbf(\u65b0\u5927\u9646\u5e7f\u573a\u5357\u697c)", "biz": "050700|050300 \u9910\u996e\u670d\u52a1;\u51b7\u996e\u5e97;\u51b7\u996e\u5e97|\u9910\u996e\u670d\u52a1;\u5feb\u9910\u5385;\u5feb\u9910\u5385", "pty": "0507"}}, {"type": "Feature", "geometry": {"type": "Point", "coordinates": [121.58252611089755, 31.331703947529125]}, "properties": {"name": "\u968f\u98df\u5373\u9012(\u884c\u5357\u8def\u5e97)", "biz": "050300|050700 \u9910\u996e\u670d\u52a1;\u5feb\u9910\u5385;\u5feb\u9910\u5385|\u9910\u996e\u670d\u52a1;\u51b7\u996e\u5e97;\u51b7\u996e\u5e97", "pty": "0503"}}, {"type": "Feature", "geometry": {"type": "Point", "coordinates": [121.51837848524153, 31.20661284930525]}, "properties": {"name": "\u8d85\u7ea7\u5976\u7238(\u5317\u56ed\u8def\u5e97)", "biz": "050700|050300 \u9910\u996e\u670d\u52a1;\u51b7\u996e\u5e97;\u51b7\u996e\u5e97|\u9910\u996e\u670d\u52a1;\u5feb\u9910\u5385;\u5feb\u9910\u5385", "pty": "0507"}}, {"type": "Feature", "geometry": {"type": "Point", "coordinates": [121.3378973681563, 30.735294593463525]}, "properties": {"name": "\u5965\u4f26\u4e09\u660e\u6cbb\u9c9c\u69a8\u679c\u6c41", "biz": "050400|050300|050700 \u9910\u996e\u670d\u52a1;\u4f11\u95f2\u9910\u996e\u573a\u6240;\u4f11\u95f2\u9910\u996e\u573a\u6240|\u9910\u996e\u670d\u52a1;\u5feb\u9910\u5385;\u5feb\u9910\u5385|\u9910\u996e\u670d\u52a1;\u51b7\u996e\u5e97;\u51b7\u996e\u5e97", "pty": "0504"}}, {"type": "Feature", "geometry": {"type": "Point", "coordinates": [121.30465550535767, 31.065293272889402]}, "properties": {"name": "\u65e9\u9633(\u65b0\u4e5d\u5e7f\u573a)", "biz": "050700|050300 \u9910\u996e\u670d\u52a1;\u51b7\u996e\u5e97;\u51b7\u996e\u5e97|\u9910\u996e\u670d\u52a1;\u5feb\u9910\u5385;\u5feb\u9910\u5385", "pty": "0507"}}, {"type": "Feature", "geometry": {"type": "Point", "coordinates": [121.23737741571985, 31.059371511172582]}, "properties": {"name": "\u4e4c\u714e\u9053\u9ed1\u9f99\u8336(\u4e0a\u6d77\u677e\u6c5f\u533a\u76f4\u8425\u5e97)", "biz": "050700|050300 \u9910\u996e\u670d\u52a1;\u51b7\u996e\u5e97;\u51b7\u996e\u5e97|\u9910\u996e\u670d\u52a1;\u5feb\u9910\u5385;\u5feb\u9910\u5385", "pty": "0507"}}, {"type": "Feature", "geometry": {"type": "Point", "coordinates": [121.47004964481935, 31.22230432532727]}, "properties": {"name": "Green Safe(\u65b0\u5929\u5730\u5e97)", "biz": "050300 \u9910\u996e\u670d\u52a1;\u5feb\u9910\u5385;\u5feb\u9910\u5385", "pty": "0503"}}, {"type": "Feature", "geometry": {"type": "Point", "coordinates": [121.48599763918436, 31.242114845126217]}, "properties": {"name": "\u8d5b\u767e\u5473(\u5916\u6ee9\u5e97)", "biz": "050300 \u9910\u996e\u670d\u52a1;\u5feb\u9910\u5385;\u5feb\u9910\u5385", "pty": "0503"}}, {"type": "Feature", "geometry": {"type": "Point", "coordinates": [121.49279926434453, 31.215017733626343]}, "properties": {"name": "\u5feb\u6377\u5feb\u9910\u5e97", "biz": "050300 \u9910\u996e\u670d\u52a1;\u5feb\u9910\u5385;\u5feb\u9910\u5385", "pty": "0503"}}, {"type": "Feature", "geometry": {"type": "Point", "coordinates": [121.47615709289741, 31.233413198418983]}, "properties": {"name": "\u8d2f\u8d2f\u5409\u7a46\u65af\u6797\u9910\u5385(\u6d59\u6c5f\u4e2d\u8def\u5e97)", "biz": "050300 \u9910\u996e\u670d\u52a1;\u5feb\u9910\u5385;\u5feb\u9910\u5385", "pty": "0503"}}, {"type": "Feature", "geometry": {"type": "Point", "coordinates": [121.4828032366109, 31.243532791276795]}, "properties": {"name": "\u4e3d\u534e\u5feb\u9910(\u5916\u6ee9\u5e97)", "biz": "050300 \u9910\u996e\u670d\u52a1;\u5feb\u9910\u5385;\u5feb\u9910\u5385", "pty": "0503"}}, {"type": "Feature", "geometry": {"type": "Point", "coordinates": [121.4770191535697, 31.22030777740332]}, "properties": {"name": "\u5927\u80a0\u9762(\u590d\u5174\u4e2d\u8def\u5e97)", "biz": "050300 \u9910\u996e\u670d\u52a1;\u5feb\u9910\u5385;\u5feb\u9910\u5385", "pty": "0503"}}, {"type": "Feature", "geometry": {"type": "Point", "coordinates": [121.4928892676509, 31.230591672128433]}, "properties": {"name": "\u65e5\u672c\u53a8\u623f", "biz": "050300 \u9910\u996e\u670d\u52a1;\u5feb\u9910\u5385;\u5feb\u9910\u5385", "pty": "0503"}}, {"type": "Feature", "geometry": {"type": "Point", "coordinates": [121.47668004966839, 31.23137762869322]}, "properties": {"name": "\u4e09\u5b9d\u65e9\u9910(\u6c38\u5bff\u8def\u5e97)", "biz": "050300 \u9910\u996e\u670d\u52a1;\u5feb\u9910\u5385;\u5feb\u9910\u5385", "pty": "0503"}}, {"type": "Feature", "geometry": {"type": "Point", "coordinates": [121.47883378145164, 31.23915223436813]}, "properties": {"name": "\u91cd\u5e86\u5c0f\u9762(\u84dd\u9ccd\u7f8e\u98df\u57ce\u5e97)", "biz": "050300 \u9910\u996e\u670d\u52a1;\u5feb\u9910\u5385;\u5feb\u9910\u5385", "pty": "0503"}}, {"type": "Feature", "geometry": {"type": "Point", "coordinates": [121.45277845949975, 31.22322528771883]}, "properties": {"name": "\u51af\u7238\u9762\u9986(\u9655\u897f\u5357\u8def\u5e97)", "biz": "050300 \u9910\u996e\u670d\u52a1;\u5feb\u9910\u5385;\u5feb\u9910\u5385", "pty": "0503"}}, {"type": "Feature", "geometry": {"type": "Point", "coordinates": [121.47948594490857, 31.240228627634263]}, "properties": {"name": "\u5927\u5f00\u6c99\u754c(\u6052\u57fa\u540d\u4eba\u8d2d\u7269\u4e2d\u5fc3)", "biz": "050300 \u9910\u996e\u670d\u52a1;\u5feb\u9910\u5385;\u5feb\u9910\u5385", "pty": "0503"}}, {"type": "Feature", "geometry": {"type": "Point", "coordinates": [121.47291694566273, 31.200928515377065]}, "properties": {"name": "\u90fd\u8c37\u9999(\u7fdf\u6eaa\u8def\u6c47\u66bb\u5e7f\u573a\u5e97)", "biz": "050300 \u9910\u996e\u670d\u52a1;\u5feb\u9910\u5385;\u5feb\u9910\u5385", "pty": "0503"}}, {"type": "Feature", "geometry": {"type": "Point", "coordinates": [121.4555822515118, 31.223178829053477]}, "properties": {"name": "\u96be\u5f97\u4e00\u9762", "biz": "050300 \u9910\u996e\u670d\u52a1;\u5feb\u9910\u5385;\u5feb\u9910\u5385", "pty": "0503"}}, {"type": "Feature", "geometry": {"type": "Point", "coordinates": [121.47019858263124, 31.217041224623447]}, "properties": {"name": "\u54c8\u6bd4\u7279\u6c49\u5821", "biz": "050300 \u9910\u996e\u670d\u52a1;\u5feb\u9910\u5385;\u5feb\u9910\u5385", "pty": "0503"}}, {"type": "Feature", "geometry": {"type": "Point", "coordinates": [121.47645560324699, 31.22763772676378]}, "properties": {"name": "\u6162\u70b9\u517b\u751f", "biz": "071400|050300|071100 \u751f\u6d3b\u670d\u52a1;\u6d17\u6d74\u63a8\u62ff\u573a\u6240;\u6d17\u6d74\u63a8\u62ff\u573a\u6240|\u9910\u996e\u670d\u52a1;\u5feb\u9910\u5385;\u5feb\u9910\u5385|\u751f\u6d3b\u670d\u52a1;\u7f8e\u5bb9\u7f8e\u53d1\u5e97;\u7f8e\u5bb9\u7f8e\u53d1\u5e97", "pty": "0714"}}, {"type": "Feature", "geometry": {"type": "Point", "coordinates": [121.47242030401556, 31.235863557897513]}, "properties": {"name": "\u8d1e\u4e30\u7cef\u7c73\u996d(\u4e5d\u6c5f\u8def\u5206\u5e97)", "biz": "050300 \u9910\u996e\u670d\u52a1;\u5feb\u9910\u5385;\u5feb\u9910\u5385", "pty": "0503"}}, {"type": "Feature", "geometry": {"type": "Point", "coordinates": [121.46878692067702, 31.194446346372796]}, "properties": {"name": "kimola premium kids club\u4eb2\u5b50\u9910\u5385", "biz": "050300 \u9910\u996e\u670d\u52a1;\u5feb\u9910\u5385;\u5feb\u9910\u5385", "pty": "0503"}}, {"type": "Feature", "geometry": {"type": "Point", "coordinates": [121.46475276708175, 31.209749126091385]}, "properties": {"name": "\u8001\u53cb\u8bb0\u521b\u610f\u9762\u9986", "biz": "050300 \u9910\u996e\u670d\u52a1;\u5feb\u9910\u5385;\u5feb\u9910\u5385", "pty": "0503"}}, {"type": "Feature", "geometry": {"type": "Point", "coordinates": [121.48263118737874, 31.21353725002373]}, "properties": {"name": "\u79e6\u5ddd\u5c0f\u5b50(\u9646\u5bb6\u6d5c\u8def\u5e97)", "biz": "050300 \u9910\u996e\u670d\u52a1;\u5feb\u9910\u5385;\u5feb\u9910\u5385", "pty": "0503"}}, {"type": "Feature", "geometry": {"type": "Point", "coordinates": [121.47010928874083, 31.217060970848024]}, "properties": {"name": "\u957f\u5b89\u5ba2(Soho\u590d\u5174\u5e7f\u573a)", "biz": "050300 \u9910\u996e\u670d\u52a1;\u5feb\u9910\u5385;\u5feb\u9910\u5385", "pty": "0503"}}, {"type": "Feature", "geometry": {"type": "Point", "coordinates": [121.48529360400345, 31.213184253563142]}, "properties": {"name": "\u83dc\u996d\u9aa8\u5934\u6c64(\u4e3d\u56ed\u8def\u5e97)", "biz": "050300 \u9910\u996e\u670d\u52a1;\u5feb\u9910\u5385;\u5feb\u9910\u5385", "pty": "0503"}}, {"type": "Feature", "geometry": {"type": "Point", "coordinates": [121.4801152422196, 31.238886061833522]}, "properties": {"name": "\u5c0f\u6768\u751f\u714e(\u5b8f\u4f0a\u5e7f\u573a\u5e97)", "biz": "050300 \u9910\u996e\u670d\u52a1;\u5feb\u9910\u5385;\u5feb\u9910\u5385", "pty": "0503"}}, {"type": "Feature", "geometry": {"type": "Point", "coordinates": [121.47912274397355, 31.239572876506585]}, "properties": {"name": "\u9c9c\u69a8\u679c\u6c41FreshJuice(\u534e\u8054\u5546\u53a6\u5357\u4eac\u4e1c\u8def\u5e97)", "biz": "050300 \u9910\u996e\u670d\u52a1;\u5feb\u9910\u5385;\u5feb\u9910\u5385", "pty": "0503"}}, {"type": "Feature", "geometry": {"type": "Point", "coordinates": [121.46931774993956, 31.204879670327436]}, "properties": {"name": "\u7092\u996d\u7092\u9762", "biz": "050300 \u9910\u996e\u670d\u52a1;\u5feb\u9910\u5385;\u5feb\u9910\u5385", "pty": "0503"}}, {"type": "Feature", "geometry": {"type": "Point", "coordinates": [121.47058757568944, 31.196960016298902]}, "properties": {"name": "\u4e3d\u534e\u5feb\u9910(\u9ec4\u6d66\u5e97)", "biz": "050300 \u9910\u996e\u670d\u52a1;\u5feb\u9910\u5385;\u5feb\u9910\u5385", "pty": "0503"}}, {"type": "Feature", "geometry": {"type": "Point", "coordinates": [121.47929765231338, 31.236018006801153]}, "properties": {"name": "\u8001\u4e0a\u6d77\u8471\u6cb9\u997c", "biz": "050300 \u9910\u996e\u670d\u52a1;\u5feb\u9910\u5385;\u5feb\u9910\u5385", "pty": "0503"}}, {"type": "Feature", "geometry": {"type": "Point", "coordinates": [121.4791950871899, 31.23848258259616]}, "properties": {"name": "\u5c71\u4eba\u7476(\u60a6\u835f\u5e97)", "biz": "050300 \u9910\u996e\u670d\u52a1;\u5feb\u9910\u5385;\u5feb\u9910\u5385", "pty": "0503"}}, {"type": "Feature", "geometry": {"type": "Point", "coordinates": [121.46469873701935, 31.208129766371144]}, "properties": {"name": "\u9ed1\u91d1\u86cb\u7092\u996d(\u65e5\u6708\u5149\u4e2d\u5fc3\u897f\u533a)", "biz": "050300 \u9910\u996e\u670d\u52a1;\u5feb\u9910\u5385;\u5feb\u9910\u5385", "pty": "0503"}}, {"type": "Feature", "geometry": {"type": "Point", "coordinates": [121.47911477810413, 31.238850182924057]}, "properties": {"name": "\u540d\u57ce\u540d\u70b9 DIMSUM TOWN", "biz": "050300 \u9910\u996e\u670d\u52a1;\u5feb\u9910\u5385;\u5feb\u9910\u5385", "pty": "0503"}}, {"type": "Feature", "geometry": {"type": "Point", "coordinates": [121.4766195701303, 31.234574980452074]}, "properties": {"name": "\u725b\u5f97\u591a-\u73b0\u71ac\u725b\u9aa8\u6c64\u725b\u8089\u9762", "biz": "050300 \u9910\u996e\u670d\u52a1;\u5feb\u9910\u5385;\u5feb\u9910\u5385", "pty": "0503"}}, {"type": "Feature", "geometry": {"type": "Point", "coordinates": [121.47435994244016, 31.222466214819114]}, "properties": {"name": "SHI-ZAI LOBSTER(\u6e56\u6ee8\u9053\u5e97)", "biz": "050300 \u9910\u996e\u670d\u52a1;\u5feb\u9910\u5385;\u5feb\u9910\u5385", "pty": "0503"}}, {"type": "Feature", "geometry": {"type": "Point", "coordinates": [121.46307760106333, 31.209379954168668]}, "properties": {"name": "\u4e1c\u53d1\u9053\u9999\u6e2f\u7c89\u9762\u996d", "biz": "050300 \u9910\u996e\u670d\u52a1;\u5feb\u9910\u5385;\u5feb\u9910\u5385", "pty": "0503"}}, {"type": "Feature", "geometry": {"type": "Point", "coordinates": [121.47469400952698, 31.223158830207115]}, "properties": {"name": "\u5929\u540e\u7ad9\u6e05\u6c64\u8169", "biz": "050300 \u9910\u996e\u670d\u52a1;\u5feb\u9910\u5385;\u5feb\u9910\u5385", "pty": "0503"}}, {"type": "Feature", "geometry": {"type": "Point", "coordinates": [121.45424458179119, 31.222225137272442]}, "properties": {"name": "\u53f0\u6e7e\u98ce\u5473\u5c0f\u5403(\u957f\u4e50\u5e97)", "biz": "050300 \u9910\u996e\u670d\u52a1;\u5feb\u9910\u5385;\u5feb\u9910\u5385", "pty": "0503"}}, {"type": "Feature", "geometry": {"type": "Point", "coordinates": [121.48837334159548, 31.227484626885545]}, "properties": {"name": "\u771f\u529f\u592b(\u65b9\u6d5c\u4e2d\u8def\u5e97)", "biz": "050300 \u9910\u996e\u670d\u52a1;\u5feb\u9910\u5385;\u5feb\u9910\u5385", "pty": "0503"}}, {"type": "Feature", "geometry": {"type": "Point", "coordinates": [121.47934047530379, 31.239829388711684]}, "properties": {"name": "\u76db\u4eac\u5f04\u5802\u91cc(\u6052\u57fa\u540d\u4eba\u8d2d\u7269\u4e2d\u5fc3)", "biz": "050300 \u9910\u996e\u670d\u52a1;\u5feb\u9910\u5385;\u5feb\u9910\u5385", "pty": "0503"}}, {"type": "Feature", "geometry": {"type": "Point", "coordinates": [121.46779219137966, 31.200542662020393]}, "properties": {"name": "\u571f\u5bb6\u9171\u9999\u997c(\u6253\u6d66\u8def\u5e97)", "biz": "050300 \u9910\u996e\u670d\u52a1;\u5feb\u9910\u5385;\u5feb\u9910\u5385", "pty": "0503"}}, {"type": "Feature", "geometry": {"type": "Point", "coordinates": [121.46974482275296, 31.20859503341325]}, "properties": {"name": "\u5927\u773c\u5bb6\u5e38\u83dc", "biz": "050300 \u9910\u996e\u670d\u52a1;\u5feb\u9910\u5385;\u5feb\u9910\u5385", "pty": "0503"}}, {"type": "Feature", "geometry": {"type": "Point", "coordinates": [121.47809568500097, 31.19874326012281]}, "properties": {"name": "\u70df\u6ce2\u4ead(\u5bcc\u6e2f\u5927\u53a6\u5e97)", "biz": "050300 \u9910\u996e\u670d\u52a1;\u5feb\u9910\u5385;\u5feb\u9910\u5385", "pty": "0503"}}, {"type": "Feature", "geometry": {"type": "Point", "coordinates": [121.47156556552365, 31.223053141237326]}, "properties": {"name": "\u7126\u5927\u738b\u79c1\u623f\u76d2\u996d\u65b0\u5929\u5730\u7ad9", "biz": "050300 \u9910\u996e\u670d\u52a1;\u5feb\u9910\u5385;\u5feb\u9910\u5385", "pty": "0503"}}, {"type": "Feature", "geometry": {"type": "Point", "coordinates": [121.47224559950085, 31.2373094098565]}, "properties": {"name": "\u5357\u7fd4\u9992\u5934\u5e97(\u5357\u4eac\u4e1c\u8def\u5e97)", "biz": "050300 \u9910\u996e\u670d\u52a1;\u5feb\u9910\u5385;\u5feb\u9910\u5385", "pty": "0503"}}, {"type": "Feature", "geometry": {"type": "Point", "coordinates": [121.471953865932, 31.234566858749844]}, "properties": {"name": "\u4e0a\u6d77\u5bcc\u6625\u5c0f\u7b3c\u6765\u798f\u58eb\u5e97(\u5927\u98df\u4ee3\u6765\u798f\u58eb\u5e97)", "biz": "050300 \u9910\u996e\u670d\u52a1;\u5feb\u9910\u5385;\u5feb\u9910\u5385", "pty": "0503"}}, {"type": "Feature", "geometry": {"type": "Point", "coordinates": [121.47882976485451, 31.23918420821038]}, "properties": {"name": "\u7f8e\u98df\u7f8e\u5929\u7f8e\u98df\u5e7f\u573a(\u534e\u8054\u5546\u53a6\u5357\u4eac\u4e1c\u8def\u5e97)", "biz": "050300 \u9910\u996e\u670d\u52a1;\u5feb\u9910\u5385;\u5feb\u9910\u5385", "pty": "0503"}}, {"type": "Feature", "geometry": {"type": "Point", "coordinates": [121.47074348204791, 31.239094444049254]}, "properties": {"name": "\u6765\u4e00\u7897\u6912\u9ebb\u9e21", "biz": "050300 \u9910\u996e\u670d\u52a1;\u5feb\u9910\u5385;\u5feb\u9910\u5385", "pty": "0503"}}, {"type": "Feature", "geometry": {"type": "Point", "coordinates": [121.4794507999159, 31.240501401949384]}, "properties": {"name": "\u57ce\u968d\u5e99\u4f20\u7edf\u5c0f\u5403(\u5929\u6d25\u8def\u5e97)", "biz": "050300 \u9910\u996e\u670d\u52a1;\u5feb\u9910\u5385;\u5feb\u9910\u5385", "pty": "0503"}}, {"type": "Feature", "geometry": {"type": "Point", "coordinates": [121.48520309633064, 31.21538593338932]}, "properties": {"name": "\u53e3\u5473\u7cbd\u5b50", "biz": "050300 \u9910\u996e\u670d\u52a1;\u5feb\u9910\u5385;\u5feb\u9910\u5385", "pty": "0503"}}, {"type": "Feature", "geometry": {"type": "Point", "coordinates": [121.47482244362449, 31.22315319528185]}, "properties": {"name": "\u6843\u56ed\u7737\u6751(\u65b0\u5929\u5730\u5e97)", "biz": "050300 \u9910\u996e\u670d\u52a1;\u5feb\u9910\u5385;\u5feb\u9910\u5385", "pty": "0503"}}, {"type": "Feature", "geometry": {"type": "Point", "coordinates": [121.46399154385857, 31.208011979436893]}, "properties": {"name": "\u9e9f\u7b3c\u574a(\u65e5\u6708\u5149\u4e2d\u5fc3\u897f\u533a)", "biz": "050300 \u9910\u996e\u670d\u52a1;\u5feb\u9910\u5385;\u5feb\u9910\u5385", "pty": "0503"}}, {"type": "Feature", "geometry": {"type": "Point", "coordinates": [121.47542784471989, 31.230730368757975]}, "properties": {"name": "\u5927\u80a0\u9762(\u4e91\u5357\u5357\u8def\u5e97)", "biz": "050300 \u9910\u996e\u670d\u52a1;\u5feb\u9910\u5385;\u5feb\u9910\u5385", "pty": "0503"}}, {"type": "Feature", "geometry": {"type": "Point", "coordinates": [121.46698657858035, 31.212614653459784]}, "properties": {"name": "Acqua Pazza(\u5efa\u56fd\u4e2d\u8def\u5e97)", "biz": "050300 \u9910\u996e\u670d\u52a1;\u5feb\u9910\u5385;\u5feb\u9910\u5385", "pty": "0503"}}, {"type": "Feature", "geometry": {"type": "Point", "coordinates": [121.48265126378064, 31.21346734231429]}, "properties": {"name": "\u75af\u72c2\u5c0f\u4e38\u5b50", "biz": "050300 \u9910\u996e\u670d\u52a1;\u5feb\u9910\u5385;\u5feb\u9910\u5385", "pty": "0503"}}, {"type": "Feature", "geometry": {"type": "Point", "coordinates": [121.49305718889536, 31.215052489573146]}, "properties": {"name": "\u767e\u59d3\u83dc\u80b4", "biz": "050300 \u9910\u996e\u670d\u52a1;\u5feb\u9910\u5385;\u5feb\u9910\u5385", "pty": "0503"}}, {"type": "Feature", "geometry": {"type": "Point", "coordinates": [121.47222868115892, 31.22401052863113]}, "properties": {"name": "\u5de7\u5ab3\u5987\u6842\u6797\u7c73\u7c89(\u592a\u4ed3\u8def\u5e97)", "biz": "050300 \u9910\u996e\u670d\u52a1;\u5feb\u9910\u5385;\u5feb\u9910\u5385", "pty": "0503"}}, {"type": "Feature", "geometry": {"type": "Point", "coordinates": [121.47529304638743, 31.234727141431073]}, "properties": {"name": "\u8001\u4e0a\u6d77\u8471\u6cb9\u997c(\u4e91\u5357\u5357\u8def\u5e97)", "biz": "050300 \u9910\u996e\u670d\u52a1;\u5feb\u9910\u5385;\u5feb\u9910\u5385", "pty": "0503"}}, {"type": "Feature", "geometry": {"type": "Point", "coordinates": [121.47224961343491, 31.23730242420132]}, "properties": {"name": "\u8001\u5317\u6865\u8fc7\u6865\u7c73\u7ebf(\u7b2c\u4e00\u98df\u54c1\u5357\u4eac\u4e1c\u8def\u5e97)", "biz": "050300 \u9910\u996e\u670d\u52a1;\u5feb\u9910\u5385;\u5feb\u9910\u5385", "pty": "0503"}}, {"type": "Feature", "geometry": {"type": "Point", "coordinates": [121.47142690463777, 31.20203983560492]}, "properties": {"name": "\u6e05\u771f\u7cbe\u54c1\u725b\u8089\u9762(\u9c81\u73ed\u8def\u5e97)", "biz": "050300 \u9910\u996e\u670d\u52a1;\u5feb\u9910\u5385;\u5feb\u9910\u5385", "pty": "0503"}}, {"type": "Feature", "geometry": {"type": "Point", "coordinates": [121.46418114559593, 31.207866542915625]}, "properties": {"name": "\u963f\u9999\u7c73\u7ebf(\u65e5\u6708\u5149\u4e2d\u5fc3\u897f\u533a)", "biz": "050300 \u9910\u996e\u670d\u52a1;\u5feb\u9910\u5385;\u5feb\u9910\u5385", "pty": "0503"}}, {"type": "Feature", "geometry": {"type": "Point", "coordinates": [121.46378278770293, 31.209277826156207]}, "properties": {"name": "\u6843\u56ed\u7737\u6751(\u65e5\u6708\u5149\u4e2d\u5fc3\u897f\u533a)", "biz": "050300 \u9910\u996e\u670d\u52a1;\u5feb\u9910\u5385;\u5feb\u9910\u5385", "pty": "0503"}}, {"type": "Feature", "geometry": {"type": "Point", "coordinates": [121.4797248242794, 31.23962459384207]}, "properties": {"name": "\u6c49\u5821\u738b(\u6052\u57fa\u540d\u4eba\u8d2d\u7269\u4e2d\u5fc3)", "biz": "050300 \u9910\u996e\u670d\u52a1;\u5feb\u9910\u5385;\u5feb\u9910\u5385", "pty": "0503"}}, {"type": "Feature", "geometry": {"type": "Point", "coordinates": [121.47786249818436, 31.238422772880536]}, "properties": {"name": "\u53f0\u91d1\u5170(\u4e0a\u6d77\u7f6e\u5730\u5e7f\u573a)", "biz": "050300 \u9910\u996e\u670d\u52a1;\u5feb\u9910\u5385;\u5feb\u9910\u5385", "pty": "0503"}}, {"type": "Feature", "geometry": {"type": "Point", "coordinates": [121.45965327709979, 31.22064290812166]}, "properties": {"name": "MUJI Diner(\u6dee\u6d77755\u5e97)", "biz": "050300 \u9910\u996e\u670d\u52a1;\u5feb\u9910\u5385;\u5feb\u9910\u5385", "pty": "0503"}}, {"type": "Feature", "geometry": {"type": "Point", "coordinates": [121.47899460569117, 31.236003138481404]}, "properties": {"name": "\u771f\u9ec4\u9c7c\u9762\u9986(\u798f\u5dde\u8def\u5e97)", "biz": "050300 \u9910\u996e\u670d\u52a1;\u5feb\u9910\u5385;\u5feb\u9910\u5385", "pty": "0503"}}, {"type": "Feature", "geometry": {"type": "Point", "coordinates": [121.47560072393225, 31.22730245321659]}, "properties": {"name": "\u5361\u4e50\u661f(\u6dee\u6d77\u4e2d\u8def\u5e97)", "biz": "050300 \u9910\u996e\u670d\u52a1;\u5feb\u9910\u5385;\u5feb\u9910\u5385", "pty": "0503"}}, {"type": "Feature", "geometry": {"type": "Point", "coordinates": [121.48280078007518, 31.21356773240346]}, "properties": {"name": "\u8c37\u7530\u7a3b\u9999(\u65b0\u90bb\u5929\u5730\u9ec4\u6d66\u5e97)", "biz": "050300 \u9910\u996e\u670d\u52a1;\u5feb\u9910\u5385;\u5feb\u9910\u5385", "pty": "0503"}}, {"type": "Feature", "geometry": {"type": "Point", "coordinates": [121.464400038286, 31.217063701691693]}, "properties": {"name": "FATBURGER(\u601d\u5357\u516c\u9986\u5e97)", "biz": "050300 \u9910\u996e\u670d\u52a1;\u5feb\u9910\u5385;\u5feb\u9910\u5385", "pty": "0503"}}, {"type": "Feature", "geometry": {"type": "Point", "coordinates": [121.48372702049559, 31.23726635293883]}, "properties": {"name": "\u9c9c\u98df\u6c47", "biz": "050300 \u9910\u996e\u670d\u52a1;\u5feb\u9910\u5385;\u5feb\u9910\u5385", "pty": "0503"}}, {"type": "Feature", "geometry": {"type": "Point", "coordinates": [121.4693511180999, 31.236880648098428]}, "properties": {"name": "\u771f\u529f\u592b(\u65b0\u4e16\u754c\u57ce)", "biz": "050300 \u9910\u996e\u670d\u52a1;\u5feb\u9910\u5385;\u5feb\u9910\u5385", "pty": "0503"}}, {"type": "Feature", "geometry": {"type": "Point", "coordinates": [121.46886214148908, 31.229749609397444]}, "properties": {"name": "\u5473\u5343\u62c9\u9762(\u4eba\u6c11\u5927\u9053\u5206\u5e97)", "biz": "050300 \u9910\u996e\u670d\u52a1;\u5feb\u9910\u5385;\u5feb\u9910\u5385", "pty": "0503"}}, {"type": "Feature", "geometry": {"type": "Point", "coordinates": [121.45552705445344, 31.22365447476959]}, "properties": {"name": "baohouse", "biz": "050300 \u9910\u996e\u670d\u52a1;\u5feb\u9910\u5385;\u5feb\u9910\u5385", "pty": "0503"}}, {"type": "Feature", "geometry": {"type": "Point", "coordinates": [121.47570192858166, 31.2289279828578]}, "properties": {"name": "\u714e\u6c99\u5480(\u4e9a\u9f99\u56fd\u9645\u5e7f\u573a)", "biz": "050700|050300 \u9910\u996e\u670d\u52a1;\u51b7\u996e\u5e97;\u51b7\u996e\u5e97|\u9910\u996e\u670d\u52a1;\u5feb\u9910\u5385;\u5feb\u9910\u5385", "pty": "0507"}}, {"type": "Feature", "geometry": {"type": "Point", "coordinates": [121.48022998757918, 31.234821256416602]}, "properties": {"name": "\u6b63\u65b0\u9e21\u6392(\u5c71\u4e1c\u4e2d\u8def\u5e97)", "biz": "050300 \u9910\u996e\u670d\u52a1;\u5feb\u9910\u5385;\u5feb\u9910\u5385", "pty": "0503"}}, {"type": "Feature", "geometry": {"type": "Point", "coordinates": [121.49840269947676, 31.22378937158232]}, "properties": {"name": "\u65b0\u6e90\u5e7f\u573a\u5458\u5de5\u9910\u5385", "biz": "050300 \u9910\u996e\u670d\u52a1;\u5feb\u9910\u5385;\u5feb\u9910\u5385", "pty": "0503"}}, {"type": "Feature", "geometry": {"type": "Point", "coordinates": [121.46369142230309, 31.210238126440526]}, "properties": {"name": "PANDA RESTAURANT&BAR", "biz": "050300 \u9910\u996e\u670d\u52a1;\u5feb\u9910\u5385;\u5feb\u9910\u5385", "pty": "0503"}}, {"type": "Feature", "geometry": {"type": "Point", "coordinates": [121.48519707501583, 31.215385915611012]}, "properties": {"name": "\u53e3\u5473\u7cbd\u738b", "biz": "050300 \u9910\u996e\u670d\u52a1;\u5feb\u9910\u5385;\u5feb\u9910\u5385", "pty": "0503"}}, {"type": "Feature", "geometry": {"type": "Point", "coordinates": [121.47288767429589, 31.23804685977799]}, "properties": {"name": "\u4e1c\u4e9a\u5927\u98df\u5802", "biz": "050300 \u9910\u996e\u670d\u52a1;\u5feb\u9910\u5385;\u5feb\u9910\u5385", "pty": "0503"}}, {"type": "Feature", "geometry": {"type": "Point", "coordinates": [121.48418247494754, 31.239048878920382]}, "properties": {"name": "\u963f\u7518\u9505\u76d4(\u5357\u4eac\u8def\u6b65\u884c\u8857)", "biz": "050300 \u9910\u996e\u670d\u52a1;\u5feb\u9910\u5385;\u5feb\u9910\u5385", "pty": "0503"}}, {"type": "Feature", "geometry": {"type": "Point", "coordinates": [121.46173353319118, 31.220546182974733]}, "properties": {"name": "\u6cf0\u548c\u996e\u98df\u5e97", "biz": "050300 \u9910\u996e\u670d\u52a1;\u5feb\u9910\u5385;\u5feb\u9910\u5385", "pty": "0503"}}, {"type": "Feature", "geometry": {"type": "Point", "coordinates": [121.47161485038401, 31.23331449702354]}, "properties": {"name": "\u968b\u7080\u5e1d\u7092\u996d(\u4eba\u6c11\u5e7f\u573a\u5e97)", "biz": "050300 \u9910\u996e\u670d\u52a1;\u5feb\u9910\u5385;\u5feb\u9910\u5385", "pty": "0503"}}, {"type": "Feature", "geometry": {"type": "Point", "coordinates": [121.46405154501164, 31.210171093498666]}, "properties": {"name": "\u4e00\u5c01\u9165\u4fe1", "biz": "050300 \u9910\u996e\u670d\u52a1;\u5feb\u9910\u5385;\u5feb\u9910\u5385", "pty": "0503"}}, {"type": "Feature", "geometry": {"type": "Point", "coordinates": [121.48529417018456, 31.230065291831348]}, "properties": {"name": "\u5434\u8bb0\u767e\u5e74\u8001\u5364", "biz": "050300 \u9910\u996e\u670d\u52a1;\u5feb\u9910\u5385;\u5feb\u9910\u5385", "pty": "0503"}}, {"type": "Feature", "geometry": {"type": "Point", "coordinates": [121.45501607699347, 31.21828480544304]}, "properties": {"name": "\u4e32\u884c\u5929\u4e0b(\u6dee\u6d77\u4e2d\u8def\u5e97)", "biz": "050300 \u9910\u996e\u670d\u52a1;\u5feb\u9910\u5385;\u5feb\u9910\u5385", "pty": "0503"}}, {"type": "Feature", "geometry": {"type": "Point", "coordinates": [121.47217641238828, 31.236810446163993]}, "properties": {"name": "jamaicablue Bar", "biz": "050300 \u9910\u996e\u670d\u52a1;\u5feb\u9910\u5385;\u5feb\u9910\u5385", "pty": "0503"}}, {"type": "Feature", "geometry": {"type": "Point", "coordinates": [121.4785967918781, 31.241164635849287]}, "properties": {"name": "\u6f58\u00b7\u5b81\u6ce2\u7cd5\u56e2", "biz": "050300 \u9910\u996e\u670d\u52a1;\u5feb\u9910\u5385;\u5feb\u9910\u5385", "pty": "0503"}}, {"type": "Feature", "geometry": {"type": "Point", "coordinates": [121.4657098752766, 31.23188418588659]}, "properties": {"name": "\u6625\u610f\u9601\u98df\u54c1\u5e97", "biz": "050300 \u9910\u996e\u670d\u52a1;\u5feb\u9910\u5385;\u5feb\u9910\u5385", "pty": "0503"}}, {"type": "Feature", "geometry": {"type": "Point", "coordinates": [121.47557749431526, 31.22906756499603]}, "properties": {"name": "\u4e8c\u5341\u4e94\u5757\u534a(\u4eba\u6c11\u5e7f\u573a\u5e97)", "biz": "050300 \u9910\u996e\u670d\u52a1;\u5feb\u9910\u5385;\u5feb\u9910\u5385", "pty": "0503"}}, {"type": "Feature", "geometry": {"type": "Point", "coordinates": [121.46847808315268, 31.204247701468535]}, "properties": {"name": "\u6c64\u5148\u751f\u6c64\u9986(\u6253\u6d66\u6865\u5e97)", "biz": "050300 \u9910\u996e\u670d\u52a1;\u5feb\u9910\u5385;\u5feb\u9910\u5385", "pty": "0503"}}, {"type": "Feature", "geometry": {"type": "Point", "coordinates": [121.47472273627437, 31.21578740253193]}, "properties": {"name": "\u4e94\u8c37\u9999\u9165\u5927\u997c", "biz": "050300 \u9910\u996e\u670d\u52a1;\u5feb\u9910\u5385;\u5feb\u9910\u5385", "pty": "0503"}}, {"type": "Feature", "geometry": {"type": "Point", "coordinates": [121.47268841671276, 31.2332914874388]}, "properties": {"name": "\u6c5f\u592a\u592a\u725b\u8089\u9762", "biz": "050300 \u9910\u996e\u670d\u52a1;\u5feb\u9910\u5385;\u5feb\u9910\u5385", "pty": "0503"}}, {"type": "Feature", "geometry": {"type": "Point", "coordinates": [121.4727059378386, 31.216188556465912]}, "properties": {"name": "\u6e58\u8da3\u7f18", "biz": "050300 \u9910\u996e\u670d\u52a1;\u5feb\u9910\u5385;\u5feb\u9910\u5385", "pty": "0503"}}, {"type": "Feature", "geometry": {"type": "Point", "coordinates": [121.48270144276904, 31.21343350554182]}, "properties": {"name": "Hi\u5473\u82b1\u7532(\u65b0\u90bb\u5e97)", "biz": "050300 \u9910\u996e\u670d\u52a1;\u5feb\u9910\u5385;\u5feb\u9910\u5385", "pty": "0503"}}, {"type": "Feature", "geometry": {"type": "Point", "coordinates": [121.47550825638983, 31.2291033520801]}, "properties": {"name": "\u5170\u5dde\u9ec4\u6cb3\u697c\u725b\u8089\u62c9\u9762(\u89c5\u98df\u7f8e\u98df\u5e7f\u573a\u5e97)", "biz": "050300 \u9910\u996e\u670d\u52a1;\u5feb\u9910\u5385;\u5feb\u9910\u5385", "pty": "0503"}}, {"type": "Feature", "geometry": {"type": "Point", "coordinates": [121.47662665595398, 31.2338533329212]}, "properties": {"name": "\u548c\u98ce\u5b9a\u98df", "biz": "050300 \u9910\u996e\u670d\u52a1;\u5feb\u9910\u5385;\u5feb\u9910\u5385", "pty": "0503"}}, {"type": "Feature", "geometry": {"type": "Point", "coordinates": [121.4798087481322, 31.2322062408909]}, "properties": {"name": "\u97e9\u56fd\u94c1\u677f\u7092\u996d", "biz": "050300 \u9910\u996e\u670d\u52a1;\u5feb\u9910\u5385;\u5feb\u9910\u5385", "pty": "0503"}}, {"type": "Feature", "geometry": {"type": "Point", "coordinates": [121.47630355709876, 31.23381842840528]}, "properties": {"name": "\u6d3e\u4e50\u6ecb\u6c49\u5821(\u5e7f\u4e1c\u8def\u5e97)", "biz": "050300 \u9910\u996e\u670d\u52a1;\u5feb\u9910\u5385;\u5feb\u9910\u5385", "pty": "0503"}}, {"type": "Feature", "geometry": {"type": "Point", "coordinates": [121.46826069647197, 31.20057090950897]}, "properties": {"name": "\u91cd\u5e86\u9ebb\u8fa3\u70eb(\u77bf\u6eaa\u8def\u5e97)", "biz": "050300 \u9910\u996e\u670d\u52a1;\u5feb\u9910\u5385;\u5feb\u9910\u5385", "pty": "0503"}}, {"type": "Feature", "geometry": {"type": "Point", "coordinates": [121.46797175654791, 31.200682076620335]}, "properties": {"name": "\u91cd\u5e86\u592b\u59bb\u80ba\u7247", "biz": "050300 \u9910\u996e\u670d\u52a1;\u5feb\u9910\u5385;\u5feb\u9910\u5385", "pty": "0503"}}, {"type": "Feature", "geometry": {"type": "Point", "coordinates": [121.46541615939249, 31.22943954494139]}, "properties": {"name": "\u5357\u4eac\u704c\u6c64\u5305(\u6b66\u80dc\u8def\u5e97)", "biz": "050300 \u9910\u996e\u670d\u52a1;\u5feb\u9910\u5385;\u5feb\u9910\u5385", "pty": "0503"}}, {"type": "Feature", "geometry": {"type": "Point", "coordinates": [121.47897430884538, 31.238659864298754]}, "properties": {"name": "\u91d1\u57ce\u9762\u9986(\u60a6\u835f\u5e7f\u573a\u5e97)", "biz": "050300 \u9910\u996e\u670d\u52a1;\u5feb\u9910\u5385;\u5feb\u9910\u5385", "pty": "0503"}}, {"type": "Feature", "geometry": {"type": "Point", "coordinates": [121.46753035768478, 31.223814791503916]}, "properties": {"name": "\u6cf0\u8c37\u5c0f\u9986", "biz": "050300 \u9910\u996e\u670d\u52a1;\u5feb\u9910\u5385;\u5feb\u9910\u5385", "pty": "0503"}}, {"type": "Feature", "geometry": {"type": "Point", "coordinates": [121.47032299415055, 31.216993588047295]}, "properties": {"name": "BURGREAT\u5821\u9769\u6c49\u5821(\u590d\u5174SOHO\u5e97)", "biz": "050300 \u9910\u996e\u670d\u52a1;\u5feb\u9910\u5385;\u5feb\u9910\u5385", "pty": "0503"}}, {"type": "Feature", "geometry": {"type": "Point", "coordinates": [121.47938361019223, 31.23999843645481]}, "properties": {"name": "\u6912\u70b9\u9ebb\u8fa3\u9999\u9505(\u6052\u57fa\u540d\u4eba\u8d2d\u7269\u4e2d\u5fc3)", "biz": "050300 \u9910\u996e\u670d\u52a1;\u5feb\u9910\u5385;\u5feb\u9910\u5385", "pty": "0503"}}, {"type": "Feature", "geometry": {"type": "Point", "coordinates": [121.48726707542052, 31.23126557998114]}, "properties": {"name": "\u7c92\u7c92\u9999\u53f0\u5dde\u5feb\u9910", "biz": "050300 \u9910\u996e\u670d\u52a1;\u5feb\u9910\u5385;\u5feb\u9910\u5385", "pty": "0503"}}, {"type": "Feature", "geometry": {"type": "Point", "coordinates": [121.48201284644061, 31.239053510885466]}, "properties": {"name": "\u6d1e\u5bab\u5927\u98df\u5802", "biz": "050300 \u9910\u996e\u670d\u52a1;\u5feb\u9910\u5385;\u5feb\u9910\u5385", "pty": "0503"}}, {"type": "Feature", "geometry": {"type": "Point", "coordinates": [121.4807281449323, 31.229845003269805]}, "properties": {"name": "\u4e2d\u5f0f\u9762\u9986(\u4eba\u6c11\u8def\u5206\u5e97)", "biz": "050300 \u9910\u996e\u670d\u52a1;\u5feb\u9910\u5385;\u5feb\u9910\u5385", "pty": "0503"}}, {"type": "Feature", "geometry": {"type": "Point", "coordinates": [121.46477311386703, 31.229761707053243]}, "properties": {"name": "\u5c0f\u6843\u56ed\u70b9\u5fc3\u5e97", "biz": "050300 \u9910\u996e\u670d\u52a1;\u5feb\u9910\u5385;\u5feb\u9910\u5385", "pty": "0503"}}, {"type": "Feature", "geometry": {"type": "Point", "coordinates": [121.46558161420357, 31.2068906847979]}, "properties": {"name": "\u963f\u7f57\u6b22\u4e50\u9910\u5385", "biz": "050300 \u9910\u996e\u670d\u52a1;\u5feb\u9910\u5385;\u5feb\u9910\u5385", "pty": "0503"}}, {"type": "Feature", "geometry": {"type": "Point", "coordinates": [121.47345381002944, 31.235204743978905]}, "properties": {"name": "\u7eaf\u660c\u8001\u864e\u7076\u4eba\u5e7f\u5e97", "biz": "050300 \u9910\u996e\u670d\u52a1;\u5feb\u9910\u5385;\u5feb\u9910\u5385", "pty": "0503"}}, {"type": "Feature", "geometry": {"type": "Point", "coordinates": [121.47314568384606, 31.20122700794001]}, "properties": {"name": "\u675c\u516d\u623f(\u6c47\u66bb\u751f\u6d3b\u5e7f\u573a)", "biz": "050300 \u9910\u996e\u670d\u52a1;\u5feb\u9910\u5385;\u5feb\u9910\u5385", "pty": "0503"}}, {"type": "Feature", "geometry": {"type": "Point", "coordinates": [121.47644947452598, 31.217188631175553]}, "properties": {"name": "\u963f\u946b\u9762\u9986(\u8087\u5468\u8def\u5e97)", "biz": "050300 \u9910\u996e\u670d\u52a1;\u5feb\u9910\u5385;\u5feb\u9910\u5385", "pty": "0503"}}, {"type": "Feature", "geometry": {"type": "Point", "coordinates": [121.48920866512803, 31.211720580236232]}, "properties": {"name": "\u798f\u5efa\u5343\u91cc\u9999\u9984\u949d(\u666e\u80b2\u897f\u8def\u5e97)", "biz": "050300 \u9910\u996e\u670d\u52a1;\u5feb\u9910\u5385;\u5feb\u9910\u5385", "pty": "0503"}}, {"type": "Feature", "geometry": {"type": "Point", "coordinates": [121.47648429362619, 31.232408593712858]}, "properties": {"name": "TERRY & LOO", "biz": "050300 \u9910\u996e\u670d\u52a1;\u5feb\u9910\u5385;\u5feb\u9910\u5385", "pty": "0503"}}, {"type": "Feature", "geometry": {"type": "Point", "coordinates": [121.47271149301069, 31.233298548467637]}, "properties": {"name": "\u5bcc\u8d35\u725b\u86d9\u996d(\u4eba\u6c11\u5e7f\u573a\u5e97)", "biz": "050300 \u9910\u996e\u670d\u52a1;\u5feb\u9910\u5385;\u5feb\u9910\u5385", "pty": "0503"}}, {"type": "Feature", "geometry": {"type": "Point", "coordinates": [121.48017345483707, 31.23876428624338]}, "properties": {"name": "PIZZAMARZANO(\u5b8f\u4f0a\u56fd\u9645\u5e7f\u573a)", "biz": "050300 \u9910\u996e\u670d\u52a1;\u5feb\u9910\u5385;\u5feb\u9910\u5385", "pty": "0503"}}, {"type": "Feature", "geometry": {"type": "Point", "coordinates": [121.48701960420193, 31.226445088350577]}, "properties": {"name": "\u963f\u9163\u70ed\u72d7\u5496\u5561", "biz": "050300 \u9910\u996e\u670d\u52a1;\u5feb\u9910\u5385;\u5feb\u9910\u5385", "pty": "0503"}}, {"type": "Feature", "geometry": {"type": "Point", "coordinates": [121.47014964401707, 31.237811401074673]}, "properties": {"name": "\u6d3e\u6069\u53a8\u623f(\u7b2c\u4e00\u767e\u8d27\u5e97)", "biz": "050300 \u9910\u996e\u670d\u52a1;\u5feb\u9910\u5385;\u5feb\u9910\u5385", "pty": "0503"}}, {"type": "Feature", "geometry": {"type": "Point", "coordinates": [121.47932142421293, 31.239655412865265]}, "properties": {"name": "\u59da\u9762\u8bb0(\u6052\u57fa\u540d\u4eba\u8d2d\u7269\u4e2d\u5fc3)", "biz": "050300 \u9910\u996e\u670d\u52a1;\u5feb\u9910\u5385;\u5feb\u9910\u5385", "pty": "0503"}}, {"type": "Feature", "geometry": {"type": "Point", "coordinates": [121.46297431853998, 31.20896988611134]}, "properties": {"name": "\u4e1c\u95e8\u4e03\u7237(\u65e5\u6708\u5149\u4e2d\u5fc3\u897f\u533a)", "biz": "050300 \u9910\u996e\u670d\u52a1;\u5feb\u9910\u5385;\u5feb\u9910\u5385", "pty": "0503"}}, {"type": "Feature", "geometry": {"type": "Point", "coordinates": [121.46366342017326, 31.20925252895401]}, "properties": {"name": "\u9505\u54c1\u9762\u5427(\u65e5\u6708\u5149\u4e2d\u5fc3\u897f\u533a)", "biz": "050300 \u9910\u996e\u670d\u52a1;\u5feb\u9910\u5385;\u5feb\u9910\u5385", "pty": "0503"}}, {"type": "Feature", "geometry": {"type": "Point", "coordinates": [121.4707312758074, 31.217672385733298]}, "properties": {"name": "\u5929\u878d\u907f\u98ce\u5858\u996e\u54c1(\u9a6c\u5f53\u8def)", "biz": "050300 \u9910\u996e\u670d\u52a1;\u5feb\u9910\u5385;\u5feb\u9910\u5385", "pty": "0503"}}, {"type": "Feature", "geometry": {"type": "Point", "coordinates": [121.46638479370408, 31.234422801645838]}, "properties": {"name": "\u767d\u9886\u5c0f\u53a8(\u4e9a\u6d32\u98df\u835f\u5e97)", "biz": "050300 \u9910\u996e\u670d\u52a1;\u5feb\u9910\u5385;\u5feb\u9910\u5385", "pty": "0503"}}, {"type": "Feature", "geometry": {"type": "Point", "coordinates": [121.47890000293982, 31.204062974345756]}, "properties": {"name": "\u57ce\u968d\u5edf\u57ce\u5e02\u996d\u5802(\u77bf\u6eaa\u8def\u5e97)", "biz": "050300 \u9910\u996e\u670d\u52a1;\u5feb\u9910\u5385;\u5feb\u9910\u5385", "pty": "0503"}}, {"type": "Feature", "geometry": {"type": "Point", "coordinates": [121.48279675189376, 31.21373264165197]}, "properties": {"name": "\u82cf\u9640\u4f9b(\u9ec4\u6d66\u9038\u57ce)", "biz": "050300 \u9910\u996e\u670d\u52a1;\u5feb\u9910\u5385;\u5feb\u9910\u5385", "pty": "0503"}}, {"type": "Feature", "geometry": {"type": "Point", "coordinates": [121.47468257873189, 31.216045166365284]}, "properties": {"name": "\u54b8\u8089\u83dc\u996d\u9aa8\u5934\u6c64", "biz": "050300 \u9910\u996e\u670d\u52a1;\u5feb\u9910\u5385;\u5feb\u9910\u5385", "pty": "0503"}}, {"type": "Feature", "geometry": {"type": "Point", "coordinates": [121.47667146540354, 31.22616602950012]}, "properties": {"name": "\u98df\u57df\u7ca5\u574a", "biz": "050300 \u9910\u996e\u670d\u52a1;\u5feb\u9910\u5385;\u5feb\u9910\u5385", "pty": "0503"}}, {"type": "Feature", "geometry": {"type": "Point", "coordinates": [121.46483691032375, 31.234459702149923]}, "properties": {"name": "\u5409\u7965\u9984\u9968(\u5341\u65b9\u5e97)", "biz": "050300 \u9910\u996e\u670d\u52a1;\u5feb\u9910\u5385;\u5feb\u9910\u5385", "pty": "0503"}}, {"type": "Feature", "geometry": {"type": "Point", "coordinates": [121.46896989958712, 31.236649718353775]}, "properties": {"name": "\u7f50\u7f50\u9999(\u65b0\u4e16\u754c\u5e97)", "biz": "050300 \u9910\u996e\u670d\u52a1;\u5feb\u9910\u5385;\u5feb\u9910\u5385", "pty": "0503"}}, {"type": "Feature", "geometry": {"type": "Point", "coordinates": [121.47005437840522, 31.225596791912274]}, "properties": {"name": "\u8d5b\u767e\u5473(\u9999\u6e2f\u5e7f\u573a\u8d2d\u7269\u4e2d\u5fc3\u5317\u533a)", "biz": "050300 \u9910\u996e\u670d\u52a1;\u5feb\u9910\u5385;\u5feb\u9910\u5385", "pty": "0503"}}, {"type": "Feature", "geometry": {"type": "Point", "coordinates": [121.47964148815034, 31.240178100651395]}, "properties": {"name": "\u53f0\u91d1\u5170(\u6052\u57fa\u540d\u4eba\u8d2d\u7269\u4e2d\u5fc3)", "biz": "050300 \u9910\u996e\u670d\u52a1;\u5feb\u9910\u5385;\u5feb\u9910\u5385", "pty": "0503"}}, {"type": "Feature", "geometry": {"type": "Point", "coordinates": [121.47866201804695, 31.24115083002128]}, "properties": {"name": "\u9c9c\u798f\u9ec4\u9c7c\u9762\u9986(\u5b81\u6ce2\u8def\u5e97)", "biz": "050300 \u9910\u996e\u670d\u52a1;\u5feb\u9910\u5385;\u5feb\u9910\u5385", "pty": "0503"}}, {"type": "Feature", "geometry": {"type": "Point", "coordinates": [121.477254787414, 31.222329496918864]}, "properties": {"name": "\u674e\u8bb0\u725b\u8089\u9762", "biz": "050300 \u9910\u996e\u670d\u52a1;\u5feb\u9910\u5385;\u5feb\u9910\u5385", "pty": "0503"}}, {"type": "Feature", "geometry": {"type": "Point", "coordinates": [121.49092452814834, 31.226839539329255]}, "properties": {"name": "\u6b63\u5b97\u91cd\u5e86\u9ebb\u8fa3\u70eb(\u56db\u724c\u697c\u8def\u5e97)", "biz": "050300 \u9910\u996e\u670d\u52a1;\u5feb\u9910\u5385;\u5feb\u9910\u5385", "pty": "0503"}}, {"type": "Feature", "geometry": {"type": "Point", "coordinates": [121.46522919937348, 31.233776046278784]}, "properties": {"name": "\u996d\u6212(\u4eba\u6c11\u5e7f\u573a\u5e97)", "biz": "050300 \u9910\u996e\u670d\u52a1;\u5feb\u9910\u5385;\u5feb\u9910\u5385", "pty": "0503"}}, {"type": "Feature", "geometry": {"type": "Point", "coordinates": [121.47419778041018, 31.2062695011882]}, "properties": {"name": "\u5947\u5473\u7279\u8272\u9984\u9968\u5e97(\u6682\u505c\u8425\u4e1a)", "biz": "050300 \u9910\u996e\u670d\u52a1;\u5feb\u9910\u5385;\u5feb\u9910\u5385", "pty": "0503"}}, {"type": "Feature", "geometry": {"type": "Point", "coordinates": [121.49394313815829, 31.22966525967051]}, "properties": {"name": "\u6e2f\u5480\u6e2f\u5f0f\u70e7\u814a\u8336\u9910\u5385(\u4e2d\u5c71\u4e1c\u4e8c\u8def\u5e97)", "biz": "050300 \u9910\u996e\u670d\u52a1;\u5feb\u9910\u5385;\u5feb\u9910\u5385", "pty": "0503"}}, {"type": "Feature", "geometry": {"type": "Point", "coordinates": [121.48863610088866, 31.206041615824144]}, "properties": {"name": "\u4e09\u5168\u9c9c\u98df", "biz": "050300 \u9910\u996e\u670d\u52a1;\u5feb\u9910\u5385;\u5feb\u9910\u5385", "pty": "0503"}}, {"type": "Feature", "geometry": {"type": "Point", "coordinates": [121.47114681538602, 31.23903058334666]}, "properties": {"name": "\u9ec4\u7116\u9e21\u7c73\u996d(\u725b\u5e84\u8def\u5e97)", "biz": "050300 \u9910\u996e\u670d\u52a1;\u5feb\u9910\u5385;\u5feb\u9910\u5385", "pty": "0503"}}, {"type": "Feature", "geometry": {"type": "Point", "coordinates": [121.46906492057667, 31.240002445274904]}, "properties": {"name": "\u661f\u706b\u65e5\u591c(\u897f\u85cf\u5e97)", "biz": "050300 \u9910\u996e\u670d\u52a1;\u5feb\u9910\u5385;\u5feb\u9910\u5385", "pty": "0503"}}, {"type": "Feature", "geometry": {"type": "Point", "coordinates": [121.46344185553599, 31.207848633696084]}, "properties": {"name": "\u7f8e\u5473\u4e0d\u7528\u7b49\u5171\u4eab\u9910\u5385(\u65e5\u6708\u5149\u4e2d\u5fc3\u897f\u533a)", "biz": "050300 \u9910\u996e\u670d\u52a1;\u5feb\u9910\u5385;\u5feb\u9910\u5385", "pty": "0503"}}, {"type": "Feature", "geometry": {"type": "Point", "coordinates": [121.46474687439822, 31.208282818349517]}, "properties": {"name": "\u8d75\u5d3d\u513f\u5ddd\u5f0f\u9762\u54c1(\u65e5\u6708\u5149\u5e97)", "biz": "050300 \u9910\u996e\u670d\u52a1;\u5feb\u9910\u5385;\u5feb\u9910\u5385", "pty": "0503"}}, {"type": "Feature", "geometry": {"type": "Point", "coordinates": [121.46629351091522, 31.234342596253697]}, "properties": {"name": "\u79e6\u714c\u9e21(\u4e16\u8302\u00b7\u5546\u90fd)", "biz": "050300 \u9910\u996e\u670d\u52a1;\u5feb\u9910\u5385;\u5feb\u9910\u5385", "pty": "0503"}}, {"type": "Feature", "geometry": {"type": "Point", "coordinates": [121.48183094914151, 31.21863947745457]}, "properties": {"name": "\u8001\u76db\u660c\u6c64\u5305\u9986(\u4e2d\u534e\u8def\u5e97)", "biz": "050300 \u9910\u996e\u670d\u52a1;\u5feb\u9910\u5385;\u5feb\u9910\u5385", "pty": "0503"}}, {"type": "Feature", "geometry": {"type": "Point", "coordinates": [121.4647717017006, 31.234512507109894]}, "properties": {"name": "\u9ec4\u7116\u9e21\u7c73\u996d(\u4eba\u6c11\u5e7f\u573a\u5e97)", "biz": "050300 \u9910\u996e\u670d\u52a1;\u5feb\u9910\u5385;\u5feb\u9910\u5385", "pty": "0503"}}, {"type": "Feature", "geometry": {"type": "Point", "coordinates": [121.4524213679109, 31.224626816807888]}, "properties": {"name": "\u821c\u8bb0", "biz": "050300 \u9910\u996e\u670d\u52a1;\u5feb\u9910\u5385;\u5feb\u9910\u5385", "pty": "0503"}}, {"type": "Feature", "geometry": {"type": "Point", "coordinates": [121.46640929843677, 31.229445168767963]}, "properties": {"name": "Pizza Taxi(\u6b66\u80dc\u8def\u5e97)", "biz": "050300 \u9910\u996e\u670d\u52a1;\u5feb\u9910\u5385;\u5feb\u9910\u5385", "pty": "0503"}}, {"type": "Feature", "geometry": {"type": "Point", "coordinates": [121.47545807959106, 31.229181173700546]}, "properties": {"name": "\u6c64\u7acb\u65b9\u9ebb\u8fa3\u70eb(\u5927\u4e16\u754c\u5e97)", "biz": "050300 \u9910\u996e\u670d\u52a1;\u5feb\u9910\u5385;\u5feb\u9910\u5385", "pty": "0503"}}, {"type": "Feature", "geometry": {"type": "Point", "coordinates": [121.48724400798058, 31.23109259161111]}, "properties": {"name": "\u963f\u79e6\u9ebb\u8fa3\u70eb", "biz": "050300 \u9910\u996e\u670d\u52a1;\u5feb\u9910\u5385;\u5feb\u9910\u5385", "pty": "0503"}}, {"type": "Feature", "geometry": {"type": "Point", "coordinates": [121.46873573843948, 31.1946401119317]}, "properties": {"name": "\u65b0\u996d\u7897(\u6d77\u5916\u6ee9)", "biz": "050300 \u9910\u996e\u670d\u52a1;\u5feb\u9910\u5385;\u5feb\u9910\u5385", "pty": "0503"}}, {"type": "Feature", "geometry": {"type": "Point", "coordinates": [121.47639291659867, 31.233174979534212]}, "properties": {"name": "\u7ca4\u5f0f\u79c1\u623f\u6599\u7406", "biz": "050300 \u9910\u996e\u670d\u52a1;\u5feb\u9910\u5385;\u5feb\u9910\u5385", "pty": "0503"}}, {"type": "Feature", "geometry": {"type": "Point", "coordinates": [121.48683929071484, 31.234347886986647]}, "properties": {"name": "\u6eab\u5dde\u6d77\u9bae\u6392\u6321", "biz": "050300 \u9910\u996e\u670d\u52a1;\u5feb\u9910\u5385;\u5feb\u9910\u5385", "pty": "0503"}}, {"type": "Feature", "geometry": {"type": "Point", "coordinates": [121.47774038014695, 31.19973075538608]}, "properties": {"name": "\u8d5b\u767e\u5473(\u6b4c\u6590\u4e2d\u5fc3\u5e97)", "biz": "050300 \u9910\u996e\u670d\u52a1;\u5feb\u9910\u5385;\u5feb\u9910\u5385", "pty": "0503"}}, {"type": "Feature", "geometry": {"type": "Point", "coordinates": [121.48182488886603, 31.219098242217353]}, "properties": {"name": "\u829d\u6839\u829d\u5e95(\u4e2d\u534e\u8def\u5e97)", "biz": "050300 \u9910\u996e\u670d\u52a1;\u5feb\u9910\u5385;\u5feb\u9910\u5385", "pty": "0503"}}, {"type": "Feature", "geometry": {"type": "Point", "coordinates": [121.47792959195966, 31.228310629093187]}, "properties": {"name": "\u6d4f\u9633\u84b8\u83dc(\u6dee\u6d77\u4e1c\u8def\u5e97)", "biz": "050300 \u9910\u996e\u670d\u52a1;\u5feb\u9910\u5385;\u5feb\u9910\u5385", "pty": "0503"}}, {"type": "Feature", "geometry": {"type": "Point", "coordinates": [121.48246715179764, 31.242419310378537]}, "properties": {"name": "\u798f\u5efa\u5343\u91cc\u9999\u9984\u949d(\u56db\u5ddd\u4e2d\u8def\u5e97)", "biz": "050300 \u9910\u996e\u670d\u52a1;\u5feb\u9910\u5385;\u5feb\u9910\u5385", "pty": "0503"}}, {"type": "Feature", "geometry": {"type": "Point", "coordinates": [121.47995908814275, 31.23433569418835]}, "properties": {"name": "\u4ffa\u5bb6\u5473\u9053(\u5e7f\u4e1c\u8def\u5e97)", "biz": "050300 \u9910\u996e\u670d\u52a1;\u5feb\u9910\u5385;\u5feb\u9910\u5385", "pty": "0503"}}, {"type": "Feature", "geometry": {"type": "Point", "coordinates": [121.46551049377634, 31.2290039959295]}, "properties": {"name": "517\u5feb\u9910", "biz": "050300 \u9910\u996e\u670d\u52a1;\u5feb\u9910\u5385;\u5feb\u9910\u5385", "pty": "0503"}}, {"type": "Feature", "geometry": {"type": "Point", "coordinates": [121.47152500248684, 31.216378189069285]}, "properties": {"name": "\u5c0f\u542f\u4e1c\u7206\u9c7c", "biz": "050300 \u9910\u996e\u670d\u52a1;\u5feb\u9910\u5385;\u5feb\u9910\u5385", "pty": "0503"}}, {"type": "Feature", "geometry": {"type": "Point", "coordinates": [121.46234638850818, 31.220680681782955]}, "properties": {"name": "\u4e0a\u6d77\u9984\u9968", "biz": "050300 \u9910\u996e\u670d\u52a1;\u5feb\u9910\u5385;\u5feb\u9910\u5385", "pty": "0503"}}, {"type": "Feature", "geometry": {"type": "Point", "coordinates": [121.46917092177159, 31.232335249312236]}, "properties": {"name": "\u534e\u9ad8\u90fd\u7231\u5403\u957f\u6c99\u81ed\u8c46\u8150", "biz": "050300 \u9910\u996e\u670d\u52a1;\u5feb\u9910\u5385;\u5feb\u9910\u5385", "pty": "0503"}}, {"type": "Feature", "geometry": {"type": "Point", "coordinates": [121.47485480998888, 31.231847230902574]}, "properties": {"name": "\u62db\u724c\u7ea2\u70e7\u725b\u8089\u9762", "biz": "050300 \u9910\u996e\u670d\u52a1;\u5feb\u9910\u5385;\u5feb\u9910\u5385", "pty": "0503"}}, {"type": "Feature", "geometry": {"type": "Point", "coordinates": [121.47769704433347, 31.23708291075753]}, "properties": {"name": "\u80e1\u8bb0\u963f\u5fe0\u7279\u8272\u9505\u8d34", "biz": "050300 \u9910\u996e\u670d\u52a1;\u5feb\u9910\u5385;\u5feb\u9910\u5385", "pty": "0503"}}, {"type": "Feature", "geometry": {"type": "Point", "coordinates": [121.47273657772493, 31.2332856243208]}, "properties": {"name": "\u65e0\u95ee(\u4eba\u6c11\u5e7f\u573a\u5e97)", "biz": "050300 \u9910\u996e\u670d\u52a1;\u5feb\u9910\u5385;\u5feb\u9910\u5385", "pty": "0503"}}, {"type": "Feature", "geometry": {"type": "Point", "coordinates": [121.47762299186262, 31.19956050227334]}, "properties": {"name": "\u5357\u6d0b\u5f80\u4e8b(\u6b4c\u6590\u4e2d\u5fc3\u5e97)", "biz": "050300 \u9910\u996e\u670d\u52a1;\u5feb\u9910\u5385;\u5feb\u9910\u5385", "pty": "0503"}}, {"type": "Feature", "geometry": {"type": "Point", "coordinates": [121.47397239264889, 31.201938975726883]}, "properties": {"name": "\u6cb3\u5357\u9762\u9986(\u77bf\u6eaa\u8def\u5e97)", "biz": "050300 \u9910\u996e\u670d\u52a1;\u5feb\u9910\u5385;\u5feb\u9910\u5385", "pty": "0503"}}, {"type": "Feature", "geometry": {"type": "Point", "coordinates": [121.47760794023661, 31.199560459147545]}, "properties": {"name": "\u4e09\u53cb\u9762\u5c45", "biz": "050300 \u9910\u996e\u670d\u52a1;\u5feb\u9910\u5385;\u5feb\u9910\u5385", "pty": "0503"}}, {"type": "Feature", "geometry": {"type": "Point", "coordinates": [121.47616007324216, 31.233762046079924]}, "properties": {"name": "\u963f\u521a\u65f6\u5c1a\u5c0f\u53a8", "biz": "050300 \u9910\u996e\u670d\u52a1;\u5feb\u9910\u5385;\u5feb\u9910\u5385", "pty": "0503"}}, {"type": "Feature", "geometry": {"type": "Point", "coordinates": [121.47467397600383, 31.222759961390782]}, "properties": {"name": "\u6fb3\u6bd4\u592b\u725b\u6392(\u6e56\u6ee8\u9053\u5e97)", "biz": "050300 \u9910\u996e\u670d\u52a1;\u5feb\u9910\u5385;\u5feb\u9910\u5385", "pty": "0503"}}, {"type": "Feature", "geometry": {"type": "Point", "coordinates": [121.47485480998888, 31.231847230902574]}, "properties": {"name": "\u6df7\u996d", "biz": "050300 \u9910\u996e\u670d\u52a1;\u5feb\u9910\u5385;\u5feb\u9910\u5385", "pty": "0503"}}, {"type": "Feature", "geometry": {"type": "Point", "coordinates": [121.47222258008807, 31.236642651217288]}, "properties": {"name": "MAGO SABURO\u9910\u996e\u5e97", "biz": "050300 \u9910\u996e\u670d\u52a1;\u5feb\u9910\u5385;\u5feb\u9910\u5385", "pty": "0503"}}, {"type": "Feature", "geometry": {"type": "Point", "coordinates": [121.47205119763407, 31.23446317634353]}, "properties": {"name": "\u9ebb\u9999\u8fa3\u723d(\u6765\u798f\u58eb\u5e97)", "biz": "050300 \u9910\u996e\u670d\u52a1;\u5feb\u9910\u5385;\u5feb\u9910\u5385", "pty": "0503"}}, {"type": "Feature", "geometry": {"type": "Point", "coordinates": [121.46410119655, 31.239331550778125]}, "properties": {"name": "\u6dee\u5c1a\u725b\u8089\u6c64\u997a\u5b50\u9986", "biz": "050300 \u9910\u996e\u670d\u52a1;\u5feb\u9910\u5385;\u5feb\u9910\u5385", "pty": "0503"}}, {"type": "Feature", "geometry": {"type": "Point", "coordinates": [121.47668652342054, 31.237797693445504]}, "properties": {"name": "\u5473\u5343\u62c9\u9762(\u5b8f\u4f0a\u5e97)", "biz": "050300 \u9910\u996e\u670d\u52a1;\u5feb\u9910\u5385;\u5feb\u9910\u5385", "pty": "0503"}}, {"type": "Feature", "geometry": {"type": "Point", "coordinates": [121.48529089874985, 31.20960496595867]}, "properties": {"name": "\u96c6\u96c6\u5c0f\u9547(\u4fdd\u5c6f\u5e97)", "biz": "050300 \u9910\u996e\u670d\u52a1;\u5feb\u9910\u5385;\u5feb\u9910\u5385", "pty": "0503"}}, {"type": "Feature", "geometry": {"type": "Point", "coordinates": [121.46436866732843, 31.208590681553893]}, "properties": {"name": "\u4e00\u68e0\u9f99\u867e(\u65e5\u6708\u5149\u4e2d\u5fc3\u897f\u533a)", "biz": "050300 \u9910\u996e\u670d\u52a1;\u5feb\u9910\u5385;\u5feb\u9910\u5385", "pty": "0503"}}, {"type": "Feature", "geometry": {"type": "Point", "coordinates": [121.46494283928487, 31.239152830228235]}, "properties": {"name": "\u6caa\u6e58\u83dc\u9986", "biz": "050300 \u9910\u996e\u670d\u52a1;\u5feb\u9910\u5385;\u5feb\u9910\u5385", "pty": "0503"}}, {"type": "Feature", "geometry": {"type": "Point", "coordinates": [121.47349400595482, 31.234488186014158]}, "properties": {"name": "\u7c73\u65af\u7279\u6bd4\u8428(\u798f\u5dde\u8def\u5e97)", "biz": "050300 \u9910\u996e\u670d\u52a1;\u5feb\u9910\u5385;\u5feb\u9910\u5385", "pty": "0503"}}, {"type": "Feature", "geometry": {"type": "Point", "coordinates": [121.46323209368872, 31.20918444674]}, "properties": {"name": "\u9e45\u7cae\u9c7c\u7c89(\u65e5\u6708\u5149\u4e2d\u5fc3\u897f\u533a)", "biz": "050300 \u9910\u996e\u670d\u52a1;\u5feb\u9910\u5385;\u5feb\u9910\u5385", "pty": "0503"}}, {"type": "Feature", "geometry": {"type": "Point", "coordinates": [121.46454603017456, 31.222466525365284]}, "properties": {"name": "D&E(\u4e0a\u6d77\u9526\u6c5f\u56fd\u9645\u8d2d\u7269\u4e2d\u5fc3)", "biz": "050300 \u9910\u996e\u670d\u52a1;\u5feb\u9910\u5385;\u5feb\u9910\u5385", "pty": "0503"}}, {"type": "Feature", "geometry": {"type": "Point", "coordinates": [121.47207129304948, 31.234127386663353]}, "properties": {"name": "\u9e21\u6392\u54e5JPG(\u6765\u798f\u58eb\u5e97)", "biz": "050300 \u9910\u996e\u670d\u52a1;\u5feb\u9910\u5385;\u5feb\u9910\u5385", "pty": "0503"}}, {"type": "Feature", "geometry": {"type": "Point", "coordinates": [121.46475371785279, 31.210357835336342]}, "properties": {"name": "\u8208\u9686\u751f(\u7530\u5b50\u574a\u5e97)", "biz": "050300 \u9910\u996e\u670d\u52a1;\u5feb\u9910\u5385;\u5feb\u9910\u5385", "pty": "0503"}}, {"type": "Feature", "geometry": {"type": "Point", "coordinates": [121.49420909995297, 31.22961408057192]}, "properties": {"name": "\u5fb7\u514b\u58eb(\u5916\u6ee9\u5e97)", "biz": "050300 \u9910\u996e\u670d\u52a1;\u5feb\u9910\u5385;\u5feb\u9910\u5385", "pty": "0503"}}, {"type": "Feature", "geometry": {"type": "Point", "coordinates": [121.46918158549624, 31.236664286317776]}, "properties": {"name": "\u6c49\u5821\u738b(\u65b0\u4e16\u754c\u57ce)", "biz": "050300 \u9910\u996e\u670d\u52a1;\u5feb\u9910\u5385;\u5feb\u9910\u5385", "pty": "0503"}}, {"type": "Feature", "geometry": {"type": "Point", "coordinates": [121.47386853222777, 31.207928772614995]}, "properties": {"name": "\u5343\u79cb\u98df\u9971\u4e50(\u8499\u81ea\u8def\u5e97)", "biz": "050300 \u9910\u996e\u670d\u52a1;\u5feb\u9910\u5385;\u5feb\u9910\u5385", "pty": "0503"}}, {"type": "Feature", "geometry": {"type": "Point", "coordinates": [121.47274912618636, 31.23905201474393]}, "properties": {"name": "\u7ea2\u70e7\u725b\u8089\u9762(\u53a6\u95e8\u8def)", "biz": "050300 \u9910\u996e\u670d\u52a1;\u5feb\u9910\u5385;\u5feb\u9910\u5385", "pty": "0503"}}, {"type": "Feature", "geometry": {"type": "Point", "coordinates": [121.47221347963043, 31.2374632502758]}, "properties": {"name": "\u5c0f\u667a\u6167\u5364\u8089\u996d(\u7b2c\u4e00\u98df\u54c1\u5357\u4e1c\u5e97)", "biz": "050300 \u9910\u996e\u670d\u52a1;\u5feb\u9910\u5385;\u5feb\u9910\u5385", "pty": "0503"}}, {"type": "Feature", "geometry": {"type": "Point", "coordinates": [121.46325440538935, 31.229653809863343]}, "properties": {"name": "\u7c89\u4e1d\u56e2(\u5a01\u6d77\u8def\u5e97)", "biz": "050300 \u9910\u996e\u670d\u52a1;\u5feb\u9910\u5385;\u5feb\u9910\u5385", "pty": "0503"}}, {"type": "Feature", "geometry": {"type": "Point", "coordinates": [121.47374589163113, 31.222310562739604]}, "properties": {"name": "\u99a5\u65b0(\u4f01\u4e1a\u5929\u5730\u5e97)", "biz": "050300 \u9910\u996e\u670d\u52a1;\u5feb\u9910\u5385;\u5feb\u9910\u5385", "pty": "0503"}}, {"type": "Feature", "geometry": {"type": "Point", "coordinates": [121.47307560735162, 31.22278246464274]}, "properties": {"name": "\u6c49\u5821\u738b(\u4e0a\u6d77\u6e56\u6ee8\u9053\u5e97)", "biz": "050300 \u9910\u996e\u670d\u52a1;\u5feb\u9910\u5385;\u5feb\u9910\u5385", "pty": "0503"}}, {"type": "Feature", "geometry": {"type": "Point", "coordinates": [121.46408476260176, 31.20883782280162]}, "properties": {"name": "Anly's(\u65e5\u6708\u5149\u5e97)", "biz": "050300 \u9910\u996e\u670d\u52a1;\u5feb\u9910\u5385;\u5feb\u9910\u5385", "pty": "0503"}}, {"type": "Feature", "geometry": {"type": "Point", "coordinates": [121.47538736166798, 31.23477738537135]}, "properties": {"name": "\u5c0f\u6768\u751f\u714e(\u798f\u5dde\u8def\u5e97)", "biz": "050300 \u9910\u996e\u670d\u52a1;\u5feb\u9910\u5385;\u5feb\u9910\u5385", "pty": "0503"}}, {"type": "Feature", "geometry": {"type": "Point", "coordinates": [121.47823940859655, 31.231228164163383]}, "properties": {"name": "\u5510\u767e\u7897(\u5b81\u6d77\u4e1c\u8def\u5e97)", "biz": "050300 \u9910\u996e\u670d\u52a1;\u5feb\u9910\u5385;\u5feb\u9910\u5385", "pty": "0503"}}, {"type": "Feature", "geometry": {"type": "Point", "coordinates": [121.48004899921253, 31.239037800532273]}, "properties": {"name": "\u55e8\u8d1d\u82b1\u7532", "biz": "050300 \u9910\u996e\u670d\u52a1;\u5feb\u9910\u5385;\u5feb\u9910\u5385", "pty": "0503"}}, {"type": "Feature", "geometry": {"type": "Point", "coordinates": [121.47195702524733, 31.232827669070186]}, "properties": {"name": "\u5468\u9ed1\u9e2d(\u9999\u6e2f\u540d\u5e97\u8857\u5e97)", "biz": "050300 \u9910\u996e\u670d\u52a1;\u5feb\u9910\u5385;\u5feb\u9910\u5385", "pty": "0503"}}, {"type": "Feature", "geometry": {"type": "Point", "coordinates": [121.47580668425088, 31.235952034809987]}, "properties": {"name": "\u6caa\u4e0a\u4e00\u5bb6\u8fa3\u8089\u9762\u9986(\u6e56\u5317\u8def\u5e97)", "biz": "050300 \u9910\u996e\u670d\u52a1;\u5feb\u9910\u5385;\u5feb\u9910\u5385", "pty": "0503"}}, {"type": "Feature", "geometry": {"type": "Point", "coordinates": [121.47767817980784, 31.223022383444142]}, "properties": {"name": "\u6a31\u6843\u83dc\u996d\u9aa8\u5934\u6c64", "biz": "050300 \u9910\u996e\u670d\u52a1;\u5feb\u9910\u5385;\u5feb\u9910\u5385", "pty": "0503"}}, {"type": "Feature", "geometry": {"type": "Point", "coordinates": [121.47816849646584, 31.203891951180587]}, "properties": {"name": "\u8d5b\u767e\u5473(\u5c40\u95e8\u8def\u5e97)", "biz": "050300 \u9910\u996e\u670d\u52a1;\u5feb\u9910\u5385;\u5feb\u9910\u5385", "pty": "0503"}}, {"type": "Feature", "geometry": {"type": "Point", "coordinates": [121.46509376598264, 31.233870646916262]}, "properties": {"name": "\u7126\u8033\u5916\u5356(\u4eba\u6c11\u5e7f\u573a\u5e97)", "biz": "050300 \u9910\u996e\u670d\u52a1;\u5feb\u9910\u5385;\u5feb\u9910\u5385", "pty": "0503"}}, {"type": "Feature", "geometry": {"type": "Point", "coordinates": [121.46349500145205, 31.208061668109]}, "properties": {"name": "\u7fc5\u54c1\u54c1\u9c7c\u7fc5\u635e\u996d", "biz": "050300 \u9910\u996e\u670d\u52a1;\u5feb\u9910\u5385;\u5feb\u9910\u5385", "pty": "0503"}}, {"type": "Feature", "geometry": {"type": "Point", "coordinates": [121.48744999516342, 31.228110589041165]}, "properties": {"name": "\u5c0f\u5403\u738b\u56fd\u9999\u6e2f\u98ce\u5473\u5c0f\u5403", "biz": "050300 \u9910\u996e\u670d\u52a1;\u5feb\u9910\u5385;\u5feb\u9910\u5385", "pty": "0503"}}, {"type": "Feature", "geometry": {"type": "Point", "coordinates": [121.47273531663888, 31.201202874722686]}, "properties": {"name": "\u6c49\u5821\u738b(\u6c47\u66bb\u9910\u5385)", "biz": "050300 \u9910\u996e\u670d\u52a1;\u5feb\u9910\u5385;\u5feb\u9910\u5385", "pty": "0503"}}, {"type": "Feature", "geometry": {"type": "Point", "coordinates": [121.47222787309317, 31.23342414532989]}, "properties": {"name": "\u6817\u6817\u5bb6(\u4eba\u6c11\u5e7f\u573a\u5e97)", "biz": "050300 \u9910\u996e\u670d\u52a1;\u5feb\u9910\u5385;\u5feb\u9910\u5385", "pty": "0503"}}, {"type": "Feature", "geometry": {"type": "Point", "coordinates": [121.49363919548108, 31.21608074272886]}, "properties": {"name": "\u83dc\u8001\u5305(\u4e1c\u6c5f\u9634\u8857\u83dc\u5e02\u573a\u5e97)", "biz": "050300 \u9910\u996e\u670d\u52a1;\u5feb\u9910\u5385;\u5feb\u9910\u5385", "pty": "0503"}}, {"type": "Feature", "geometry": {"type": "Point", "coordinates": [121.4728374030175, 31.23925716729387]}, "properties": {"name": "\u9690\u70eb(\u9ec4\u57d4\u5e97)", "biz": "050300 \u9910\u996e\u670d\u52a1;\u5feb\u9910\u5385;\u5feb\u9910\u5385", "pty": "0503"}}, {"type": "Feature", "geometry": {"type": "Point", "coordinates": [121.4735261321884, 31.222575821899152]}, "properties": {"name": "\u83ab\u4e59\u5b89(\u65b0\u5929\u5730\u5e97)", "biz": "050300 \u9910\u996e\u670d\u52a1;\u5feb\u9910\u5385;\u5feb\u9910\u5385", "pty": "0503"}}, {"type": "Feature", "geometry": {"type": "Point", "coordinates": [121.48390885934896, 31.211444005463637]}, "properties": {"name": "\u83dc\u516c\u793e(\u5fbd\u5b81\u83dc\u5e02\u573a\u5e97)", "biz": "050300 \u9910\u996e\u670d\u52a1;\u5feb\u9910\u5385;\u5feb\u9910\u5385", "pty": "0503"}}, {"type": "Feature", "geometry": {"type": "Point", "coordinates": [121.46792963256608, 31.20054802891955]}, "properties": {"name": "\u65b0\u7f8e\u9992\u5934\u5e97", "biz": "050300 \u9910\u996e\u670d\u52a1;\u5feb\u9910\u5385;\u5feb\u9910\u5385", "pty": "0503"}}, {"type": "Feature", "geometry": {"type": "Point", "coordinates": [121.4767728079424, 31.226207299353252]}, "properties": {"name": "\u98df\u9999\u6c47", "biz": "050300 \u9910\u996e\u670d\u52a1;\u5feb\u9910\u5385;\u5feb\u9910\u5385", "pty": "0503"}}, {"type": "Feature", "geometry": {"type": "Point", "coordinates": [121.46698226180364, 31.204479571350024]}, "properties": {"name": "\u5ba2\u518d\u6765\u7092\u996d", "biz": "050300 \u9910\u996e\u670d\u52a1;\u5feb\u9910\u5385;\u5feb\u9910\u5385", "pty": "0503"}}, {"type": "Feature", "geometry": {"type": "Point", "coordinates": [121.47322895606929, 31.201298205835077]}, "properties": {"name": "\u563b\u679c\u8bb0", "biz": "050300 \u9910\u996e\u670d\u52a1;\u5feb\u9910\u5385;\u5feb\u9910\u5385", "pty": "0503"}}, {"type": "Feature", "geometry": {"type": "Point", "coordinates": [121.47047420530838, 31.19694171417949]}, "properties": {"name": "\u6d77\u738b\u661f\u8fb0(\u4e0a\u6d77\u6253\u6d66\u8def\u5e97)", "biz": "050300 \u9910\u996e\u670d\u52a1;\u5feb\u9910\u5385;\u5feb\u9910\u5385", "pty": "0503"}}, {"type": "Feature", "geometry": {"type": "Point", "coordinates": [121.47665875758781, 31.233946381606877]}, "properties": {"name": "\u795e\u7096\u5c40(\u6d77\u53e3\u8def\u5e97)", "biz": "050300 \u9910\u996e\u670d\u52a1;\u5feb\u9910\u5385;\u5feb\u9910\u5385", "pty": "0503"}}, {"type": "Feature", "geometry": {"type": "Point", "coordinates": [121.46506223406438, 31.23891525174152]}, "properties": {"name": "\u53eb\u4e86\u4e2a\u867e(\u4eba\u5e7f\u5e97)", "biz": "050300 \u9910\u996e\u670d\u52a1;\u5feb\u9910\u5385;\u5feb\u9910\u5385", "pty": "0503"}}, {"type": "Feature", "geometry": {"type": "Point", "coordinates": [121.47776482623632, 31.242362701076644]}, "properties": {"name": "\u9152\u50a8\u5802", "biz": "050300 \u9910\u996e\u670d\u52a1;\u5feb\u9910\u5385;\u5feb\u9910\u5385", "pty": "0503"}}, {"type": "Feature", "geometry": {"type": "Point", "coordinates": [121.46916107657847, 31.19511403116334]}, "properties": {"name": "\u70f9\u9c7c\u4e13\u5bb6(\u6d77\u5916\u6ee9\u5e97)", "biz": "050300 \u9910\u996e\u670d\u52a1;\u5feb\u9910\u5385;\u5feb\u9910\u5385", "pty": "0503"}}, {"type": "Feature", "geometry": {"type": "Point", "coordinates": [121.47718393986605, 31.205981112512124]}, "properties": {"name": "\u5ba2\u996d\u9762\u6761", "biz": "050300 \u9910\u996e\u670d\u52a1;\u5feb\u9910\u5385;\u5feb\u9910\u5385", "pty": "0503"}}, {"type": "Feature", "geometry": {"type": "Point", "coordinates": [121.4762073203706, 31.209329706304032]}, "properties": {"name": "BOBO\u4ed4\u91d1\u9675\u70e7\u9e45", "biz": "050300 \u9910\u996e\u670d\u52a1;\u5feb\u9910\u5385;\u5feb\u9910\u5385", "pty": "0503"}}, {"type": "Feature", "geometry": {"type": "Point", "coordinates": [121.47456011838229, 31.21659855745374]}, "properties": {"name": "\u571f\u8033\u5176\u70e4\u8089\u996d", "biz": "050300 \u9910\u996e\u670d\u52a1;\u5feb\u9910\u5385;\u5feb\u9910\u5385", "pty": "0503"}}, {"type": "Feature", "geometry": {"type": "Point", "coordinates": [121.46872253588106, 31.20819045040695]}, "properties": {"name": "\u68d2\u7ea6\u7ff0(\u4e0a\u6d77\u5927\u540c\u5e97)", "biz": "050300 \u9910\u996e\u670d\u52a1;\u5feb\u9910\u5385;\u5feb\u9910\u5385", "pty": "0503"}}, {"type": "Feature", "geometry": {"type": "Point", "coordinates": [121.46312878813714, 31.20903625187798]}, "properties": {"name": "\u5473\u7edajuzed(\u65e5\u6708\u5149\u5e97)", "biz": "050300 \u9910\u996e\u670d\u52a1;\u5feb\u9910\u5385;\u5feb\u9910\u5385", "pty": "0503"}}, {"type": "Feature", "geometry": {"type": "Point", "coordinates": [121.46341270824217, 31.20851623568664]}, "properties": {"name": "\u5473\u5343\u62c9\u9762(\u65e5\u6708\u5149\u4e2d\u5fc3\u897f\u533a)", "biz": "050300 \u9910\u996e\u670d\u52a1;\u5feb\u9910\u5385;\u5feb\u9910\u5385", "pty": "0503"}}, {"type": "Feature", "geometry": {"type": "Point", "coordinates": [121.47891506392806, 31.239131478261708]}, "properties": {"name": "\u7f8e\u7206\u9521\u7eb8\u82b1\u7532(\u7f8e\u98df\u7f8e\u5929\u5e97)", "biz": "050300 \u9910\u996e\u670d\u52a1;\u5feb\u9910\u5385;\u5feb\u9910\u5385", "pty": "0503"}}, {"type": "Feature", "geometry": {"type": "Point", "coordinates": [121.48276827061034, 31.218211423123417]}, "properties": {"name": "\u6cb3\u5357\u62c9\u9762\u5e97", "biz": "050300 \u9910\u996e\u670d\u52a1;\u5feb\u9910\u5385;\u5feb\u9910\u5385", "pty": "0503"}}, {"type": "Feature", "geometry": {"type": "Point", "coordinates": [121.46245161001683, 31.22184740027566]}, "properties": {"name": "\u5c71\u6797\u719f\u98df(\u957f\u6625\u98df\u54c1\u5e97)", "biz": "050300 \u9910\u996e\u670d\u52a1;\u5feb\u9910\u5385;\u5feb\u9910\u5385", "pty": "0503"}}, {"type": "Feature", "geometry": {"type": "Point", "coordinates": [121.47940873803496, 31.239519727064412]}, "properties": {"name": "Hun\u00b7FAns\u00b7\u6df7\u996d(\u6052\u57fa\u540d\u4eba\u8d2d\u7269\u4e2d\u5fc3)", "biz": "050300 \u9910\u996e\u670d\u52a1;\u5feb\u9910\u5385;\u5feb\u9910\u5385", "pty": "0503"}}, {"type": "Feature", "geometry": {"type": "Point", "coordinates": [121.47786250811814, 31.23830682585071]}, "properties": {"name": "\u7f8e\u73cd\u9999(\u7f6e\u5730\u5e7f\u573a\u5e97)", "biz": "050300 \u9910\u996e\u670d\u52a1;\u5feb\u9910\u5385;\u5feb\u9910\u5385", "pty": "0503"}}, {"type": "Feature", "geometry": {"type": "Point", "coordinates": [121.4780781556873, 31.215969871665017]}, "properties": {"name": "\u8054\u90a6\u5feb\u9910", "biz": "050300 \u9910\u996e\u670d\u52a1;\u5feb\u9910\u5385;\u5feb\u9910\u5385", "pty": "0503"}}, {"type": "Feature", "geometry": {"type": "Point", "coordinates": [121.4719137437063, 31.234440805551763]}, "properties": {"name": "\u5361\u4e50\u661f(\u6765\u798f\u58eb\u5e7f\u573a)", "biz": "050300 \u9910\u996e\u670d\u52a1;\u5feb\u9910\u5385;\u5feb\u9910\u5385", "pty": "0503"}}, {"type": "Feature", "geometry": {"type": "Point", "coordinates": [121.47654736601417, 31.234080002438255]}, "properties": {"name": "\u7c73\u7c92\u53f0\u6e7e\u996d\u56e2", "biz": "050300 \u9910\u996e\u670d\u52a1;\u5feb\u9910\u5385;\u5feb\u9910\u5385", "pty": "0503"}}, {"type": "Feature", "geometry": {"type": "Point", "coordinates": [121.47624640639668, 31.233303503125292]}, "properties": {"name": "\u725b\u7f8a\u8089\u9986", "biz": "050300 \u9910\u996e\u670d\u52a1;\u5feb\u9910\u5385;\u5feb\u9910\u5385", "pty": "0503"}}, {"type": "Feature", "geometry": {"type": "Point", "coordinates": [121.48238030547532, 31.213560504263196]}, "properties": {"name": "\u7c73\u5c0f\u7c92\u4fbf\u5f53&\u70b8\u9e21", "biz": "050300 \u9910\u996e\u670d\u52a1;\u5feb\u9910\u5385;\u5feb\u9910\u5385", "pty": "0503"}}, {"type": "Feature", "geometry": {"type": "Point", "coordinates": [121.48029973915794, 31.205383382828227]}, "properties": {"name": "\u9f99\u5934\u80a1\u4efd\u98df\u5802", "biz": "050300 \u9910\u996e\u670d\u52a1;\u5feb\u9910\u5385;\u5feb\u9910\u5385", "pty": "0503"}}, {"type": "Feature", "geometry": {"type": "Point", "coordinates": [121.4796738019989, 31.214359242668063]}, "properties": {"name": "\u5409\u7965\u9984\u9968(\u5927\u6797\u5e97)", "biz": "050300 \u9910\u996e\u670d\u52a1;\u5feb\u9910\u5385;\u5feb\u9910\u5385", "pty": "0503"}}, {"type": "Feature", "geometry": {"type": "Point", "coordinates": [121.46452204986083, 31.209707542945026]}, "properties": {"name": "\u5bb6\u745e\u677f\u6817\u5e97", "biz": "050300 \u9910\u996e\u670d\u52a1;\u5feb\u9910\u5385;\u5feb\u9910\u5385", "pty": "0503"}}, {"type": "Feature", "geometry": {"type": "Point", "coordinates": [121.48021955902037, 31.204227712019257]}, "properties": {"name": "\u517b\u751f\u836f\u81b3\u7172\u6c64", "biz": "050300 \u9910\u996e\u670d\u52a1;\u5feb\u9910\u5385;\u5feb\u9910\u5385", "pty": "0503"}}, {"type": "Feature", "geometry": {"type": "Point", "coordinates": [121.4649556337541, 31.20704796259468]}, "properties": {"name": "\u715c\u7f8e\u81fb\u54c1", "biz": "050300 \u9910\u996e\u670d\u52a1;\u5feb\u9910\u5385;\u5feb\u9910\u5385", "pty": "0503"}}, {"type": "Feature", "geometry": {"type": "Point", "coordinates": [121.47442715431464, 31.222636323961275]}, "properties": {"name": "\u996d\u8c50\u753a\u548c\u98ce\u7cbe\u81f4\u4fbf\u5f53", "biz": "050300 \u9910\u996e\u670d\u52a1;\u5feb\u9910\u5385;\u5feb\u9910\u5385", "pty": "0503"}}, {"type": "Feature", "geometry": {"type": "Point", "coordinates": [121.47324781435235, 31.23878452867512]}, "properties": {"name": "\u7c73\u601d\u67da", "biz": "050300 \u9910\u996e\u670d\u52a1;\u5feb\u9910\u5385;\u5feb\u9910\u5385", "pty": "0503"}}, {"type": "Feature", "geometry": {"type": "Point", "coordinates": [121.47557950352287, 31.229039583707173]}, "properties": {"name": "\u86d9\u7edd\u9e21(\u4e9a\u9f99\u5e7f\u573a\u5e97)", "biz": "050300 \u9910\u996e\u670d\u52a1;\u5feb\u9910\u5385;\u5feb\u9910\u5385", "pty": "0503"}}, {"type": "Feature", "geometry": {"type": "Point", "coordinates": [121.45856808053922, 31.22056826242561]}, "properties": {"name": "\u5f69\u8272\u9a6c\u94c3\u85af", "biz": "050300 \u9910\u996e\u670d\u52a1;\u5feb\u9910\u5385;\u5feb\u9910\u5385", "pty": "0503"}}, {"type": "Feature", "geometry": {"type": "Point", "coordinates": [121.45904660724982, 31.219182096578656]}, "properties": {"name": "\u777f\u98df\u7f8e\u98df\u5de5\u4f5c\u5ba4", "biz": "050300 \u9910\u996e\u670d\u52a1;\u5feb\u9910\u5385;\u5feb\u9910\u5385", "pty": "0503"}}, {"type": "Feature", "geometry": {"type": "Point", "coordinates": [121.48102628848439, 31.24034804343698]}, "properties": {"name": "\u9990\u6d8e\u7172\u4ed4\u996d", "biz": "050300 \u9910\u996e\u670d\u52a1;\u5feb\u9910\u5385;\u5feb\u9910\u5385", "pty": "0503"}}, {"type": "Feature", "geometry": {"type": "Point", "coordinates": [121.47350408193842, 31.233994441543146]}, "properties": {"name": "\u75af\u5496(\u6765\u798f\u58eb\u5e97)", "biz": "050300 \u9910\u996e\u670d\u52a1;\u5feb\u9910\u5385;\u5feb\u9910\u5385", "pty": "0503"}}, {"type": "Feature", "geometry": {"type": "Point", "coordinates": [121.46388520915474, 31.208066676803174]}, "properties": {"name": "morning\u5065\u5eb7\u9910(\u65e5\u6708\u5149\u4e2d\u5fc3\u5e97)", "biz": "050300 \u9910\u996e\u670d\u52a1;\u5feb\u9910\u5385;\u5feb\u9910\u5385", "pty": "0503"}}, {"type": "Feature", "geometry": {"type": "Point", "coordinates": [121.47271725689612, 31.201197826871315]}, "properties": {"name": "\u670b\u53cb\u5708\u7f8e\u98df\u6c47(\u9c81\u73ed\u8def\u5e97)", "biz": "050300 \u9910\u996e\u670d\u52a1;\u5feb\u9910\u5385;\u5feb\u9910\u5385", "pty": "0503"}}, {"type": "Feature", "geometry": {"type": "Point", "coordinates": [121.49270590761427, 31.227061765700828]}, "properties": {"name": "\u4e94\u8c37\u62db\u724c\u9c7c\u7c89", "biz": "050300 \u9910\u996e\u670d\u52a1;\u5feb\u9910\u5385;\u5feb\u9910\u5385", "pty": "0503"}}, {"type": "Feature", "geometry": {"type": "Point", "coordinates": [121.48682543214707, 31.232104880699524]}, "properties": {"name": "\u6210\u6c38\u725b\u8089\u6c64", "biz": "050300 \u9910\u996e\u670d\u52a1;\u5feb\u9910\u5385;\u5feb\u9910\u5385", "pty": "0503"}}, {"type": "Feature", "geometry": {"type": "Point", "coordinates": [121.46514694636637, 31.233713858810926]}, "properties": {"name": "\u7116\u5f97\u4ed9\u4e09\u6c41\u7116\u996d", "biz": "050300 \u9910\u996e\u670d\u52a1;\u5feb\u9910\u5385;\u5feb\u9910\u5385", "pty": "0503"}}, {"type": "Feature", "geometry": {"type": "Point", "coordinates": [121.47647370765723, 31.227138011521742]}, "properties": {"name": "\u4e0a\u6d771\u53f7\u672c\u5e2e\u9762\u9986", "biz": "050300 \u9910\u996e\u670d\u52a1;\u5feb\u9910\u5385;\u5feb\u9910\u5385", "pty": "0503"}}, {"type": "Feature", "geometry": {"type": "Point", "coordinates": [121.47253149428508, 31.237963905381132]}, "properties": {"name": "\u805a\u548f\u725b\u725b\u8089\u6c64\u9986", "biz": "050300 \u9910\u996e\u670d\u52a1;\u5feb\u9910\u5385;\u5feb\u9910\u5385", "pty": "0503"}}, {"type": "Feature", "geometry": {"type": "Point", "coordinates": [121.47632462949225, 31.23381149159362]}, "properties": {"name": "\u8700\u6c49\u56ed\u5192\u83dc", "biz": "050300 \u9910\u996e\u670d\u52a1;\u5feb\u9910\u5385;\u5feb\u9910\u5385", "pty": "0503"}}, {"type": "Feature", "geometry": {"type": "Point", "coordinates": [121.47215599387752, 31.217532387605562]}, "properties": {"name": "\u8001\u6ca7\u6d6a\u4ead\u4f55\u5e08\u5085\u4e3b\u7406", "biz": "050300 \u9910\u996e\u670d\u52a1;\u5feb\u9910\u5385;\u5feb\u9910\u5385", "pty": "0503"}}, {"type": "Feature", "geometry": {"type": "Point", "coordinates": [121.47557447382042, 31.229187500656746]}, "properties": {"name": "\u5409\u5e08\u5085\u51c9\u76ae\u94fa\u5b50(\u89c5\u98df\u7f8e\u98df\u57ce\u5e97)", "biz": "050300 \u9910\u996e\u670d\u52a1;\u5feb\u9910\u5385;\u5feb\u9910\u5385", "pty": "0503"}}, {"type": "Feature", "geometry": {"type": "Point", "coordinates": [121.47141127617931, 31.232161466857473]}, "properties": {"name": "\u540d\u626c\u5929\u5730(\u9999\u6e2f\u540d\u5e97\u8857\u5e97)", "biz": "050300 \u9910\u996e\u670d\u52a1;\u5feb\u9910\u5385;\u5feb\u9910\u5385", "pty": "0503"}}, {"type": "Feature", "geometry": {"type": "Point", "coordinates": [121.47288665790533, 31.23819878754051]}, "properties": {"name": "\u4e5d\u65a4\u9ec4\u4e09\u9ec4\u9e21\u4e13\u5356\u5e97", "biz": "050300 \u9910\u996e\u670d\u52a1;\u5feb\u9910\u5385;\u5feb\u9910\u5385", "pty": "0503"}}, {"type": "Feature", "geometry": {"type": "Point", "coordinates": [121.4811610955956, 31.236397239978242]}, "properties": {"name": "\u829d\u6839\u829d\u5e95(\u6cb3\u5357\u4e2d\u8def\u5e97)", "biz": "050300 \u9910\u996e\u670d\u52a1;\u5feb\u9910\u5385;\u5feb\u9910\u5385", "pty": "0503"}}, {"type": "Feature", "geometry": {"type": "Point", "coordinates": [121.47780426631097, 31.23879543570194]}, "properties": {"name": "\u6cf0\u8292(\u98ce\u60c5\u5e97)", "biz": "050300 \u9910\u996e\u670d\u52a1;\u5feb\u9910\u5385;\u5feb\u9910\u5385", "pty": "0503"}}, {"type": "Feature", "geometry": {"type": "Point", "coordinates": [121.47624334062537, 31.233951195841385]}, "properties": {"name": "\u7a3b\u9999\u74e6\u9505\u996d", "biz": "050300 \u9910\u996e\u670d\u52a1;\u5feb\u9910\u5385;\u5feb\u9910\u5385", "pty": "0503"}}, {"type": "Feature", "geometry": {"type": "Point", "coordinates": [121.47312399577481, 31.208431444824136]}, "properties": {"name": "\u8fbe\u7f8e\u4e50\u6bd4\u8428(\u8499\u81ea\u8def\u5e97)", "biz": "050300 \u9910\u996e\u670d\u52a1;\u5feb\u9910\u5385;\u5feb\u9910\u5385", "pty": "0503"}}, {"type": "Feature", "geometry": {"type": "Point", "coordinates": [121.46392636822442, 31.207700960529944]}, "properties": {"name": "\u6668\u542f\u826f\u54c1", "biz": "050300 \u9910\u996e\u670d\u52a1;\u5feb\u9910\u5385;\u5feb\u9910\u5385", "pty": "0503"}}, {"type": "Feature", "geometry": {"type": "Point", "coordinates": [121.48355214374953, 31.205084030291363]}, "properties": {"name": "\u6c38\u548c\u5927\u738b(\u77bf\u6eaa\u8def\u5e97)", "biz": "050300 \u9910\u996e\u670d\u52a1;\u5feb\u9910\u5385;\u5feb\u9910\u5385", "pty": "0503"}}, {"type": "Feature", "geometry": {"type": "Point", "coordinates": [121.4852825975665, 31.22455982705634]}, "properties": {"name": "\u5927\u9f13\u7c73\u7ebf(\u9ec4\u57d4\u8c6b\u56ed\u540d\u90fd\u5e97)", "biz": "050300 \u9910\u996e\u670d\u52a1;\u5feb\u9910\u5385;\u5feb\u9910\u5385", "pty": "0503"}}, {"type": "Feature", "geometry": {"type": "Point", "coordinates": [121.49217397413301, 31.22731405530069]}, "properties": {"name": "\u897f\u85cf\u9752\u7a1e\u997c\u5e97", "biz": "050300 \u9910\u996e\u670d\u52a1;\u5feb\u9910\u5385;\u5feb\u9910\u5385", "pty": "0503"}}, {"type": "Feature", "geometry": {"type": "Point", "coordinates": [121.47237630192723, 31.210794222012733]}, "properties": {"name": "\u8d5b\u767e\u5473(\u5f90\u5bb6\u6c47\u8def\u5e97)(\u88c5\u4fee\u4e2d)", "biz": "050300 \u9910\u996e\u670d\u52a1;\u5feb\u9910\u5385;\u5feb\u9910\u5385", "pty": "0503"}}, {"type": "Feature", "geometry": {"type": "Point", "coordinates": [121.47447595620774, 31.215175998510325]}, "properties": {"name": "\u8700\u5174\u5192\u83dc", "biz": "050300 \u9910\u996e\u670d\u52a1;\u5feb\u9910\u5385;\u5feb\u9910\u5385", "pty": "0503"}}, {"type": "Feature", "geometry": {"type": "Point", "coordinates": [121.47330041155914, 31.233859933546235]}, "properties": {"name": "\u7ecf\u5178\u7ea2\u70e7\u725b\u8089\u9762(\u4e91\u5357\u4e2d\u8def)", "biz": "050300 \u9910\u996e\u670d\u52a1;\u5feb\u9910\u5385;\u5feb\u9910\u5385", "pty": "0503"}}, {"type": "Feature", "geometry": {"type": "Point", "coordinates": [121.46935714111812, 31.236840682786386]}, "properties": {"name": "\u70c8\u7130\u7ea2\u5507\u4e32\u4e32\u9999(\u65b0\u4e16\u754c\u5e97)", "biz": "050300 \u9910\u996e\u670d\u52a1;\u5feb\u9910\u5385;\u5feb\u9910\u5385", "pty": "0503"}}, {"type": "Feature", "geometry": {"type": "Point", "coordinates": [121.47656362025793, 31.22004160307943]}, "properties": {"name": "\u6c34\u4e00\u65b9\u5305\u5b50\u5e97", "biz": "050300 \u9910\u996e\u670d\u52a1;\u5feb\u9910\u5385;\u5feb\u9910\u5385", "pty": "0503"}}, {"type": "Feature", "geometry": {"type": "Point", "coordinates": [121.49138610416604, 31.215999035729475]}, "properties": {"name": "\u827e\u6bd4\u514b\u6c49\u5821\u70b8\u9e21", "biz": "050300 \u9910\u996e\u670d\u52a1;\u5feb\u9910\u5385;\u5feb\u9910\u5385", "pty": "0503"}}, {"type": "Feature", "geometry": {"type": "Point", "coordinates": [121.4722819974002, 31.23407299664947]}, "properties": {"name": "\u6ce2\u58eb\u987f\u9f99\u867e\u5377(\u6765\u798f\u58eb\u5e97)", "biz": "050300 \u9910\u996e\u670d\u52a1;\u5feb\u9910\u5385;\u5feb\u9910\u5385", "pty": "0503"}}, {"type": "Feature", "geometry": {"type": "Point", "coordinates": [121.46474287990718, 31.208072909352698]}, "properties": {"name": "\u6797\u4e1c\u5bb6\u70b8\u9171\u9762/\u5c0f\u667a\u6167\u5364\u8089\u996d(\u65e5\u6708\u5149\u4e2d\u5fc3\u897f\u533a)", "biz": "050300 \u9910\u996e\u670d\u52a1;\u5feb\u9910\u5385;\u5feb\u9910\u5385", "pty": "0503"}}, {"type": "Feature", "geometry": {"type": "Point", "coordinates": [121.472175400388, 31.236911397121307]}, "properties": {"name": "\u8d5b\u767e\u5473(\u534e\u7f8e\u8fbe\u5e97)", "biz": "050300 \u9910\u996e\u670d\u52a1;\u5feb\u9910\u5385;\u5feb\u9910\u5385", "pty": "0503"}}, {"type": "Feature", "geometry": {"type": "Point", "coordinates": [121.4568398742385, 31.22275403086103]}, "properties": {"name": "doko\u97e9\u56fd\u70b8\u9e21", "biz": "050300 \u9910\u996e\u670d\u52a1;\u5feb\u9910\u5385;\u5feb\u9910\u5385", "pty": "0503"}}, {"type": "Feature", "geometry": {"type": "Point", "coordinates": [121.473219110838, 31.22250299716376]}, "properties": {"name": "\u7c73\u6709\u6c99\u62c9(\u65b0\u5929\u5730\u5e97)", "biz": "050300 \u9910\u996e\u670d\u52a1;\u5feb\u9910\u5385;\u5feb\u9910\u5385", "pty": "0503"}}, {"type": "Feature", "geometry": {"type": "Point", "coordinates": [121.47153938103982, 31.224197531038172]}, "properties": {"name": "\u80e1\u8bb0\u9505\u8d34", "biz": "050300 \u9910\u996e\u670d\u52a1;\u5feb\u9910\u5385;\u5feb\u9910\u5385", "pty": "0503"}}, {"type": "Feature", "geometry": {"type": "Point", "coordinates": [121.47958031736476, 31.239695143445648]}, "properties": {"name": "SUBWAY\u8d5b\u767e\u5473(\u6052\u57fa\u540d\u4eba\u8d2d\u7269\u4e2d\u5fc3)", "biz": "050300 \u9910\u996e\u670d\u52a1;\u5feb\u9910\u5385;\u5feb\u9910\u5385", "pty": "0503"}}, {"type": "Feature", "geometry": {"type": "Point", "coordinates": [121.48980605028048, 31.23236363175408]}, "properties": {"name": "\u679c\u4e4b\u6ee1\u6ee1\u9c9c\u69a8\u679c\u6c41\u5427(\u5916\u6ee9SOHO\u5e97)", "biz": "050300 \u9910\u996e\u670d\u52a1;\u5feb\u9910\u5385;\u5feb\u9910\u5385", "pty": "0503"}}, {"type": "Feature", "geometry": {"type": "Point", "coordinates": [121.47830278793512, 31.241055839009206]}, "properties": {"name": "\u725b\u8089\u6c64\u9762\u9986(\u5b81\u6ce2\u8def\u5e97)", "biz": "050300 \u9910\u996e\u670d\u52a1;\u5feb\u9910\u5385;\u5feb\u9910\u5385", "pty": "0503"}}, {"type": "Feature", "geometry": {"type": "Point", "coordinates": [121.47249538839934, 31.23779688125786]}, "properties": {"name": "\u7cbe\u54c1\u5ddd\u83dc\u70e4\u9c7c", "biz": "050300 \u9910\u996e\u670d\u52a1;\u5feb\u9910\u5385;\u5feb\u9910\u5385", "pty": "0503"}}, {"type": "Feature", "geometry": {"type": "Point", "coordinates": [121.47651730984427, 31.23353716690346]}, "properties": {"name": "\u8700\u6e90\u5192\u83dc(\u6d77\u53e3\u8def\u5e97)", "biz": "050300 \u9910\u996e\u670d\u52a1;\u5feb\u9910\u5385;\u5feb\u9910\u5385", "pty": "0503"}}, {"type": "Feature", "geometry": {"type": "Point", "coordinates": [121.48905792072291, 31.22591739838197]}, "properties": {"name": "\u6c41\u5927\u751f\u714e", "biz": "050300 \u9910\u996e\u670d\u52a1;\u5feb\u9910\u5385;\u5feb\u9910\u5385", "pty": "0503"}}, {"type": "Feature", "geometry": {"type": "Point", "coordinates": [121.46631356914013, 31.23440562047397]}, "properties": {"name": "D1\u4e9a\u6d32\u98df\u835fAsian Crave(\u5357\u4eac\u897f\u8def\u5e97)", "biz": "050300 \u9910\u996e\u670d\u52a1;\u5feb\u9910\u5385;\u5feb\u9910\u5385", "pty": "0503"}}, {"type": "Feature", "geometry": {"type": "Point", "coordinates": [121.47549035606188, 31.227226175946516]}, "properties": {"name": "\u8d85\u7ea7\u9e21\u8f66(\u6dee\u6d77\u4e2d\u8def\u5e97)", "biz": "050300 \u9910\u996e\u670d\u52a1;\u5feb\u9910\u5385;\u5feb\u9910\u5385", "pty": "0503"}}, {"type": "Feature", "geometry": {"type": "Point", "coordinates": [121.46421051335246, 31.23960271176551]}, "properties": {"name": "\u7c73\u5176\u5364\u5473\u70e7\u814a(\u4eba\u5e7f\u5e97)", "biz": "050300 \u9910\u996e\u670d\u52a1;\u5feb\u9910\u5385;\u5feb\u9910\u5385", "pty": "0503"}}, {"type": "Feature", "geometry": {"type": "Point", "coordinates": [121.48385119722589, 31.20508291016497]}, "properties": {"name": "\u9556\u5e08\u7ea2\u7cd6\u9992\u5934(\u77bf\u6eaa\u8def\u5e97)", "biz": "050300 \u9910\u996e\u670d\u52a1;\u5feb\u9910\u5385;\u5feb\u9910\u5385", "pty": "0503"}}, {"type": "Feature", "geometry": {"type": "Point", "coordinates": [121.48102628848439, 31.24034804343698]}, "properties": {"name": "\u97e9\u56fd\u8a79\u59c6\u4ed5\u829d\u58eb\u6392\u9aa8(\u5927\u4e38\u767e\u8d27\u5e97)", "biz": "050300 \u9910\u996e\u670d\u52a1;\u5feb\u9910\u5385;\u5feb\u9910\u5385", "pty": "0503"}}, {"type": "Feature", "geometry": {"type": "Point", "coordinates": [121.48267032411435, 31.213544361278334]}, "properties": {"name": "Empty Alley", "biz": "050300 \u9910\u996e\u670d\u52a1;\u5feb\u9910\u5385;\u5feb\u9910\u5385", "pty": "0503"}}, {"type": "Feature", "geometry": {"type": "Point", "coordinates": [121.45681982092161, 31.222704006175068]}, "properties": {"name": "\u9526\u6c5f\u719f\u98df", "biz": "050300 \u9910\u996e\u670d\u52a1;\u5feb\u9910\u5385;\u5feb\u9910\u5385", "pty": "0503"}}, {"type": "Feature", "geometry": {"type": "Point", "coordinates": [121.47210450985766, 31.20950009050749]}, "properties": {"name": "\u5c71\u6797\u719f\u98df(\u4e3d\u56ed\u8def\u5e97)", "biz": "050300 \u9910\u996e\u670d\u52a1;\u5feb\u9910\u5385;\u5feb\u9910\u5385", "pty": "0503"}}, {"type": "Feature", "geometry": {"type": "Point", "coordinates": [121.47315172572246, 31.20097314902563]}, "properties": {"name": "\u4e00\u676f\u5364\u8089\u996d(\u6c47\u666f\u7f8e\u98df\u57ce)", "biz": "050300 \u9910\u996e\u670d\u52a1;\u5feb\u9910\u5385;\u5feb\u9910\u5385", "pty": "0503"}}, {"type": "Feature", "geometry": {"type": "Point", "coordinates": [121.46317391665741, 31.209158309309]}, "properties": {"name": "\u987e\u4e00\u7897(\u65e5\u6708\u5149\u4e2d\u5fc3\u897f\u533a)", "biz": "050300 \u9910\u996e\u670d\u52a1;\u5feb\u9910\u5385;\u5feb\u9910\u5385", "pty": "0503"}}, {"type": "Feature", "geometry": {"type": "Point", "coordinates": [121.46660000171494, 31.239969835045667]}, "properties": {"name": "\u7f19\u4e91\u70e4\u997c", "biz": "050300 \u9910\u996e\u670d\u52a1;\u5feb\u9910\u5385;\u5feb\u9910\u5385", "pty": "0503"}}, {"type": "Feature", "geometry": {"type": "Point", "coordinates": [121.4731397005763, 31.200797201544386]}, "properties": {"name": "\u7096\u4e4b\u5473\u9aa8\u5934\u996d", "biz": "050300 \u9910\u996e\u670d\u52a1;\u5feb\u9910\u5385;\u5feb\u9910\u5385", "pty": "0503"}}, {"type": "Feature", "geometry": {"type": "Point", "coordinates": [121.47121061820215, 31.23211093647082]}, "properties": {"name": "T&CHENG", "biz": "050700|050300 \u9910\u996e\u670d\u52a1;\u51b7\u996e\u5e97;\u51b7\u996e\u5e97|\u9910\u996e\u670d\u52a1;\u5feb\u9910\u5385;\u5feb\u9910\u5385", "pty": "0507"}}, {"type": "Feature", "geometry": {"type": "Point", "coordinates": [121.46968258755808, 31.208971681784924]}, "properties": {"name": "\u5473\u6377\u5916\u5356(\u6253\u6d66\u6865\u5e97)", "biz": "050300 \u9910\u996e\u670d\u52a1;\u5feb\u9910\u5385;\u5feb\u9910\u5385", "pty": "0503"}}, {"type": "Feature", "geometry": {"type": "Point", "coordinates": [121.4820546095405, 31.231814957722126]}, "properties": {"name": "\u9984\u9968\u76d2\u996d", "biz": "050300 \u9910\u996e\u670d\u52a1;\u5feb\u9910\u5385;\u5feb\u9910\u5385", "pty": "0503"}}, {"type": "Feature", "geometry": {"type": "Point", "coordinates": [121.48888304307002, 31.217115030776213]}, "properties": {"name": "\u9ec4\u7116\u9e21\u7c73\u996d\u9ec4\u5c71\u83dc\u996d", "biz": "050300 \u9910\u996e\u670d\u52a1;\u5feb\u9910\u5385;\u5feb\u9910\u5385", "pty": "0503"}}, {"type": "Feature", "geometry": {"type": "Point", "coordinates": [121.48214146027824, 31.213657758951243]}, "properties": {"name": "\u8d5b\u767e\u5473(\u9ec4\u6d66\u9038\u57ce)", "biz": "050300 \u9910\u996e\u670d\u52a1;\u5feb\u9910\u5385;\u5feb\u9910\u5385", "pty": "0503"}}, {"type": "Feature", "geometry": {"type": "Point", "coordinates": [121.46072638845277, 31.221739073613158]}, "properties": {"name": "\u963f\u62c9\u4e01\u9ebb\u8fa3\u70eb(\u534e\u72ee\u5e7f\u573a\u5e97)", "biz": "050300 \u9910\u996e\u670d\u52a1;\u5feb\u9910\u5385;\u5feb\u9910\u5385", "pty": "0503"}}, {"type": "Feature", "geometry": {"type": "Point", "coordinates": [121.48412514966265, 31.240493052566382]}, "properties": {"name": "\u964d\u9f99\u722a\u722a", "biz": "050300 \u9910\u996e\u670d\u52a1;\u5feb\u9910\u5385;\u5feb\u9910\u5385", "pty": "0503"}}, {"type": "Feature", "geometry": {"type": "Point", "coordinates": [121.48152547224457, 31.211699898635565]}, "properties": {"name": "\u5927\u9f13\u7c73\u7ebf(\u9646\u5bb6\u6d5c\u65b0\u90bb\u751f\u6d3b\u5e97)", "biz": "050300 \u9910\u996e\u670d\u52a1;\u5feb\u9910\u5385;\u5feb\u9910\u5385", "pty": "0503"}}, {"type": "Feature", "geometry": {"type": "Point", "coordinates": [121.48666558828138, 31.223582380006352]}, "properties": {"name": "\u5f00\u5fc3\u82b1\u7532(\u590d\u5174\u4e1c\u8def\u5e97)", "biz": "050300 \u9910\u996e\u670d\u52a1;\u5feb\u9910\u5385;\u5feb\u9910\u5385", "pty": "0503"}}, {"type": "Feature", "geometry": {"type": "Point", "coordinates": [121.47028678605619, 31.218038991930065]}, "properties": {"name": "\u5feb\u610f\u5357\u6d0b", "biz": "050300 \u9910\u996e\u670d\u52a1;\u5feb\u9910\u5385;\u5feb\u9910\u5385", "pty": "0503"}}, {"type": "Feature", "geometry": {"type": "Point", "coordinates": [121.49386382362192, 31.23000786284524]}, "properties": {"name": "\u90a6\u5fb7\u5821\u4fbf\u5f53", "biz": "050300 \u9910\u996e\u670d\u52a1;\u5feb\u9910\u5385;\u5feb\u9910\u5385", "pty": "0503"}}, {"type": "Feature", "geometry": {"type": "Point", "coordinates": [121.48114989489649, 31.203083974111507]}, "properties": {"name": "\u5b97\u8bb0\u9ebb\u8fa3\u7802\u9505", "biz": "050300 \u9910\u996e\u670d\u52a1;\u5feb\u9910\u5385;\u5feb\u9910\u5385", "pty": "0503"}}, {"type": "Feature", "geometry": {"type": "Point", "coordinates": [121.47041298759828, 31.19714044838485]}, "properties": {"name": "\u99a5\u560f\u9999(\u6253\u6d66\u8def\u5e97)", "biz": "050300 \u9910\u996e\u670d\u52a1;\u5feb\u9910\u5385;\u5feb\u9910\u5385", "pty": "0503"}}, {"type": "Feature", "geometry": {"type": "Point", "coordinates": [121.47148029388661, 31.234618524399714]}, "properties": {"name": "\u81ea\u9c7f\u4eba(\u6765\u798f\u58eb\u5e7f\u573a)", "biz": "050300 \u9910\u996e\u670d\u52a1;\u5feb\u9910\u5385;\u5feb\u9910\u5385", "pty": "0503"}}, {"type": "Feature", "geometry": {"type": "Point", "coordinates": [121.4824388404075, 31.209687536355144]}, "properties": {"name": "\u91cd\u5e86\u5192\u83dc", "biz": "050300 \u9910\u996e\u670d\u52a1;\u5feb\u9910\u5385;\u5feb\u9910\u5385", "pty": "0503"}}, {"type": "Feature", "geometry": {"type": "Point", "coordinates": [121.45822651719287, 31.215491836026516]}, "properties": {"name": "\u745e\u91d1\u5927\u53a6\u98df\u5802", "biz": "050300 \u9910\u996e\u670d\u52a1;\u5feb\u9910\u5385;\u5feb\u9910\u5385", "pty": "0503"}}, {"type": "Feature", "geometry": {"type": "Point", "coordinates": [121.47462198468307, 31.208899423254078]}, "properties": {"name": "\u6cf0\u548c\u5174\u5927\u98df\u5802", "biz": "050300 \u9910\u996e\u670d\u52a1;\u5feb\u9910\u5385;\u5feb\u9910\u5385", "pty": "0503"}}, {"type": "Feature", "geometry": {"type": "Point", "coordinates": [121.46642601374005, 31.233383389964793]}, "properties": {"name": "\u632f\u9f0e\u767d\u65a9\u9e21(\u4eba\u6c11\u5e7f\u573a\u5e97)", "biz": "050300 \u9910\u996e\u670d\u52a1;\u5feb\u9910\u5385;\u5feb\u9910\u5385", "pty": "0503"}}, {"type": "Feature", "geometry": {"type": "Point", "coordinates": [121.46624816079282, 31.236747371728644]}, "properties": {"name": "\u8001\u4e0a\u6d77\u9762\u9986\u8471\u6cb9\u997c", "biz": "050300 \u9910\u996e\u670d\u52a1;\u5feb\u9910\u5385;\u5feb\u9910\u5385", "pty": "0503"}}, {"type": "Feature", "geometry": {"type": "Point", "coordinates": [121.46617277423827, 31.203479904862295]}, "properties": {"name": "\u848b\u8bb0\u83dc\u996d", "biz": "050300 \u9910\u996e\u670d\u52a1;\u5feb\u9910\u5385;\u5feb\u9910\u5385", "pty": "0503"}}, {"type": "Feature", "geometry": {"type": "Point", "coordinates": [121.48877056898547, 31.229738760388738]}, "properties": {"name": "\u725b\u8089\u7c89\u4e1d\u6c64(\u8c6b\u56ed\u5e97)", "biz": "050300 \u9910\u996e\u670d\u52a1;\u5feb\u9910\u5385;\u5feb\u9910\u5385", "pty": "0503"}}, {"type": "Feature", "geometry": {"type": "Point", "coordinates": [121.47557047365692, 31.22903056230121]}, "properties": {"name": "\u5927\u7b2a\u5730\u6392\u6863", "biz": "050300 \u9910\u996e\u670d\u52a1;\u5feb\u9910\u5385;\u5feb\u9910\u5385", "pty": "0503"}}, {"type": "Feature", "geometry": {"type": "Point", "coordinates": [121.47935449653858, 31.240149283656077]},