{"type": "FeatureCollection", "features": [{"type": "Feature", "geometry": {"type": "Point", "coordinates": [121.36628104509445, 31.346242156584395]}, "properties": {"name": "7\u5929\u4f18\u54c1\u4fbf\u5229\u5e97", "biz": "100105|060200 \u4f4f\u5bbf\u670d\u52a1;\u5bbe\u9986\u9152\u5e97;\u7ecf\u6d4e\u578b\u8fde\u9501\u9152\u5e97|\u8d2d\u7269\u670d\u52a1;\u4fbf\u6c11\u5546\u5e97/\u4fbf\u5229\u5e97;\u4fbf\u6c11\u5546\u5e97/\u4fbf\u5229\u5e97", "pty": "1001"}}, {"type": "Feature", "geometry": {"type": "Point", "coordinates": [121.16561372082202, 30.888377789993907]}, "properties": {"name": "\u541b\u671d\u5927\u9152\u5e97(\u6731\u6cfe\u5e97)", "biz": "050107|100105 \u9910\u996e\u670d\u52a1;\u4e2d\u9910\u5385;\u4e0a\u6d77\u83dc|\u4f4f\u5bbf\u670d\u52a1;\u5bbe\u9986\u9152\u5e97;\u7ecf\u6d4e\u578b\u8fde\u9501\u9152\u5e97", "pty": "0501"}}, {"type": "Feature", "geometry": {"type": "Point", "coordinates": [121.21315787368268, 31.318952487231325]}, "properties": {"name": "\u5fe0\u5fc3\u5927\u9152\u5e97", "biz": "100105|050100 \u4f4f\u5bbf\u670d\u52a1;\u5bbe\u9986\u9152\u5e97;\u7ecf\u6d4e\u578b\u8fde\u9501\u9152\u5e97|\u9910\u996e\u670d\u52a1;\u4e2d\u9910\u5385;\u4e2d\u9910\u5385", "pty": "1001"}}, {"type": "Feature", "geometry": {"type": "Point", "coordinates": [121.3106144415586, 31.14833552644267]}, "properties": {"name": "\u5c0f\u6728\u5c4b\u7c73\u9152\u5e97(\u4e5d\u4ead\u5e97)", "biz": "100105|141400 \u4f4f\u5bbf\u670d\u52a1;\u5bbe\u9986\u9152\u5e97;\u7ecf\u6d4e\u578b\u8fde\u9501\u9152\u5e97|\u79d1\u6559\u6587\u5316\u670d\u52a1;\u57f9\u8bad\u673a\u6784;\u57f9\u8bad\u673a\u6784", "pty": "1001"}}, {"type": "Feature", "geometry": {"type": "Point", "coordinates": [121.16561372082202, 30.888377789993907]}, "properties": {"name": "\u541b\u671d\u5927\u9152\u5e97(\u6731\u6cfe\u5e97)", "biz": "050107|100105 \u9910\u996e\u670d\u52a1;\u4e2d\u9910\u5385;\u4e0a\u6d77\u83dc|\u4f4f\u5bbf\u670d\u52a1;\u5bbe\u9986\u9152\u5e97;\u7ecf\u6d4e\u578b\u8fde\u9501\u9152\u5e97", "pty": "0501"}}, {"type": "Feature", "geometry": {"type": "Point", "coordinates": [121.3106144415586, 31.14833552644267]}, "properties": {"name": "\u5c0f\u6728\u5c4b\u7c73\u9152\u5e97(\u4e5d\u4ead\u5e97)", "biz": "100105|141400 \u4f4f\u5bbf\u670d\u52a1;\u5bbe\u9986\u9152\u5e97;\u7ecf\u6d4e\u578b\u8fde\u9501\u9152\u5e97|\u79d1\u6559\u6587\u5316\u670d\u52a1;\u57f9\u8bad\u673a\u6784;\u57f9\u8bad\u673a\u6784", "pty": "1001"}}, {"type": "Feature", "geometry": {"type": "Point", "coordinates": [121.46697813593161, 31.240791469059452]}, "properties": {"name": "\u5e03\u4e01\u9152\u5e97(\u4eba\u6c11\u5e7f\u573a\u5e97)", "biz": "100105 \u4f4f\u5bbf\u670d\u52a1;\u5bbe\u9986\u9152\u5e97;\u7ecf\u6d4e\u578b\u8fde\u9501\u9152\u5e97", "pty": "1001"}}, {"type": "Feature", "geometry": {"type": "Point", "coordinates": [121.49364745095335, 31.21341604066511]}, "properties": {"name": "\u6d77\u53cb\u9152\u5e97(\u4e0a\u6d77\u5357\u5916\u6ee9\u5e97)", "biz": "100105 \u4f4f\u5bbf\u670d\u52a1;\u5bbe\u9986\u9152\u5e97;\u7ecf\u6d4e\u578b\u8fde\u9501\u9152\u5e97", "pty": "1001"}}, {"type": "Feature", "geometry": {"type": "Point", "coordinates": [121.472930861088, 31.237548208192237]}, "properties": {"name": "\u9526\u6c5f\u4e4b\u661f\u9152\u5e97(\u4e0a\u6d77\u5357\u4eac\u8def\u6b65\u884c\u8857\u5e97)", "biz": "100105 \u4f4f\u5bbf\u670d\u52a1;\u5bbe\u9986\u9152\u5e97;\u7ecf\u6d4e\u578b\u8fde\u9501\u9152\u5e97", "pty": "1001"}}, {"type": "Feature", "geometry": {"type": "Point", "coordinates": [121.47755500818246, 31.220081417938932]}, "properties": {"name": "\u6d66\u6c5f\u4e4b\u661f\u65c5\u5e97(\u4e1c\u53f0\u8def\u5e97)", "biz": "100105 \u4f4f\u5bbf\u670d\u52a1;\u5bbe\u9986\u9152\u5e97;\u7ecf\u6d4e\u578b\u8fde\u9501\u9152\u5e97", "pty": "1001"}}, {"type": "Feature", "geometry": {"type": "Point", "coordinates": [121.47467449698935, 31.24008394305066]}, "properties": {"name": "\u9526\u6c5f\u4e4b\u661f\u9152\u5e97(\u98ce\u5c1a\u5e97)", "biz": "100105 \u4f4f\u5bbf\u670d\u52a1;\u5bbe\u9986\u9152\u5e97;\u7ecf\u6d4e\u578b\u8fde\u9501\u9152\u5e97", "pty": "1001"}}, {"type": "Feature", "geometry": {"type": "Point", "coordinates": [121.48458196637175, 31.21460047534419]}, "properties": {"name": "\u7231\u4e4b\u7f18\u4e3b\u9898\u9152\u5e97(\u8c6b\u56ed\u5e97)", "biz": "100105 \u4f4f\u5bbf\u670d\u52a1;\u5bbe\u9986\u9152\u5e97;\u7ecf\u6d4e\u578b\u8fde\u9501\u9152\u5e97", "pty": "1001"}}, {"type": "Feature", "geometry": {"type": "Point", "coordinates": [121.48624102998164, 31.224166847070293]}, "properties": {"name": "\u5982\u5bb6\u5feb\u6377\u9152\u5e97(\u4e0a\u6d77\u5916\u6ee9\u57ce\u968d\u5e99\u5e97)", "biz": "100105 \u4f4f\u5bbf\u670d\u52a1;\u5bbe\u9986\u9152\u5e97;\u7ecf\u6d4e\u578b\u8fde\u9501\u9152\u5e97", "pty": "1001"}}, {"type": "Feature", "geometry": {"type": "Point", "coordinates": [121.46581873852492, 31.237483897747982]}, "properties": {"name": "\u6c49\u5ead\u9152\u5e97(\u4e0a\u6d77\u4eba\u6c11\u5e7f\u573a\u5730\u94c1\u7ad9\u5e97)", "biz": "100105 \u4f4f\u5bbf\u670d\u52a1;\u5bbe\u9986\u9152\u5e97;\u7ecf\u6d4e\u578b\u8fde\u9501\u9152\u5e97", "pty": "1001"}}, {"type": "Feature", "geometry": {"type": "Point", "coordinates": [121.48844972961552, 31.214354056937996]}, "properties": {"name": "\u6c49\u5ead\u9152\u5e97(\u4e0a\u6d77\u9646\u5bb6\u6d5c\u8def\u5e97)", "biz": "100105 \u4f4f\u5bbf\u670d\u52a1;\u5bbe\u9986\u9152\u5e97;\u7ecf\u6d4e\u578b\u8fde\u9501\u9152\u5e97", "pty": "1001"}}, {"type": "Feature", "geometry": {"type": "Point", "coordinates": [121.48097649531607, 31.235885936944847]}, "properties": {"name": "\u5409\u6cf0\u9152\u5e97(\u4e0a\u6d77\u5357\u4eac\u8def\u5916\u6ee9\u4e2d\u5fc3\u5e97)", "biz": "100105 \u4f4f\u5bbf\u670d\u52a1;\u5bbe\u9986\u9152\u5e97;\u7ecf\u6d4e\u578b\u8fde\u9501\u9152\u5e97", "pty": "1001"}}, {"type": "Feature", "geometry": {"type": "Point", "coordinates": [121.46661354654039, 31.210792534569958]}, "properties": {"name": "\u83ab\u6cf0168\u65c5\u5e97(\u4e0a\u6d77\u601d\u5357\u8def\u5e97)", "biz": "100105 \u4f4f\u5bbf\u670d\u52a1;\u5bbe\u9986\u9152\u5e97;\u7ecf\u6d4e\u578b\u8fde\u9501\u9152\u5e97", "pty": "1001"}}, {"type": "Feature", "geometry": {"type": "Point", "coordinates": [121.4800478996961, 31.204969853129366]}, "properties": {"name": "\u6c49\u5ead\u9152\u5e97(\u4e0a\u6d77\u5236\u9020\u5c40\u8def\u5e97)", "biz": "100105 \u4f4f\u5bbf\u670d\u52a1;\u5bbe\u9986\u9152\u5e97;\u7ecf\u6d4e\u578b\u8fde\u9501\u9152\u5e97", "pty": "1001"}}, {"type": "Feature", "geometry": {"type": "Point", "coordinates": [121.47758746101266, 31.227796887073346]}, "properties": {"name": "\u767e\u65f6\u5feb\u6377\u9152\u5e97(\u4eba\u6c11\u5e7f\u573a\u6dee\u6d77\u4e1c\u8def\u5e97)", "biz": "100105 \u4f4f\u5bbf\u670d\u52a1;\u5bbe\u9986\u9152\u5e97;\u7ecf\u6d4e\u578b\u8fde\u9501\u9152\u5e97", "pty": "1001"}}, {"type": "Feature", "geometry": {"type": "Point", "coordinates": [121.47719740069535, 31.212840842479853]}, "properties": {"name": "\u83ab\u6cf0168\u65c5\u5e97(\u4e0a\u6d77\u65b0\u5929\u5730\u5f90\u5bb6\u6c47\u8def\u5e97)", "biz": "100105 \u4f4f\u5bbf\u670d\u52a1;\u5bbe\u9986\u9152\u5e97;\u7ecf\u6d4e\u578b\u8fde\u9501\u9152\u5e97", "pty": "1001"}}, {"type": "Feature", "geometry": {"type": "Point", "coordinates": [121.46645524145615, 31.208482227446268]}, "properties": {"name": "\u5409\u6cf0\u7cbe\u54c1\u9152\u5e97(\u5f90\u5bb6\u6c47\u8def\u5e97)", "biz": "100105 \u4f4f\u5bbf\u670d\u52a1;\u5bbe\u9986\u9152\u5e97;\u7ecf\u6d4e\u578b\u8fde\u9501\u9152\u5e97", "pty": "1001"}}, {"type": "Feature", "geometry": {"type": "Point", "coordinates": [121.476821652733, 31.241687308049112]}, "properties": {"name": "\u83ab\u6cf0168\u9152\u5e97(\u5357\u4eac\u4e1c\u8def\u5730\u94c1\u7ad9\u5e97)", "biz": "100105 \u4f4f\u5bbf\u670d\u52a1;\u5bbe\u9986\u9152\u5e97;\u7ecf\u6d4e\u578b\u8fde\u9501\u9152\u5e97", "pty": "1001"}}, {"type": "Feature", "geometry": {"type": "Point", "coordinates": [121.46761861176842, 31.20080606695747]}, "properties": {"name": "\u6d66\u6c5f\u7cbe\u9009\u9152\u5e97(\u4e0a\u6d77\u7530\u5b50\u574a\u6253\u6d66\u6865\u9c81\u73ed\u8def\u5730\u94c1\u7ad9\u5e97)", "biz": "100105 \u4f4f\u5bbf\u670d\u52a1;\u5bbe\u9986\u9152\u5e97;\u7ecf\u6d4e\u578b\u8fde\u9501\u9152\u5e97", "pty": "1001"}}, {"type": "Feature", "geometry": {"type": "Point", "coordinates": [121.47315533245674, 31.205716847008368]}, "properties": {"name": "\u767d\u7389\u5170\u9152\u5e97(\u5357\u5916\u6ee9\u5e97)", "biz": "100105 \u4f4f\u5bbf\u670d\u52a1;\u5bbe\u9986\u9152\u5e97;\u7ecf\u6d4e\u578b\u8fde\u9501\u9152\u5e97", "pty": "1001"}}, {"type": "Feature", "geometry": {"type": "Point", "coordinates": [121.47693405288469, 31.24150071365238]}, "properties": {"name": "\u901f8\u9152\u5e97(\u5357\u4eac\u4e1c\u8def\u6b65\u884c\u8857\u5e97)", "biz": "100105 \u4f4f\u5bbf\u670d\u52a1;\u5bbe\u9986\u9152\u5e97;\u7ecf\u6d4e\u578b\u8fde\u9501\u9152\u5e97", "pty": "1001"}}, {"type": "Feature", "geometry": {"type": "Point", "coordinates": [121.48083951763351, 31.21829075280469]}, "properties": {"name": "\u9526\u6c5f\u4e4b\u661f\u9152\u5e97(\u65b9\u659c\u652f\u8def)", "biz": "100105 \u4f4f\u5bbf\u670d\u52a1;\u5bbe\u9986\u9152\u5e97;\u7ecf\u6d4e\u578b\u8fde\u9501\u9152\u5e97", "pty": "1001"}}, {"type": "Feature", "geometry": {"type": "Point", "coordinates": [121.47693204610886, 31.24149970837632]}, "properties": {"name": "\u6d77\u53cb\u9152\u5e97(\u4e0a\u6d77\u5916\u6ee9\u5357\u4eac\u4e1c\u8def\u5e97)", "biz": "100105 \u4f4f\u5bbf\u670d\u52a1;\u5bbe\u9986\u9152\u5e97;\u7ecf\u6d4e\u578b\u8fde\u9501\u9152\u5e97", "pty": "1001"}}, {"type": "Feature", "geometry": {"type": "Point", "coordinates": [121.48675478311105, 31.20148524290912]}, "properties": {"name": "\u83ab\u6cf0168\u65c5\u5e97(\u4e0a\u6d77\u4e16\u535a\u5c55\u89c8\u9986\u897f\u85cf\u5357\u8def\u5e97)", "biz": "100105 \u4f4f\u5bbf\u670d\u52a1;\u5bbe\u9986\u9152\u5e97;\u7ecf\u6d4e\u578b\u8fde\u9501\u9152\u5e97", "pty": "1001"}}, {"type": "Feature", "geometry": {"type": "Point", "coordinates": [121.47645769197786, 31.238389770576518]}, "properties": {"name": "\u5982\u5bb6\u5feb\u6377\u9152\u5e97(\u4e0a\u6d77\u5357\u4eac\u8def\u6b65\u884c\u8857\u5e97)", "biz": "100105 \u4f4f\u5bbf\u670d\u52a1;\u5bbe\u9986\u9152\u5e97;\u7ecf\u6d4e\u578b\u8fde\u9501\u9152\u5e97", "pty": "1001"}}, {"type": "Feature", "geometry": {"type": "Point", "coordinates": [121.47693405288469, 31.24150071365238]}, "properties": {"name": "7\u5929\u4e0a\u6d77\u5357\u4eac\u8def\u6b65\u884c\u8857\u4e8c\u5e97", "biz": "100105 \u4f4f\u5bbf\u670d\u52a1;\u5bbe\u9986\u9152\u5e97;\u7ecf\u6d4e\u578b\u8fde\u9501\u9152\u5e97", "pty": "1001"}}, {"type": "Feature", "geometry": {"type": "Point", "coordinates": [121.45586989398862, 31.225185569454613]}, "properties": {"name": "\u6c49\u5ead\u9152\u5e97(\u4e0a\u6d77\u8302\u540d\u8def\u5e97)", "biz": "100105 \u4f4f\u5bbf\u670d\u52a1;\u5bbe\u9986\u9152\u5e97;\u7ecf\u6d4e\u578b\u8fde\u9501\u9152\u5e97", "pty": "1001"}}, {"type": "Feature", "geometry": {"type": "Point", "coordinates": [121.4807886396005, 31.21477927699739]}, "properties": {"name": "\u6c49\u5ead\u9152\u5e97(\u4e0a\u6d77\u897f\u85cf\u5357\u8def\u5e97)", "biz": "100105 \u4f4f\u5bbf\u670d\u52a1;\u5bbe\u9986\u9152\u5e97;\u7ecf\u6d4e\u578b\u8fde\u9501\u9152\u5e97", "pty": "1001"}}, {"type": "Feature", "geometry": {"type": "Point", "coordinates": [121.47337284131898, 31.2316691477219]}, "properties": {"name": "\u6d77\u53cb\u9152\u5e97(\u4e0a\u6d77\u4eba\u6c11\u5e7f\u573a\u5e97)", "biz": "100105 \u4f4f\u5bbf\u670d\u52a1;\u5bbe\u9986\u9152\u5e97;\u7ecf\u6d4e\u578b\u8fde\u9501\u9152\u5e97", "pty": "1001"}}, {"type": "Feature", "geometry": {"type": "Point", "coordinates": [121.47663749582088, 31.21273729291147]}, "properties": {"name": "\u5982\u5bb6\u7cbe\u9009\u9152\u5e97(\u4e0a\u6d77\u65b0\u5929\u5730\u5f90\u5bb6\u6c47\u8def\u5e97)", "biz": "100105 \u4f4f\u5bbf\u670d\u52a1;\u5bbe\u9986\u9152\u5e97;\u7ecf\u6d4e\u578b\u8fde\u9501\u9152\u5e97", "pty": "1001"}}, {"type": "Feature", "geometry": {"type": "Point", "coordinates": [121.48736141352035, 31.231240871613814]}, "properties": {"name": "\u6854\u5b50\u9152\u5e97(\u4e0a\u6d77\u8c6b\u56ed\u5e97)", "biz": "100105 \u4f4f\u5bbf\u670d\u52a1;\u5bbe\u9986\u9152\u5e97;\u7ecf\u6d4e\u578b\u8fde\u9501\u9152\u5e97", "pty": "1001"}}, {"type": "Feature", "geometry": {"type": "Point", "coordinates": [121.47884699262147, 31.213767136939264]}, "properties": {"name": "\u9526\u6c5f\u4e4b\u661f\u65c5\u9986(\u4e0a\u6d77\u9646\u5bb6\u6d5c\u8def\u5e97)", "biz": "100105 \u4f4f\u5bbf\u670d\u52a1;\u5bbe\u9986\u9152\u5e97;\u7ecf\u6d4e\u578b\u8fde\u9501\u9152\u5e97", "pty": "1001"}}, {"type": "Feature", "geometry": {"type": "Point", "coordinates": [121.48191904716255, 31.24457773210679]}, "properties": {"name": "\u9526\u6c5f\u4e4b\u661f\u9152\u5e97(\u4e0a\u6d77\u5916\u6ee9\u6ee8\u6c5f\u5e97)", "biz": "100105 \u4f4f\u5bbf\u670d\u52a1;\u5bbe\u9986\u9152\u5e97;\u7ecf\u6d4e\u578b\u8fde\u9501\u9152\u5e97", "pty": "1001"}}, {"type": "Feature", "geometry": {"type": "Point", "coordinates": [121.48584428856866, 31.20456104517441]}, "properties": {"name": "7\u5929\u9152\u5e97(\u4e0a\u6d77\u897f\u85cf\u5357\u8def\u5730\u94c1\u7ad9\u5e97)", "biz": "100105 \u4f4f\u5bbf\u670d\u52a1;\u5bbe\u9986\u9152\u5e97;\u7ecf\u6d4e\u578b\u8fde\u9501\u9152\u5e97", "pty": "1001"}}, {"type": "Feature", "geometry": {"type": "Point", "coordinates": [121.48117873315961, 31.206164559852116]}, "properties": {"name": "\u901f8\u9152\u5e97(\u4e0a\u6d77\u9ec4\u6d66\u5e97)", "biz": "100105 \u4f4f\u5bbf\u670d\u52a1;\u5bbe\u9986\u9152\u5e97;\u7ecf\u6d4e\u578b\u8fde\u9501\u9152\u5e97", "pty": "1001"}}, {"type": "Feature", "geometry": {"type": "Point", "coordinates": [121.47177000297889, 31.237530989695813]}, "properties": {"name": "7\u5929\u9152\u5e97(\u4e0a\u6d77\u5357\u4eac\u8def\u6b65\u884c\u8857\u5e97)", "biz": "100105 \u4f4f\u5bbf\u670d\u52a1;\u5bbe\u9986\u9152\u5e97;\u7ecf\u6d4e\u578b\u8fde\u9501\u9152\u5e97", "pty": "1001"}}, {"type": "Feature", "geometry": {"type": "Point", "coordinates": [121.48238965660994, 31.221565726641913]}, "properties": {"name": "\u5409\u6cf0\u9152\u5e97(\u8001\u897f\u95e8\u5e97)", "biz": "100105 \u4f4f\u5bbf\u670d\u52a1;\u5bbe\u9986\u9152\u5e97;\u7ecf\u6d4e\u578b\u8fde\u9501\u9152\u5e97", "pty": "1001"}}, {"type": "Feature", "geometry": {"type": "Point", "coordinates": [121.48563874898393, 31.21409983556897]}, "properties": {"name": "\u5e03\u4e01\u9152\u5e97(\u4e0a\u6d77\u8c6b\u56ed\u5916\u6ee9\u5e97)", "biz": "100105 \u4f4f\u5bbf\u670d\u52a1;\u5bbe\u9986\u9152\u5e97;\u7ecf\u6d4e\u578b\u8fde\u9501\u9152\u5e97", "pty": "1001"}}, {"type": "Feature", "geometry": {"type": "Point", "coordinates": [121.46540216062078, 31.228911753496735]}, "properties": {"name": "\u5982\u5bb6\u5feb\u6377\u9152\u5e97(\u4e0a\u6d77\u5357\u4eac\u8def\u4eba\u6c11\u5e7f\u573a\u5e97)", "biz": "100105 \u4f4f\u5bbf\u670d\u52a1;\u5bbe\u9986\u9152\u5e97;\u7ecf\u6d4e\u578b\u8fde\u9501\u9152\u5e97", "pty": "1001"}}, {"type": "Feature", "geometry": {"type": "Point", "coordinates": [121.48212451435117, 31.23580532331063]}, "properties": {"name": "\u5982\u5bb6\u5feb\u6377\u9152\u5e97(\u4e0a\u6d77\u5357\u4eac\u4e1c\u8def\u5916\u6ee9\u4e2d\u5fc3\u5e97)", "biz": "100105 \u4f4f\u5bbf\u670d\u52a1;\u5bbe\u9986\u9152\u5e97;\u7ecf\u6d4e\u578b\u8fde\u9501\u9152\u5e97", "pty": "1001"}}, {"type": "Feature", "geometry": {"type": "Point", "coordinates": [121.47683654309941, 31.23185885258415]}, "properties": {"name": "\u6c49\u5ead\u9152\u5e97(\u4e0a\u6d77\u4eba\u6c11\u5e7f\u573a\u5e97)", "biz": "100105 \u4f4f\u5bbf\u670d\u52a1;\u5bbe\u9986\u9152\u5e97;\u7ecf\u6d4e\u578b\u8fde\u9501\u9152\u5e97", "pty": "1001"}}, {"type": "Feature", "geometry": {"type": "Point", "coordinates": [121.49506276474109, 31.22264190115204]}, "properties": {"name": "\u5982\u5bb6\u5feb\u6377\u9152\u5e97(\u4e0a\u6d77\u5916\u6ee9\u57ce\u968d\u5e99\u5c0f\u5357\u95e8\u5730\u94c1\u7ad9\u5e97)", "biz": "100105 \u4f4f\u5bbf\u670d\u52a1;\u5bbe\u9986\u9152\u5e97;\u7ecf\u6d4e\u578b\u8fde\u9501\u9152\u5e97", "pty": "1001"}}, {"type": "Feature", "geometry": {"type": "Point", "coordinates": [121.47728202169449, 31.220677354413773]}, "properties": {"name": "\u683c\u6797\u8c6a\u6cf0\u8d1d\u58f3\u9152\u5e97(\u4e0a\u6d77\u65b0\u5929\u5730\u8001\u897f\u95e8\u5e97)", "biz": "100105 \u4f4f\u5bbf\u670d\u52a1;\u5bbe\u9986\u9152\u5e97;\u7ecf\u6d4e\u578b\u8fde\u9501\u9152\u5e97", "pty": "1001"}}, {"type": "Feature", "geometry": {"type": "Point", "coordinates": [121.47847565805014, 31.214398764882034]}, "properties": {"name": "\u5982\u5bb6\u5feb\u6377\u9152\u5e97(\u4e0a\u6d77\u9646\u5bb6\u6d5c\u8def\u5730\u94c1\u7ad9\u5e97)", "biz": "100105 \u4f4f\u5bbf\u670d\u52a1;\u5bbe\u9986\u9152\u5e97;\u7ecf\u6d4e\u578b\u8fde\u9501\u9152\u5e97", "pty": "1001"}}, {"type": "Feature", "geometry": {"type": "Point", "coordinates": [121.48234568349238, 31.242915730155456]}, "properties": {"name": "\u5e03\u4e01\u9152\u5e97(\u4e0a\u6d77\u5916\u6ee9\u6ee8\u6c5f\u5e97)", "biz": "100105 \u4f4f\u5bbf\u670d\u52a1;\u5bbe\u9986\u9152\u5e97;\u7ecf\u6d4e\u578b\u8fde\u9501\u9152\u5e97", "pty": "1001"}}, {"type": "Feature", "geometry": {"type": "Point", "coordinates": [121.47947685046843, 31.240966266050933]}, "properties": {"name": "\u6c49\u5ead\u9152\u5e97(\u4e0a\u6d77\u5357\u4eac\u4e1c\u8def\u6b65\u884c\u8857\u5e97)", "biz": "100105 \u4f4f\u5bbf\u670d\u52a1;\u5bbe\u9986\u9152\u5e97;\u7ecf\u6d4e\u578b\u8fde\u9501\u9152\u5e97", "pty": "1001"}}, {"type": "Feature", "geometry": {"type": "Point", "coordinates": [121.47774001877399, 31.227396511236748]}, "properties": {"name": "\u5168\u5b63\u9152\u5e97(\u4e0a\u6d77\u6dee\u6d77\u8def\u5e97)", "biz": "100105 \u4f4f\u5bbf\u670d\u52a1;\u5bbe\u9986\u9152\u5e97;\u7ecf\u6d4e\u578b\u8fde\u9501\u9152\u5e97", "pty": "1001"}}, {"type": "Feature", "geometry": {"type": "Point", "coordinates": [121.48184121051123, 31.239465821475672]}, "properties": {"name": "\u6c49\u5ead\u9152\u5e97(\u4e0a\u6d77\u5916\u6ee9\u6c5f\u897f\u4e2d\u8def\u5e97)", "biz": "100105 \u4f4f\u5bbf\u670d\u52a1;\u5bbe\u9986\u9152\u5e97;\u7ecf\u6d4e\u578b\u8fde\u9501\u9152\u5e97", "pty": "1001"}}, {"type": "Feature", "geometry": {"type": "Point", "coordinates": [121.47815282320477, 31.23459536089574]}, "properties": {"name": "\u5e03\u4e01\u9152\u5e97(\u4e0a\u6d77\u5916\u6ee9\u5e7f\u4e1c\u8def\u5e97)", "biz": "100105 \u4f4f\u5bbf\u670d\u52a1;\u5bbe\u9986\u9152\u5e97;\u7ecf\u6d4e\u578b\u8fde\u9501\u9152\u5e97", "pty": "1001"}}, {"type": "Feature", "geometry": {"type": "Point", "coordinates": [121.48745937214451, 31.200523805146787]}, "properties": {"name": "\u5168\u5b63\u9152\u5e97(\u4e0a\u6d77\u897f\u85cf\u5357\u8def\u5e97)", "biz": "100105 \u4f4f\u5bbf\u670d\u52a1;\u5bbe\u9986\u9152\u5e97;\u7ecf\u6d4e\u578b\u8fde\u9501\u9152\u5e97", "pty": "1001"}}, {"type": "Feature", "geometry": {"type": "Point", "coordinates": [121.48578738479179, 31.212819888212962]}, "properties": {"name": "\u6613\u4f70\u8fde\u9501\u65c5\u5e97(\u4e0a\u6d77\u5357\u5916\u6ee9\u4e8c\u5e97)", "biz": "100105 \u4f4f\u5bbf\u670d\u52a1;\u5bbe\u9986\u9152\u5e97;\u7ecf\u6d4e\u578b\u8fde\u9501\u9152\u5e97", "pty": "1001"}}, {"type": "Feature", "geometry": {"type": "Point", "coordinates": [121.48286055060963, 31.242210557493234]}, "properties": {"name": "\u4ed5\u4f73\u5546\u52a1\u9152\u5e97", "biz": "100105 \u4f4f\u5bbf\u670d\u52a1;\u5bbe\u9986\u9152\u5e97;\u7ecf\u6d4e\u578b\u8fde\u9501\u9152\u5e97", "pty": "1001"}}, {"type": "Feature", "geometry": {"type": "Point", "coordinates": [121.47662257586383, 31.234627964647157]}, "properties": {"name": "\u5982\u5bb6\u5feb\u6377\u9152\u5e97(\u4e0a\u6d77\u4eba\u6c11\u5e7f\u573a\u798f\u5dde\u8def\u4e0a\u6d77\u4e66\u57ce\u5e97)", "biz": "100105 \u4f4f\u5bbf\u670d\u52a1;\u5bbe\u9986\u9152\u5e97;\u7ecf\u6d4e\u578b\u8fde\u9501\u9152\u5e97", "pty": "1001"}}, {"type": "Feature", "geometry": {"type": "Point", "coordinates": [121.46322631128604, 31.206440758787487]}, "properties": {"name": "\u5409\u6cf0\u9152\u5e97(\u745e\u91d1\u5357\u8def\u5e97)", "biz": "100105 \u4f4f\u5bbf\u670d\u52a1;\u5bbe\u9986\u9152\u5e97;\u7ecf\u6d4e\u578b\u8fde\u9501\u9152\u5e97", "pty": "1001"}}, {"type": "Feature", "geometry": {"type": "Point", "coordinates": [121.47540803844085, 31.239379337241242]}, "properties": {"name": "\u90fd\u5e02\u5047\u65e5\u9152\u5e97(\u5927\u6c5f\u5357\u65c5\u5e97)", "biz": "100105 \u4f4f\u5bbf\u670d\u52a1;\u5bbe\u9986\u9152\u5e97;\u7ecf\u6d4e\u578b\u8fde\u9501\u9152\u5e97", "pty": "1001"}}, {"type": "Feature", "geometry": {"type": "Point", "coordinates": [121.45804317512052, 31.224873950675544]}, "properties": {"name": "\u5409\u6cf0\u9152\u5e97(\u4e0a\u6d77\u4eba\u6c11\u5e7f\u573a\u5e97)", "biz": "100105 \u4f4f\u5bbf\u670d\u52a1;\u5bbe\u9986\u9152\u5e97;\u7ecf\u6d4e\u578b\u8fde\u9501\u9152\u5e97", "pty": "1001"}}, {"type": "Feature", "geometry": {"type": "Point", "coordinates": [121.47556496251518, 31.23479388104434]}, "properties": {"name": "24K International Hotel", "biz": "100105 \u4f4f\u5bbf\u670d\u52a1;\u5bbe\u9986\u9152\u5e97;\u7ecf\u6d4e\u578b\u8fde\u9501\u9152\u5e97", "pty": "1001"}}, {"type": "Feature", "geometry": {"type": "Point", "coordinates": [121.4616261724397, 31.220952718201016]}, "properties": {"name": "\u5982\u5bb6\u7cbe\u9009\u9152\u5e97(\u4e0a\u6d77\u6dee\u6d77\u8def\u601d\u5357\u8def\u5e97)", "biz": "100105 \u4f4f\u5bbf\u670d\u52a1;\u5bbe\u9986\u9152\u5e97;\u7ecf\u6d4e\u578b\u8fde\u9501\u9152\u5e97", "pty": "1001"}}, {"type": "Feature", "geometry": {"type": "Point", "coordinates": [121.4900637885047, 31.222762879738706]}, "properties": {"name": "\u5e03\u4e01\u9152\u5e97(\u4e0a\u6d77\u5916\u6ee9\u8c6b\u56ed\u590d\u5174\u4e1c\u8def\u5e97)", "biz": "100105 \u4f4f\u5bbf\u670d\u52a1;\u5bbe\u9986\u9152\u5e97;\u7ecf\u6d4e\u578b\u8fde\u9501\u9152\u5e97", "pty": "1001"}}, {"type": "Feature", "geometry": {"type": "Point", "coordinates": [121.46342389973171, 31.20668714956169]}, "properties": {"name": "\u5e03\u4e01\u9152\u5e97(\u8087\u5609\u6d5c\u8def\u5e97)", "biz": "100105 \u4f4f\u5bbf\u670d\u52a1;\u5bbe\u9986\u9152\u5e97;\u7ecf\u6d4e\u578b\u8fde\u9501\u9152\u5e97", "pty": "1001"}}, {"type": "Feature", "geometry": {"type": "Point", "coordinates": [121.4918058301522, 31.213416525382154]}, "properties": {"name": "\u6613\u4f70\u8fde\u9501\u65c5\u5e97(\u4e0a\u6d77\u5357\u5916\u6ee9\u5e97)", "biz": "100105 \u4f4f\u5bbf\u670d\u52a1;\u5bbe\u9986\u9152\u5e97;\u7ecf\u6d4e\u578b\u8fde\u9501\u9152\u5e97", "pty": "1001"}}, {"type": "Feature", "geometry": {"type": "Point", "coordinates": [121.47330296978278, 31.239124527845412]}, "properties": {"name": "\u6d77\u53cb\u9152\u5e97(\u4e0a\u6d77\u5357\u4eac\u4e1c\u8def\u5e97)", "biz": "100105 \u4f4f\u5bbf\u670d\u52a1;\u5bbe\u9986\u9152\u5e97;\u7ecf\u6d4e\u578b\u8fde\u9501\u9152\u5e97", "pty": "1001"}}, {"type": "Feature", "geometry": {"type": "Point", "coordinates": [121.48753451811014, 31.213731632415904]}, "properties": {"name": "\u5409\u6cf0\u9152\u5e97(\u4e0a\u6d77\u9646\u5bb6\u6d5c\u8def\u8fce\u52cb\u8def\u5e97)", "biz": "100105 \u4f4f\u5bbf\u670d\u52a1;\u5bbe\u9986\u9152\u5e97;\u7ecf\u6d4e\u578b\u8fde\u9501\u9152\u5e97", "pty": "1001"}}, {"type": "Feature", "geometry": {"type": "Point", "coordinates": [121.48002207369122, 31.237068622177034]}, "properties": {"name": "\u6c49\u5ead\u9152\u5e97(\u4e0a\u6d77\u5916\u6ee9\u5357\u4eac\u4e1c\u8def\u4e2d\u5fc3\u5e97)", "biz": "100105 \u4f4f\u5bbf\u670d\u52a1;\u5bbe\u9986\u9152\u5e97;\u7ecf\u6d4e\u578b\u8fde\u9501\u9152\u5e97", "pty": "1001"}}, {"type": "Feature", "geometry": {"type": "Point", "coordinates": [121.48168894289485, 31.212881808520997]}, "properties": {"name": "\u6d77\u53cb\u9152\u5e97(\u4e0a\u6d77\u897f\u85cf\u5357\u8def\u5e97)", "biz": "100105 \u4f4f\u5bbf\u670d\u52a1;\u5bbe\u9986\u9152\u5e97;\u7ecf\u6d4e\u578b\u8fde\u9501\u9152\u5e97", "pty": "1001"}}, {"type": "Feature", "geometry": {"type": "Point", "coordinates": [121.46996087295474, 31.23960506644354]}, "properties": {"name": "99\u65c5\u9986\u8fde\u9501(\u4e0a\u6d77\u5357\u4eac\u8def\u6b65\u884c\u8857\u5e97)", "biz": "100105 \u4f4f\u5bbf\u670d\u52a1;\u5bbe\u9986\u9152\u5e97;\u7ecf\u6d4e\u578b\u8fde\u9501\u9152\u5e97", "pty": "1001"}}, {"type": "Feature", "geometry": {"type": "Point", "coordinates": [121.48135918408107, 31.220004454088695]}, "properties": {"name": "\u5e03\u4e01\u9152\u5e97(\u4e0a\u6d77\u57ce\u968d\u5e99\u8001\u897f\u95e8\u5730\u94c1\u7ad9\u5e97)", "biz": "100105 \u4f4f\u5bbf\u670d\u52a1;\u5bbe\u9986\u9152\u5e97;\u7ecf\u6d4e\u578b\u8fde\u9501\u9152\u5e97", "pty": "1001"}}, {"type": "Feature", "geometry": {"type": "Point", "coordinates": [121.47595302913162, 31.214321585893295]}, "properties": {"name": "99\u65c5\u9986(\u4e0a\u6d77\u5362\u6e7e\u6c38\u5e74\u8def\u5e97)", "biz": "100105 \u4f4f\u5bbf\u670d\u52a1;\u5bbe\u9986\u9152\u5e97;\u7ecf\u6d4e\u578b\u8fde\u9501\u9152\u5e97", "pty": "1001"}}, {"type": "Feature", "geometry": {"type": "Point", "coordinates": [121.48429337256154, 31.233103932689435]}, "properties": {"name": "99\u65c5\u9986(\u4e0a\u6d77\u5916\u6ee9\u4e00\u5e97)", "biz": "100105 \u4f4f\u5bbf\u670d\u52a1;\u5bbe\u9986\u9152\u5e97;\u7ecf\u6d4e\u578b\u8fde\u9501\u9152\u5e97", "pty": "1001"}}, {"type": "Feature", "geometry": {"type": "Point", "coordinates": [121.48035786680161, 31.21799249456034]}, "properties": {"name": "99\u65c5\u9986(\u4e0a\u6d77\u65b0\u5929\u5730\u5e97)", "biz": "100105 \u4f4f\u5bbf\u670d\u52a1;\u5bbe\u9986\u9152\u5e97;\u7ecf\u6d4e\u578b\u8fde\u9501\u9152\u5e97", "pty": "1001"}}, {"type": "Feature", "geometry": {"type": "Point", "coordinates": [121.46528879517275, 31.22901540698076]}, "properties": {"name": "\u83ab\u6cf0\u9152\u5e97(\u4eba\u6c11\u5e7f\u573a\u5e97)", "biz": "100105 \u4f4f\u5bbf\u670d\u52a1;\u5bbe\u9986\u9152\u5e97;\u7ecf\u6d4e\u578b\u8fde\u9501\u9152\u5e97", "pty": "1001"}}, {"type": "Feature", "geometry": {"type": "Point", "coordinates": [121.4868953504822, 31.22422875792124]}, "properties": {"name": "\u5168\u5b63\u9152\u5e97(\u4e0a\u6d77\u8c6b\u56ed\u5e97)", "biz": "100105 \u4f4f\u5bbf\u670d\u52a1;\u5bbe\u9986\u9152\u5e97;\u7ecf\u6d4e\u578b\u8fde\u9501\u9152\u5e97", "pty": "1001"}}, {"type": "Feature", "geometry": {"type": "Point", "coordinates": [121.47782898335251, 31.20795100635841]}, "properties": {"name": "\u6d77\u53cb\u9152\u5e97(\u4e0a\u6d77\u659c\u571f\u4e1c\u8def\u5e97)", "biz": "100105 \u4f4f\u5bbf\u670d\u52a1;\u5bbe\u9986\u9152\u5e97;\u7ecf\u6d4e\u578b\u8fde\u9501\u9152\u5e97", "pty": "1001"}}, {"type": "Feature", "geometry": {"type": "Point", "coordinates": [121.47763864626573, 31.227684086393992]}, "properties": {"name": "\u9526\u6c5f\u4e4b\u661f\u9152\u5e97(\u4e0a\u6d77\u4eba\u6c11\u5e7f\u573a\u6dee\u6d77\u4e1c\u8def\u5e97)", "biz": "100105 \u4f4f\u5bbf\u670d\u52a1;\u5bbe\u9986\u9152\u5e97;\u7ecf\u6d4e\u578b\u8fde\u9501\u9152\u5e97", "pty": "1001"}}, {"type": "Feature", "geometry": {"type": "Point", "coordinates": [121.48038574994655, 31.208765994339497]}, "properties": {"name": "\u683c\u6797\u8c6a\u6cf0\u9152\u5e97(\u659c\u571f\u4e1c\u8def\u5e97)", "biz": "100105 \u4f4f\u5bbf\u670d\u52a1;\u5bbe\u9986\u9152\u5e97;\u7ecf\u6d4e\u578b\u8fde\u9501\u9152\u5e97", "pty": "1001"}}, {"type": "Feature", "geometry": {"type": "Point", "coordinates": [121.48612510068023, 31.20672882399335]}, "properties": {"name": "99\u65c5\u9986(\u4e0a\u6d77\u897f\u85cf\u5357\u8def\u5730\u94c1\u7ad9\u5e97)", "biz": "100105 \u4f4f\u5bbf\u670d\u52a1;\u5bbe\u9986\u9152\u5e97;\u7ecf\u6d4e\u578b\u8fde\u9501\u9152\u5e97", "pty": "1001"}}, {"type": "Feature", "geometry": {"type": "Point", "coordinates": [121.46608940371529, 31.204723078823644]}, "properties": {"name": "\u5409\u6cf0\u7cbe\u54c1\u9152\u5e97(\u4e0a\u6d77\u6253\u6d66\u8def\u5e97)", "biz": "100105 \u4f4f\u5bbf\u670d\u52a1;\u5bbe\u9986\u9152\u5e97;\u7ecf\u6d4e\u578b\u8fde\u9501\u9152\u5e97", "pty": "1001"}}, {"type": "Feature", "geometry": {"type": "Point", "coordinates": [121.46474617067307, 31.239768034824287]}, "properties": {"name": "\u5982\u5bb6\u5feb\u6377\u9152\u5e97(\u4e0a\u6d77\u5357\u4eac\u8def\u6b65\u884c\u8857\u9ec4\u6cb3\u8def\u5e97)", "biz": "100105 \u4f4f\u5bbf\u670d\u52a1;\u5bbe\u9986\u9152\u5e97;\u7ecf\u6d4e\u578b\u8fde\u9501\u9152\u5e97", "pty": "1001"}}, {"type": "Feature", "geometry": {"type": "Point", "coordinates": [121.46820150759777, 31.200548760742524]}, "properties": {"name": "\u5982\u5bb6\u5feb\u6377\u9152\u5e97(\u4e0a\u6d77\u6253\u6d66\u6865\u5e97)", "biz": "100105 \u4f4f\u5bbf\u670d\u52a1;\u5bbe\u9986\u9152\u5e97;\u7ecf\u6d4e\u578b\u8fde\u9501\u9152\u5e97", "pty": "1001"}}, {"type": "Feature", "geometry": {"type": "Point", "coordinates": [121.48468597979006, 31.218763799955028]}, "properties": {"name": "\u6d77\u53cb\u9152\u5e97(\u4e0a\u6d77\u57ce\u968d\u5e99\u5e97)", "biz": "100105 \u4f4f\u5bbf\u670d\u52a1;\u5bbe\u9986\u9152\u5e97;\u7ecf\u6d4e\u578b\u8fde\u9501\u9152\u5e97", "pty": "1001"}}, {"type": "Feature", "geometry": {"type": "Point", "coordinates": [121.47646589294312, 31.23636472042659]}, "properties": {"name": "\u6d77\u53cb\u9152\u5e97(\u4e0a\u6d77\u5357\u4eac\u8def\u6b65\u884c\u8857\u5e97)", "biz": "100105 \u4f4f\u5bbf\u670d\u52a1;\u5bbe\u9986\u9152\u5e97;\u7ecf\u6d4e\u578b\u8fde\u9501\u9152\u5e97", "pty": "1001"}}, {"type": "Feature", "geometry": {"type": "Point", "coordinates": [121.48363868578917, 31.237541967130795]}, "properties": {"name": "\u6d77\u53cb\u9152\u5e97(\u4e0a\u6d77\u5916\u6ee9\u4e2d\u5fc3\u5e97)", "biz": "100105 \u4f4f\u5bbf\u670d\u52a1;\u5bbe\u9986\u9152\u5e97;\u7ecf\u6d4e\u578b\u8fde\u9501\u9152\u5e97", "pty": "1001"}}, {"type": "Feature", "geometry": {"type": "Point", "coordinates": [121.47851947795053, 31.230002538358896]}, "properties": {"name": "\u6c49\u5ead\u9152\u5e97(\u4e0a\u6d77\u5916\u6ee9\u91d1\u9675\u4e1c\u8def\u5e97)", "biz": "100105 \u4f4f\u5bbf\u670d\u52a1;\u5bbe\u9986\u9152\u5e97;\u7ecf\u6d4e\u578b\u8fde\u9501\u9152\u5e97", "pty": "1001"}}, {"type": "Feature", "geometry": {"type": "Point", "coordinates": [121.49397166728268, 31.224633694321728]}, "properties": {"name": "\u683c\u6797\u8054\u76df\u9152\u5e97(\u4e0a\u6d77\u8c6b\u56ed\u5e97)", "biz": "100105 \u4f4f\u5bbf\u670d\u52a1;\u5bbe\u9986\u9152\u5e97;\u7ecf\u6d4e\u578b\u8fde\u9501\u9152\u5e97", "pty": "1001"}}, {"type": "Feature", "geometry": {"type": "Point", "coordinates": [121.46790315366563, 31.205146714425787]}, "properties": {"name": "\u6c49\u5ead\u9152\u5e97(\u4e0a\u6d77\u7530\u5b50\u574a\u5e97)", "biz": "100105 \u4f4f\u5bbf\u670d\u52a1;\u5bbe\u9986\u9152\u5e97;\u7ecf\u6d4e\u578b\u8fde\u9501\u9152\u5e97", "pty": "1001"}}, {"type": "Feature", "geometry": {"type": "Point", "coordinates": [121.4770966409486, 31.229417727565796]}, "properties": {"name": "\u5982\u5bb6\u5feb\u6377\u9152\u5e97(\u4e0a\u6d77\u4eba\u6c11\u5e7f\u573a\u91d1\u9675\u4e1c\u8def\u5e97)", "biz": "100105 \u4f4f\u5bbf\u670d\u52a1;\u5bbe\u9986\u9152\u5e97;\u7ecf\u6d4e\u578b\u8fde\u9501\u9152\u5e97", "pty": "1001"}}, {"type": "Feature", "geometry": {"type": "Point", "coordinates": [121.4872594283263, 31.226793637467924]}, "properties": {"name": "\u5b9c\u5fc5\u601d\u9152\u5e97(\u4e0a\u6d77\u8c6b\u56ed\u5e97)", "biz": "100105 \u4f4f\u5bbf\u670d\u52a1;\u5bbe\u9986\u9152\u5e97;\u7ecf\u6d4e\u578b\u8fde\u9501\u9152\u5e97", "pty": "1001"}}, {"type": "Feature", "geometry": {"type": "Point", "coordinates": [121.46618551414431, 31.195314944743032]}, "properties": {"name": "\u9a7f\u5c45\u9152\u5e97(\u5f90\u6c47\u6ee8\u6c5f\u6253\u6d66\u6865\u5e97)", "biz": "100105 \u4f4f\u5bbf\u670d\u52a1;\u5bbe\u9986\u9152\u5e97;\u7ecf\u6d4e\u578b\u8fde\u9501\u9152\u5e97", "pty": "1001"}}, {"type": "Feature", "geometry": {"type": "Point", "coordinates": [121.46874935515547, 31.211315016953865]}, "properties": {"name": "\u5168\u5b63\u9152\u5e97(\u4e0a\u6d77\u65b0\u5929\u5730\u5e97)", "biz": "100105 \u4f4f\u5bbf\u670d\u52a1;\u5bbe\u9986\u9152\u5e97;\u7ecf\u6d4e\u578b\u8fde\u9501\u9152\u5e97", "pty": "1001"}}, {"type": "Feature", "geometry": {"type": "Point", "coordinates": [121.47294652826383, 31.242049202802548]}, "properties": {"name": "\u5982\u5bb6\u5feb\u6377\u9152\u5e97(\u4e0a\u6d77\u5357\u4eac\u8def\u6b65\u884c\u8857\u53a6\u95e8\u8def\u5e97)", "biz": "100105 \u4f4f\u5bbf\u670d\u52a1;\u5bbe\u9986\u9152\u5e97;\u7ecf\u6d4e\u578b\u8fde\u9501\u9152\u5e97", "pty": "1001"}}, {"type": "Feature", "geometry": {"type": "Point", "coordinates": [121.4572530453154, 31.211354450034882]}, "properties": {"name": "\u6c49\u5ead\u9152\u5e97(\u4e0a\u6d77\u9655\u897f\u5357\u8def\u5e97)", "biz": "100105 \u4f4f\u5bbf\u670d\u52a1;\u5bbe\u9986\u9152\u5e97;\u7ecf\u6d4e\u578b\u8fde\u9501\u9152\u5e97", "pty": "1001"}}, {"type": "Feature", "geometry": {"type": "Point", "coordinates": [121.47319870888894, 31.23809770496112]}, "properties": {"name": "\u5982\u5bb6\u5546\u65c5\u9152\u5e97(\u4e0a\u6d77\u5357\u4eac\u8def\u6b65\u884c\u8857\u5e97)", "biz": "100105 \u4f4f\u5bbf\u670d\u52a1;\u5bbe\u9986\u9152\u5e97;\u7ecf\u6d4e\u578b\u8fde\u9501\u9152\u5e97", "pty": "1001"}}, {"type": "Feature", "geometry": {"type": "Point", "coordinates": [121.4667785855578, 31.204795874357146]}, "properties": {"name": "\u6c49\u5ead\u9152\u5e97(\u4e0a\u6d77\u6253\u6d66\u6865\u5e97)", "biz": "100105 \u4f4f\u5bbf\u670d\u52a1;\u5bbe\u9986\u9152\u5e97;\u7ecf\u6d4e\u578b\u8fde\u9501\u9152\u5e97", "pty": "1001"}}, {"type": "Feature", "geometry": {"type": "Point", "coordinates": [121.48597021666801, 31.23418338720585]}, "properties": {"name": "\u6c49\u5ead\u9152\u5e97(\u4e0a\u6d77\u5916\u6ee9\u5ef6\u5b89\u4e1c\u8def\u5e97)", "biz": "100105 \u4f4f\u5bbf\u670d\u52a1;\u5bbe\u9986\u9152\u5e97;\u7ecf\u6d4e\u578b\u8fde\u9501\u9152\u5e97", "pty": "1001"}}, {"type": "Feature", "geometry": {"type": "Point", "coordinates": [121.48174649633056, 31.24395650836764]}, "properties": {"name": "\u6c49\u5ead\u9152\u5e97(\u4e0a\u6d77\u56db\u5ddd\u4e2d\u8def\u5e97)", "biz": "100105 \u4f4f\u5bbf\u670d\u52a1;\u5bbe\u9986\u9152\u5e97;\u7ecf\u6d4e\u578b\u8fde\u9501\u9152\u5e97", "pty": "1001"}}, {"type": "Feature", "geometry": {"type": "Point", "coordinates": [121.48525077615814, 31.20937595785761]}, "properties": {"name": "\u6c49\u5ead\u9152\u5e97(\u4e0a\u6d77\u659c\u571f\u4e1c\u8def\u5e97)", "biz": "100105 \u4f4f\u5bbf\u670d\u52a1;\u5bbe\u9986\u9152\u5e97;\u7ecf\u6d4e\u578b\u8fde\u9501\u9152\u5e97", "pty": "1001"}}, {"type": "Feature", "geometry": {"type": "Point", "coordinates": [121.4801398413767, 31.20940097420062]}, "properties": {"name": "7\u5929\u9152\u5e97(\u4e0a\u6d77\u9646\u5bb6\u6d5c\u5730\u94c1\u7ad9\u4e16\u535a\u5e97)", "biz": "100105 \u4f4f\u5bbf\u670d\u52a1;\u5bbe\u9986\u9152\u5e97;\u7ecf\u6d4e\u578b\u8fde\u9501\u9152\u5e97", "pty": "1001"}}, {"type": "Feature", "geometry": {"type": "Point", "coordinates": [121.47962723577346, 31.24255697983536]}, "properties": {"name": "\u6021\u83b1\u9152\u5e97(\u4e0a\u6d77\u5357\u4eac\u4e1c\u8def\u5730\u94c1\u7ad9\u5e97)", "biz": "100105 \u4f4f\u5bbf\u670d\u52a1;\u5bbe\u9986\u9152\u5e97;\u7ecf\u6d4e\u578b\u8fde\u9501\u9152\u5e97", "pty": "1001"}}, {"type": "Feature", "geometry": {"type": "Point", "coordinates": [121.47332892460275, 31.205579399042257]}, "properties": {"name": "\u9f99\u5efa\u5927\u9152\u5e97", "biz": "100105 \u4f4f\u5bbf\u670d\u52a1;\u5bbe\u9986\u9152\u5e97;\u7ecf\u6d4e\u578b\u8fde\u9501\u9152\u5e97", "pty": "1001"}}, {"type": "Feature", "geometry": {"type": "Point", "coordinates": [121.48758015712767, 31.219894834443366]}, "properties": {"name": "\u6d77\u53cb\u9152\u5e97(\u4e0a\u6d77\u6cb3\u5357\u5357\u8def\u5e97)", "biz": "100105 \u4f4f\u5bbf\u670d\u52a1;\u5bbe\u9986\u9152\u5e97;\u7ecf\u6d4e\u578b\u8fde\u9501\u9152\u5e97", "pty": "1001"}}, {"type": "Feature", "geometry": {"type": "Point", "coordinates": [121.47059815085112, 31.202333409930926]}, "properties": {"name": "\u6c49\u5ead\u9152\u5e97(\u4e0a\u6d77\u9c81\u73ed\u8def\u5e97)", "biz": "100105 \u4f4f\u5bbf\u670d\u52a1;\u5bbe\u9986\u9152\u5e97;\u7ecf\u6d4e\u578b\u8fde\u9501\u9152\u5e97", "pty": "1001"}}, {"type": "Feature", "geometry": {"type": "Point", "coordinates": [121.48072094245525, 31.20845711755079]}, "properties": {"name": "\u5409\u6cf0\u9152\u5e97(\u5236\u9020\u5c40\u8def\u5e97)", "biz": "100105 \u4f4f\u5bbf\u670d\u52a1;\u5bbe\u9986\u9152\u5e97;\u7ecf\u6d4e\u578b\u8fde\u9501\u9152\u5e97", "pty": "1001"}}, {"type": "Feature", "geometry": {"type": "Point", "coordinates": [121.47366827733322, 31.238144997674265]}, "properties": {"name": "\u6c49\u5ead\u9152\u5e97(\u4e0a\u6d77\u5357\u4eac\u8def\u6b65\u884c\u8857\u4e2d\u5fc3\u5e97)", "biz": "100105 \u4f4f\u5bbf\u670d\u52a1;\u5bbe\u9986\u9152\u5e97;\u7ecf\u6d4e\u578b\u8fde\u9501\u9152\u5e97", "pty": "1001"}}, {"type": "Feature", "geometry": {"type": "Point", "coordinates": [121.47480091469798, 31.20507977811173]}, "properties": {"name": "\u5982\u5bb6\u5feb\u6377\u9152\u5e97(\u4e0a\u6d77\u5f90\u5bb6\u6c47\u8def\u8499\u81ea\u8def\u5e97)", "biz": "100105 \u4f4f\u5bbf\u670d\u52a1;\u5bbe\u9986\u9152\u5e97;\u7ecf\u6d4e\u578b\u8fde\u9501\u9152\u5e97", "pty": "1001"}}, {"type": "Feature", "geometry": {"type": "Point", "coordinates": [121.47765365668769, 31.239878510176993]}, "properties": {"name": "\u5982\u5bb6\u5feb\u6377\u9152\u5e97(\u5357\u4eac\u8def\u6b65\u884c\u8857\u5730\u94c1\u5e97)", "biz": "100105 \u4f4f\u5bbf\u670d\u52a1;\u5bbe\u9986\u9152\u5e97;\u7ecf\u6d4e\u578b\u8fde\u9501\u9152\u5e97", "pty": "1001"}}, {"type": "Feature", "geometry": {"type": "Point", "coordinates": [121.48756779569175, 31.223630035986492]}, "properties": {"name": "\u683c\u6797\u8054\u76df\u9152\u5e97(\u4e0a\u6d77\u57ce\u968d\u5e99\u5916\u6ee9\u5e97)", "biz": "100105 \u4f4f\u5bbf\u670d\u52a1;\u5bbe\u9986\u9152\u5e97;\u7ecf\u6d4e\u578b\u8fde\u9501\u9152\u5e97", "pty": "1001"}}, {"type": "Feature", "geometry": {"type": "Point", "coordinates": [121.47798494274917, 31.214709205546704]}, "properties": {"name": "\u5e03\u4e01\u9152\u5e97(\u65b0\u5929\u5730\u7ea2\u623f\u5b50\u5e97)", "biz": "100105 \u4f4f\u5bbf\u670d\u52a1;\u5bbe\u9986\u9152\u5e97;\u7ecf\u6d4e\u578b\u8fde\u9501\u9152\u5e97", "pty": "1001"}}, {"type": "Feature", "geometry": {"type": "Point", "coordinates": [121.47332791850435, 31.205611380700024]}, "properties": {"name": "\u9526\u6c5f\u4e4b\u661f\u9152\u5e97(\u767d\u7389\u5170\u4e0a\u6d77\u5f90\u5bb6\u6c47\u5e97)", "biz": "100105 \u4f4f\u5bbf\u670d\u52a1;\u5bbe\u9986\u9152\u5e97;\u7ecf\u6d4e\u578b\u8fde\u9501\u9152\u5e97", "pty": "1001"}}, {"type": "Feature", "geometry": {"type": "Point", "coordinates": [121.46325425695345, 31.231377010324394]}, "properties": {"name": "\u6d77\u53cb\u9152\u5e97(\u6c5f\u9634\u8def\u5e97)", "biz": "100105 \u4f4f\u5bbf\u670d\u52a1;\u5bbe\u9986\u9152\u5e97;\u7ecf\u6d4e\u578b\u8fde\u9501\u9152\u5e97", "pty": "1001"}}, {"type": "Feature", "geometry": {"type": "Point", "coordinates": [121.48713118935515, 31.22423345568513]}, "properties": {"name": "\u548c\u9890\u9152\u5e97", "biz": "100105 \u4f4f\u5bbf\u670d\u52a1;\u5bbe\u9986\u9152\u5e97;\u7ecf\u6d4e\u578b\u8fde\u9501\u9152\u5e97", "pty": "1001"}}, {"type": "Feature", "geometry": {"type": "Point", "coordinates": [121.4783856403388, 31.210970149909592]}, "properties": {"name": "\u6d77\u53cb\u9152\u5e97(\u4e0a\u6d77\u5236\u9020\u5c40\u8def\u5e97)", "biz": "100105 \u4f4f\u5bbf\u670d\u52a1;\u5bbe\u9986\u9152\u5e97;\u7ecf\u6d4e\u578b\u8fde\u9501\u9152\u5e97", "pty": "1001"}}, {"type": "Feature", "geometry": {"type": "Point", "coordinates": [121.4810607475965, 31.236372958849618]}, "properties": {"name": "\u5bcc\u9a7f\u65f6\u5c1a\u9152\u5e97(\u5357\u4eac\u4e1c\u8def\u5e97)", "biz": "100105 \u4f4f\u5bbf\u670d\u52a1;\u5bbe\u9986\u9152\u5e97;\u7ecf\u6d4e\u578b\u8fde\u9501\u9152\u5e97", "pty": "1001"}}, {"type": "Feature", "geometry": {"type": "Point", "coordinates": [121.47243421231336, 31.23747585789096]}, "properties": {"name": "\u5168\u5b63\u9152\u5e97(\u4e0a\u6d77\u5916\u6ee9\u5357\u4eac\u4e1c\u8def\u6b65\u884c\u8857\u5e97)", "biz": "100105 \u4f4f\u5bbf\u670d\u52a1;\u5bbe\u9986\u9152\u5e97;\u7ecf\u6d4e\u578b\u8fde\u9501\u9152\u5e97", "pty": "1001"}}, {"type": "Feature", "geometry": {"type": "Point", "coordinates": [121.46571019208855, 31.228202895551593]}, "properties": {"name": "\u6c49\u5ead\u9152\u5e97(\u4e0a\u6d77\u4eba\u6c11\u5e7f\u573a\u5927\u6cbd\u8def\u5e97)", "biz": "100105 \u4f4f\u5bbf\u670d\u52a1;\u5bbe\u9986\u9152\u5e97;\u7ecf\u6d4e\u578b\u8fde\u9501\u9152\u5e97", "pty": "1001"}}, {"type": "Feature", "geometry": {"type": "Point", "coordinates": [121.48058972663125, 31.217366465578376]}, "properties": {"name": "\u6d77\u53cb\u9152\u5e97(\u4e0a\u6d77\u8001\u897f\u95e8\u5730\u94c1\u7ad9\u5e97)", "biz": "100105 \u4f4f\u5bbf\u670d\u52a1;\u5bbe\u9986\u9152\u5e97;\u7ecf\u6d4e\u578b\u8fde\u9501\u9152\u5e97", "pty": "1001"}}, {"type": "Feature", "geometry": {"type": "Point", "coordinates": [121.47684020227645, 31.235995957135927]}, "properties": {"name": "\u6c49\u5ead\u9152\u5e97(\u4e0a\u6d77\u5357\u4eac\u4e1c\u8def\u4e66\u57ce\u5e97)", "biz": "100105 \u4f4f\u5bbf\u670d\u52a1;\u5bbe\u9986\u9152\u5e97;\u7ecf\u6d4e\u578b\u8fde\u9501\u9152\u5e97", "pty": "1001"}}, {"type": "Feature", "geometry": {"type": "Point", "coordinates": [121.47301110177249, 31.23786628669604]}, "properties": {"name": "\u9526\u6c5f\u4e4b\u661f\u9152\u5e97(\u98ce\u5c1a\u5e97)", "biz": "100105 \u4f4f\u5bbf\u670d\u52a1;\u5bbe\u9986\u9152\u5e97;\u7ecf\u6d4e\u578b\u8fde\u9501\u9152\u5e97", "pty": "1001"}}, {"type": "Feature", "geometry": {"type": "Point", "coordinates": [121.48412977702921, 31.209814440024523]}, "properties": {"name": "\u5982\u5bb6\u5feb\u6377\u4e0a\u6d77\u4e16\u535a\u5357\u5916\u6ee9\u897f\u85cf\u5357\u8def\u5730\u94c1\u7ad9\u5e97", "biz": "100105 \u4f4f\u5bbf\u670d\u52a1;\u5bbe\u9986\u9152\u5e97;\u7ecf\u6d4e\u578b\u8fde\u9501\u9152\u5e97", "pty": "1001"}}, {"type": "Feature", "geometry": {"type": "Point", "coordinates": [121.4754846898197, 31.23479865132235]}, "properties": {"name": "\u4e0a\u6d77\u91d1\u51a0\u9152\u5e97(\u798f\u5dde\u8def\u5e97)", "biz": "100105 \u4f4f\u5bbf\u670d\u52a1;\u5bbe\u9986\u9152\u5e97;\u7ecf\u6d4e\u578b\u8fde\u9501\u9152\u5e97", "pty": "1001"}}, {"type": "Feature", "geometry": {"type": "Point", "coordinates": [121.40520196193182, 31.16559109585855]}, "properties": {"name": "\u9526\u6c5f\u4e4b\u661f\u9152\u5e97(\u4e0a\u6d77\u5149\u5927\u4f1a\u5c55\u4e2d\u5fc3\u5e97)", "biz": "100105 \u4f4f\u5bbf\u670d\u52a1;\u5bbe\u9986\u9152\u5e97;\u7ecf\u6d4e\u578b\u8fde\u9501\u9152\u5e97", "pty": "1001"}}, {"type": "Feature", "geometry": {"type": "Point", "coordinates": [121.44174564981671, 31.213939579820348]}, "properties": {"name": "\u6d77\u53cb\u9152\u5e97(\u4e0a\u6d77\u6dee\u6d77\u4e2d\u8def\u5e97)", "biz": "100105 \u4f4f\u5bbf\u670d\u52a1;\u5bbe\u9986\u9152\u5e97;\u7ecf\u6d4e\u578b\u8fde\u9501\u9152\u5e97", "pty": "1001"}}, {"type": "Feature", "geometry": {"type": "Point", "coordinates": [121.44499773650392, 31.17364089516143]}, "properties": {"name": "7\u5929\u9152\u5e97(\u4e0a\u6d77\u5f90\u5bb6\u6c47\u9f99\u6f15\u8def\u5730\u94c1\u7ad9\u5e97)", "biz": "100105 \u4f4f\u5bbf\u670d\u52a1;\u5bbe\u9986\u9152\u5e97;\u7ecf\u6d4e\u578b\u8fde\u9501\u9152\u5e97", "pty": "1001"}}, {"type": "Feature", "geometry": {"type": "Point", "coordinates": [121.42741648381171, 31.19656188411285]}, "properties": {"name": "\u9526\u6c5f\u4e4b\u661f\u9152\u5e97(\u4e0a\u6d77\u5f90\u5bb6\u6c47\u4ea4\u5927\u5e97)", "biz": "100105 \u4f4f\u5bbf\u670d\u52a1;\u5bbe\u9986\u9152\u5e97;\u7ecf\u6d4e\u578b\u8fde\u9501\u9152\u5e97", "pty": "1001"}}, {"type": "Feature", "geometry": {"type": "Point", "coordinates": [121.46155177594554, 31.199651785331962]}, "properties": {"name": "7\u5929\u9152\u5e97(\u4e0a\u6d77\u5927\u6728\u6865\u5730\u94c1\u7ad9\u5e97)", "biz": "100105 \u4f4f\u5bbf\u670d\u52a1;\u5bbe\u9986\u9152\u5e97;\u7ecf\u6d4e\u578b\u8fde\u9501\u9152\u5e97", "pty": "1001"}}, {"type": "Feature", "geometry": {"type": "Point", "coordinates": [121.41449053570302, 31.171780937971334]}, "properties": {"name": "\u6c49\u5ead\u00b7\u6d77\u53cb\u9152\u5e97", "biz": "100105 \u4f4f\u5bbf\u670d\u52a1;\u5bbe\u9986\u9152\u5e97;\u7ecf\u6d4e\u578b\u8fde\u9501\u9152\u5e97", "pty": "1001"}}, {"type": "Feature", "geometry": {"type": "Point", "coordinates": [121.41658663667131, 31.159274072160663]}, "properties": {"name": "\u5e03\u4e01\u9152\u5e97(\u4e0a\u6d77\u5357\u7ad9\u4e0a\u5e08\u5927\u5e97)", "biz": "100105 \u4f4f\u5bbf\u670d\u52a1;\u5bbe\u9986\u9152\u5e97;\u7ecf\u6d4e\u578b\u8fde\u9501\u9152\u5e97", "pty": "1001"}}, {"type": "Feature", "geometry": {"type": "Point", "coordinates": [121.44143432620336, 31.128475721649206]}, "properties": {"name": "\u683c\u6797\u8c6a\u6cf0\u9152\u5e97(\u534e\u53d1\u8def\u5e97)", "biz": "100105 \u4f4f\u5bbf\u670d\u52a1;\u5bbe\u9986\u9152\u5e97;\u7ecf\u6d4e\u578b\u8fde\u9501\u9152\u5e97", "pty": "1001"}}, {"type": "Feature", "geometry": {"type": "Point", "coordinates": [121.44044519285484, 31.185559057551412]}, "properties": {"name": "\u9526\u6c5f\u4e4b\u661f\u9152\u5e97(\u4e0a\u6d77\u5f90\u5bb6\u6c47\u4f53\u80b2\u573a\u5e97)", "biz": "100105 \u4f4f\u5bbf\u670d\u52a1;\u5bbe\u9986\u9152\u5e97;\u7ecf\u6d4e\u578b\u8fde\u9501\u9152\u5e97", "pty": "1001"}}, {"type": "Feature", "geometry": {"type": "Point", "coordinates": [121.43873615757374, 31.17778287929401]}, "properties": {"name": "\u795e\u821f\u5546\u65c5\u9152\u5e97(\u4e0a\u6d77\u5f90\u6c47\u5e97)", "biz": "100105 \u4f4f\u5bbf\u670d\u52a1;\u5bbe\u9986\u9152\u5e97;\u7ecf\u6d4e\u578b\u8fde\u9501\u9152\u5e97", "pty": "1001"}}, {"type": "Feature", "geometry": {"type": "Point", "coordinates": [121.41098611979622, 31.189827464175107]}, "properties": {"name": "\u987a\u98ce\u5927\u9152\u5e97(\u5434\u4e2d\u5e97)", "biz": "100105 \u4f4f\u5bbf\u670d\u52a1;\u5bbe\u9986\u9152\u5e97;\u7ecf\u6d4e\u578b\u8fde\u9501\u9152\u5e97", "pty": "1001"}}, {"type": "Feature", "geometry": {"type": "Point", "coordinates": [121.45297043306434, 31.19478744837604]}, "properties": {"name": "\u5982\u5bb6\u5feb\u6377\u9152\u5e97(\u67ab\u6797\u8def\u4e2d\u56fd\u79d1\u5b66\u9662\u5e97)", "biz": "100105 \u4f4f\u5bbf\u670d\u52a1;\u5bbe\u9986\u9152\u5e97;\u7ecf\u6d4e\u578b\u8fde\u9501\u9152\u5e97", "pty": "1001"}}, {"type": "Feature", "geometry": {"type": "Point", "coordinates": [121.44021374552524, 31.18483499422463]}, "properties": {"name": "\u9526\u6c5f\u4e4b\u661f\u9152\u5e97(\u5929\u94a5\u6865\u8def\u5e97)", "biz": "100105 \u4f4f\u5bbf\u670d\u52a1;\u5bbe\u9986\u9152\u5e97;\u7ecf\u6d4e\u578b\u8fde\u9501\u9152\u5e97", "pty": "1001"}}, {"type": "Feature", "geometry": {"type": "Point", "coordinates": [121.41603428874383, 31.191436228112398]}, "properties": {"name": "\u5982\u5bb6\u5feb\u6377\u9152\u5e97(\u4e0a\u6d77\u5f90\u5bb6\u6c47\u4e2d\u5c71\u897f\u8def\u5e97)", "biz": "100105 \u4f4f\u5bbf\u670d\u52a1;\u5bbe\u9986\u9152\u5e97;\u7ecf\u6d4e\u578b\u8fde\u9501\u9152\u5e97", "pty": "1001"}}, {"type": "Feature", "geometry": {"type": "Point", "coordinates": [121.44174092822564, 31.175880376695897]}, "properties": {"name": "\u6c49\u5ead\u9152\u5e97(\u4e0a\u6d77\u4e07\u4f53\u9986\u5357\u5e97)", "biz": "100105 \u4f4f\u5bbf\u670d\u52a1;\u5bbe\u9986\u9152\u5e97;\u7ecf\u6d4e\u578b\u8fde\u9501\u9152\u5e97", "pty": "1001"}}, {"type": "Feature", "geometry": {"type": "Point", "coordinates": [121.45366844606247, 31.205275912340124]}, "properties": {"name": "\u6c49\u5ead\u9152\u5e97(\u4e0a\u6d77\u8944\u9633\u8def\u5e97)", "biz": "100105 \u4f4f\u5bbf\u670d\u52a1;\u5bbe\u9986\u9152\u5e97;\u7ecf\u6d4e\u578b\u8fde\u9501\u9152\u5e97", "pty": "1001"}}, {"type": "Feature", "geometry": {"type": "Point", "coordinates": [121.42322027699787, 31.139219238833398]}, "properties": {"name": "\u6c49\u5ead\u9152\u5e97(\u4e0a\u6d77\u5357\u7ad9\u5e97)", "biz": "100105 \u4f4f\u5bbf\u670d\u52a1;\u5bbe\u9986\u9152\u5e97;\u7ecf\u6d4e\u578b\u8fde\u9501\u9152\u5e97", "pty": "1001"}}, {"type": "Feature", "geometry": {"type": "Point", "coordinates": [121.42380487068814, 31.19931104800008]}, "properties": {"name": "\u5b9c\u5fc5\u601d\u9152\u5e97(\u4e0a\u6d77\u5f90\u5bb6\u6c47\u5e97)", "biz": "100105 \u4f4f\u5bbf\u670d\u52a1;\u5bbe\u9986\u9152\u5e97;\u7ecf\u6d4e\u578b\u8fde\u9501\u9152\u5e97", "pty": "1001"}}, {"type": "Feature", "geometry": {"type": "Point", "coordinates": [121.42228380372583, 31.164803731556976]}, "properties": {"name": "7\u5929\u9152\u5e97(\u4e0a\u6d77\u5149\u5927\u4f1a\u5c55\u4e2d\u5fc3\u5e97)", "biz": "100105 \u4f4f\u5bbf\u670d\u52a1;\u5bbe\u9986\u9152\u5e97;\u7ecf\u6d4e\u578b\u8fde\u9501\u9152\u5e97", "pty": "1001"}}, {"type": "Feature", "geometry": {"type": "Point", "coordinates": [121.46007963757228, 31.19629972844125]}, "properties": {"name": "\u6d77\u53cb\u9152\u5e97(\u4e0a\u6d77\u5927\u6728\u6865\u5e97)", "biz": "100105 \u4f4f\u5bbf\u670d\u52a1;\u5bbe\u9986\u9152\u5e97;\u7ecf\u6d4e\u578b\u8fde\u9501\u9152\u5e97", "pty": "1001"}}, {"type": "Feature", "geometry": {"type": "Point", "coordinates": [121.44802837084676, 31.137184264319142]}, "properties": {"name": "\u83ab\u6cf0168\u65c5\u5e97(\u4e0a\u6d77\u9f99\u5434\u8def\u5e97)", "biz": "100105 \u4f4f\u5bbf\u670d\u52a1;\u5bbe\u9986\u9152\u5e97;\u7ecf\u6d4e\u578b\u8fde\u9501\u9152\u5e97", "pty": "1001"}}, {"type": "Feature", "geometry": {"type": "Point", "coordinates": [121.44232586530165, 31.19204636266904]}, "properties": {"name": "\u9526\u6c5f\u4e4b\u661f\u9152\u5e97(\u4e0a\u6d77\u5f90\u5bb6\u6c47\u5b9b\u5e73\u5357\u8def\u5e97)", "biz": "100105 \u4f4f\u5bbf\u670d\u52a1;\u5bbe\u9986\u9152\u5e97;\u7ecf\u6d4e\u578b\u8fde\u9501\u9152\u5e97", "pty": "1001"}}, {"type": "Feature", "geometry": {"type": "Point", "coordinates": [121.42096791436009, 31.16714111928863]}, "properties": {"name": "\u5168\u5b63\u9152\u5e97(\u4e0a\u6d77\u5149\u5927\u67f3\u5dde\u8def\u5e97)", "biz": "100105 \u4f4f\u5bbf\u670d\u52a1;\u5bbe\u9986\u9152\u5e97;\u7ecf\u6d4e\u578b\u8fde\u9501\u9152\u5e97", "pty": "1001"}}, {"type": "Feature", "geometry": {"type": "Point", "coordinates": [121.43086553074339, 31.1700480334871]}, "properties": {"name": "\u6c49\u5ead\u9152\u5e97(\u4e0a\u6d77\u6f15\u5b9d\u8def\u5730\u94c1\u7ad9\u5e97)", "biz": "100105 \u4f4f\u5bbf\u670d\u52a1;\u5bbe\u9986\u9152\u5e97;\u7ecf\u6d4e\u578b\u8fde\u9501\u9152\u5e97", "pty": "1001"}}, {"type": "Feature", "geometry": {"type": "Point", "coordinates": [121.42512908984538, 31.184031218956424]}, "properties": {"name": "\u6c49\u5ead\u9152\u5e97(\u4e0a\u6d77\u4e07\u4f53\u9986\u897f\u5e97)", "biz": "100105 \u4f4f\u5bbf\u670d\u52a1;\u5bbe\u9986\u9152\u5e97;\u7ecf\u6d4e\u578b\u8fde\u9501\u9152\u5e97", "pty": "1001"}}, {"type": "Feature", "geometry": {"type": "Point", "coordinates": [121.41172517548759, 31.17246668417379]}, "properties": {"name": "\u5e03\u4e01\u9152\u5e97(\u6842\u6797\u8def\u5e97)", "biz": "100105 \u4f4f\u5bbf\u670d\u52a1;\u5bbe\u9986\u9152\u5e97;\u7ecf\u6d4e\u578b\u8fde\u9501\u9152\u5e97", "pty": "1001"}}, {"type": "Feature", "geometry": {"type": "Point", "coordinates": [121.40858751400202, 31.190224974309157]}, "properties": {"name": "\u6854\u5b50\u9152\u5e97(\u8679\u6865\u53e4\u5317\u5e97)", "biz": "100105 \u4f4f\u5bbf\u670d\u52a1;\u5bbe\u9986\u9152\u5e97;\u7ecf\u6d4e\u578b\u8fde\u9501\u9152\u5e97", "pty": "1001"}}, {"type": "Feature", "geometry": {"type": "Point", "coordinates": [121.42112593155365, 31.157697185334]}, "properties": {"name": "\u6d77\u53cb\u9152\u5e97(\u4e0a\u6d77\u5357\u7ad9\u5e97)", "biz": "100105 \u4f4f\u5bbf\u670d\u52a1;\u5bbe\u9986\u9152\u5e97;\u7ecf\u6d4e\u578b\u8fde\u9501\u9152\u5e97", "pty": "1001"}}, {"type": "Feature", "geometry": {"type": "Point", "coordinates": [121.43582359789245, 31.137921660625278]}, "properties": {"name": "\u683c\u6797\u8c6a\u6cf0\u8d1d\u58f3\u9152\u5e97(\u5357\u7ad9\u5e97)", "biz": "100105 \u4f4f\u5bbf\u670d\u52a1;\u5bbe\u9986\u9152\u5e97;\u7ecf\u6d4e\u578b\u8fde\u9501\u9152\u5e97", "pty": "1001"}}, {"type": "Feature", "geometry": {"type": "Point", "coordinates": [121.45492528341346, 31.201309772707177]}, "properties": {"name": "\u5982\u5bb6\u5546\u65c5\u9152\u5e97(\u4e0a\u6d77\u5927\u6728\u6865\u8def\u5e97)", "biz": "100105 \u4f4f\u5bbf\u670d\u52a1;\u5bbe\u9986\u9152\u5e97;\u7ecf\u6d4e\u578b\u8fde\u9501\u9152\u5e97", "pty": "1001"}}, {"type": "Feature", "geometry": {"type": "Point", "coordinates": [121.44234280353953, 31.19321081746485]}, "properties": {"name": "\u6d77\u53cb\u9152\u5e97(\u4e0a\u6d77\u5f90\u5bb6\u6c47\u5e97)", "biz": "100105 \u4f4f\u5bbf\u670d\u52a1;\u5bbe\u9986\u9152\u5e97;\u7ecf\u6d4e\u578b\u8fde\u9501\u9152\u5e97", "pty": "1001"}}, {"type": "Feature", "geometry": {"type": "Point", "coordinates": [121.42863915190057, 31.165436251857376]}, "properties": {"name": "\u6d77\u53cb\u9152\u5e97(\u4e0a\u6d77\u5149\u5927\u4f1a\u5c55\u4e2d\u5fc3\u5e97)", "biz": "100105 \u4f4f\u5bbf\u670d\u52a1;\u5bbe\u9986\u9152\u5e97;\u7ecf\u6d4e\u578b\u8fde\u9501\u9152\u5e97", "pty": "1001"}}, {"type": "Feature", "geometry": {"type": "Point", "coordinates": [121.45482859245332, 31.194568861170453]}, "properties": {"name": "\u5409\u6cf0\u7cbe\u54c1\u9152\u5e97(\u4e0a\u6d77\u96f6\u9675\u8def\u4e07\u4f53\u9986\u5e97)", "biz": "100105 \u4f4f\u5bbf\u670d\u52a1;\u5bbe\u9986\u9152\u5e97;\u7ecf\u6d4e\u578b\u8fde\u9501\u9152\u5e97", "pty": "1001"}}, {"type": "Feature", "geometry": {"type": "Point", "coordinates": [121.45531967636748, 31.209629661119312]}, "properties": {"name": "\u6c49\u5ead\u9152\u5e97(\u4e0a\u6d77\u5609\u5584\u8def\u5e97)", "biz": "100105 \u4f4f\u5bbf\u670d\u52a1;\u5bbe\u9986\u9152\u5e97;\u7ecf\u6d4e\u578b\u8fde\u9501\u9152\u5e97", "pty": "1001"}}, {"type": "Feature", "geometry": {"type": "Point", "coordinates": [121.45922463132568, 31.201746929001658]}, "properties": {"name": "\u6854\u5b50\u9152\u5e97(\u659c\u571f\u8def\u5e97)", "biz": "100105 \u4f4f\u5bbf\u670d\u52a1;\u5bbe\u9986\u9152\u5e97;\u7ecf\u6d4e\u578b\u8fde\u9501\u9152\u5e97", "pty": "1001"}}, {"type": "Feature", "geometry": {"type": "Point", "coordinates": [121.42793611242095, 31.187331160105114]}, "properties": {"name": "\u4e0a\u6d77\u5f90\u5bb6\u6c47\u4e9a\u6735\u00b7\u77e5\u4e4e\u9152\u5e97", "biz": "100105 \u4f4f\u5bbf\u670d\u52a1;\u5bbe\u9986\u9152\u5e97;\u7ecf\u6d4e\u578b\u8fde\u9501\u9152\u5e97", "pty": "1001"}}, {"type": "Feature", "geometry": {"type": "Point", "coordinates": [121.44688483996538, 31.19124389196645]}, "properties": {"name": "\u901f8\u9152\u5e97(\u4e0a\u6d77\u5f90\u5bb6\u6c47\u5e97)", "biz": "100105 \u4f4f\u5bbf\u670d\u52a1;\u5bbe\u9986\u9152\u5e97;\u7ecf\u6d4e\u578b\u8fde\u9501\u9152\u5e97", "pty": "1001"}}, {"type": "Feature", "geometry": {"type": "Point", "coordinates": [121.40972319998039, 31.144442142528558]}, "properties": {"name": "\u83ab\u6cf0168\u65c5\u5e97(\u4e0a\u6d77\u5357\u7ad9\u9526\u6c5f\u4e50\u56ed\u5730\u94c1\u7ad9\u5e97)", "biz": "100105 \u4f4f\u5bbf\u670d\u52a1;\u5bbe\u9986\u9152\u5e97;\u7ecf\u6d4e\u578b\u8fde\u9501\u9152\u5e97", "pty": "1001"}}, {"type": "Feature", "geometry": {"type": "Point", "coordinates": [121.42043693325176, 31.17089864161932]}, "properties": {"name": "\u683c\u6797\u8c6a\u6cf0\u9152\u5e97(\u4e0a\u6d77\u5e02\u5149\u5927\u4f1a\u5c55)", "biz": "100105 \u4f4f\u5bbf\u670d\u52a1;\u5bbe\u9986\u9152\u5e97;\u7ecf\u6d4e\u578b\u8fde\u9501\u9152\u5e97", "pty": "1001"}}, {"type": "Feature", "geometry": {"type": "Point", "coordinates": [121.43430438555836, 31.18694074891837]}, "properties": {"name": "\u6c49\u5ead\u9152\u5e97(\u4e0a\u6d77\u4e07\u4f53\u9986\u5e97)", "biz": "100105 \u4f4f\u5bbf\u670d\u52a1;\u5bbe\u9986\u9152\u5e97;\u7ecf\u6d4e\u578b\u8fde\u9501\u9152\u5e97", "pty": "1001"}}, {"type": "Feature", "geometry": {"type": "Point", "coordinates": [121.42375703730433, 31.196624313823893]}, "properties": {"name": "\u6c49\u5ead\u9152\u5e97(\u4e0a\u6d77\u4ea4\u5927\u5e97)", "biz": "100105 \u4f4f\u5bbf\u670d\u52a1;\u5bbe\u9986\u9152\u5e97;\u7ecf\u6d4e\u578b\u8fde\u9501\u9152\u5e97", "pty": "1001"}}, {"type": "Feature", "geometry": {"type": "Point", "coordinates": [121.42026670124186, 31.171188320872997]}, "properties": {"name": "\u5982\u5bb6\u5feb\u6377\u9152\u5e97(\u4e0a\u6d77\u67f3\u5dde\u8def\u5149\u5927\u4f1a\u5c55\u4e2d\u5fc3\u5e97)", "biz": "100105 \u4f4f\u5bbf\u670d\u52a1;\u5bbe\u9986\u9152\u5e97;\u7ecf\u6d4e\u578b\u8fde\u9501\u9152\u5e97", "pty": "1001"}}, {"type": "Feature", "geometry": {"type": "Point", "coordinates": [121.44269767939062, 31.192526840403694]}, "properties": {"name": "\u5546\u65c5\u9a7f\u5c45\u9152\u5e97", "biz": "100105 \u4f4f\u5bbf\u670d\u52a1;\u5bbe\u9986\u9152\u5e97;\u7ecf\u6d4e\u578b\u8fde\u9501\u9152\u5e97", "pty": "1001"}}, {"type": "Feature", "geometry": {"type": "Point", "coordinates": [121.42542856837288, 31.172064659551193]}, "properties": {"name": "\u6854\u5b50\u9152\u5e97\u00b7\u7cbe\u9009(\u5149\u5927\u4f1a\u5c55\u4e2d\u5fc3\u5e97)", "biz": "100105 \u4f4f\u5bbf\u670d\u52a1;\u5bbe\u9986\u9152\u5e97;\u7ecf\u6d4e\u578b\u8fde\u9501\u9152\u5e97", "pty": "1001"}}, {"type": "Feature", "geometry": {"type": "Point", "coordinates": [121.40197139131787, 31.160088111186052]}, "properties": {"name": "\u597d\u5bb6\u5feb\u6377\u9152\u5e97(\u4e0a\u6d77\u6f15\u5b9d\u8def\u5e97)", "biz": "100105 \u4f4f\u5bbf\u670d\u52a1;\u5bbe\u9986\u9152\u5e97;\u7ecf\u6d4e\u578b\u8fde\u9501\u9152\u5e97", "pty": "1001"}}, {"type": "Feature", "geometry": {"type": "Point", "coordinates": [121.45178696514832, 31.197825265312257]}, "properties": {"name": "\u6c49\u5ead\u5168\u5b63\u9152\u5e97(\u4e0a\u6d77\u659c\u571f\u8def\u5e97)", "biz": "100105 \u4f4f\u5bbf\u670d\u52a1;\u5bbe\u9986\u9152\u5e97;\u7ecf\u6d4e\u578b\u8fde\u9501\u9152\u5e97", "pty": "1001"}}, {"type": "Feature", "geometry": {"type": "Point", "coordinates": [121.43456364121508, 31.189758759087923]}, "properties": {"name": "\u6c49\u5ead\u9152\u5e97(\u4e0a\u6d77\u5f90\u5bb6\u6c47\u5929\u94a5\u6865\u8def\u5e97)", "biz": "100105 \u4f4f\u5bbf\u670d\u52a1;\u5bbe\u9986\u9152\u5e97;\u7ecf\u6d4e\u578b\u8fde\u9501\u9152\u5e97", "pty": "1001"}}, {"type": "Feature", "geometry": {"type": "Point", "coordinates": [121.44874616688288, 31.195628659258542]}, "properties": {"name": "\u6c49\u5ead\u9152\u5e97(\u4e0a\u6d77\u4e1c\u5b89\u8def\u4e8c\u5e97)", "biz": "100105 \u4f4f\u5bbf\u670d\u52a1;\u5bbe\u9986\u9152\u5e97;\u7ecf\u6d4e\u578b\u8fde\u9501\u9152\u5e97", "pty": "1001"}}, {"type": "Feature", "geometry": {"type": "Point", "coordinates": [121.41828436099989, 31.183200306058673]}, "properties": {"name": "\u5e03\u4e01\u9152\u5e97(\u5b9c\u5c71\u8def\u5730\u94c1\u7ad9\u5e97)", "biz": "100105 \u4f4f\u5bbf\u670d\u52a1;\u5bbe\u9986\u9152\u5e97;\u7ecf\u6d4e\u578b\u8fde\u9501\u9152\u5e97", "pty": "1001"}}, {"type": "Feature", "geometry": {"type": "Point", "coordinates": [121.41448382377806, 31.168395671201303]}, "properties": {"name": "\u5982\u5bb6\u5feb\u6377(\u4e0a\u6d77\u548c\u9890\u9152\u5e97)", "biz": "100105 \u4f4f\u5bbf\u670d\u52a1;\u5bbe\u9986\u9152\u5e97;\u7ecf\u6d4e\u578b\u8fde\u9501\u9152\u5e97", "pty": "1001"}}, {"type": "Feature", "geometry": {"type": "Point", "coordinates": [121.4297965257624, 31.171893545012527]}, "properties": {"name": "7\u5929\u9152\u5e97(\u4e0a\u6d77\u6f15\u5b9d\u8def\u5730\u94c1\u7ad9\u5e97)", "biz": "100105 \u4f4f\u5bbf\u670d\u52a1;\u5bbe\u9986\u9152\u5e97;\u7ecf\u6d4e\u578b\u8fde\u9501\u9152\u5e97", "pty": "1001"}}, {"type": "Feature", "geometry": {"type": "Point", "coordinates": [121.43903953316654, 31.192503032074686]}, "properties": {"name": "\u6c49\u5ead\u9152\u5e97(\u4e0a\u6d77\u5357\u4e39\u8def\u5e97)", "biz": "100105 \u4f4f\u5bbf\u670d\u52a1;\u5bbe\u9986\u9152\u5e97;\u7ecf\u6d4e\u578b\u8fde\u9501\u9152\u5e97", "pty": "1001"}}, {"type": "Feature", "geometry": {"type": "Point", "coordinates": [121.42022203062382, 31.189803863489495]}, "properties": {"name": "\u6c49\u5ead\u9152\u5e97(\u4e0a\u6d77\u5f90\u5bb6\u6c47\u5e97)", "biz": "100105 \u4f4f\u5bbf\u670d\u52a1;\u5bbe\u9986\u9152\u5e97;\u7ecf\u6d4e\u578b\u8fde\u9501\u9152\u5e97", "pty": "1001"}}, {"type": "Feature", "geometry": {"type": "Point", "coordinates": [121.42973328963923, 31.173379695022607]}, "properties": {"name": "\u5168\u5b63\u9152\u5e97(\u4e0a\u6d77\u4e07\u4f53\u9986\u5e97)", "biz": "100105 \u4f4f\u5bbf\u670d\u52a1;\u5bbe\u9986\u9152\u5e97;\u7ecf\u6d4e\u578b\u8fde\u9501\u9152\u5e97", "pty": "1001"}}, {"type": "Feature", "geometry": {"type": "Point", "coordinates": [121.4093085831974, 31.18299395775808]}, "properties": {"name": "\u6c49\u5ead\u9152\u5e97(\u4e0a\u6d77\u6842\u6797\u8def\u5e97)", "biz": "100105 \u4f4f\u5bbf\u670d\u52a1;\u5bbe\u9986\u9152\u5e97;\u7ecf\u6d4e\u578b\u8fde\u9501\u9152\u5e97", "pty": "1001"}}, {"type": "Feature", "geometry": {"type": "Point", "coordinates": [121.45049903442056, 31.192056246342673]}, "properties": {"name": "\u6c49\u5ead\u9152\u5e97(\u4e0a\u6d77\u4e1c\u5b89\u8def\u5e97)", "biz": "100105 \u4f4f\u5bbf\u670d\u52a1;\u5bbe\u9986\u9152\u5e97;\u7ecf\u6d4e\u578b\u8fde\u9501\u9152\u5e97", "pty": "1001"}}, {"type": "Feature", "geometry": {"type": "Point", "coordinates": [121.40897008103914, 31.140339936904976]}, "properties": {"name": "\u534e\u5174\u9152\u5e97(\u4e0a\u6d77\u9526\u6c5f\u4e50\u56ed\u5e97)", "biz": "100105 \u4f4f\u5bbf\u670d\u52a1;\u5bbe\u9986\u9152\u5e97;\u7ecf\u6d4e\u578b\u8fde\u9501\u9152\u5e97", "pty": "1001"}}, {"type": "Feature", "geometry": {"type": "Point", "coordinates": [121.4409803306498, 31.19771301282097]}, "properties": {"name": "\u5982\u5bb6\u5feb\u6377\u9152\u5e97(\u4e0a\u6d77\u5f90\u5bb6\u6c47\u5b9b\u5e73\u5357\u8def\u5e97)", "biz": "100105 \u4f4f\u5bbf\u670d\u52a1;\u5bbe\u9986\u9152\u5e97;\u7ecf\u6d4e\u578b\u8fde\u9501\u9152\u5e97", "pty": "1001"}}, {"type": "Feature", "geometry": {"type": "Point", "coordinates": [121.44731782933167, 31.180719074658345]}, "properties": {"name": "\u6d77\u53cb\u826f\u54c1\u9152\u5e97(\u4e0a\u6d77\u5f90\u5bb6\u6c47\u9f99\u534e\u8def\u5e97)", "biz": "100105 \u4f4f\u5bbf\u670d\u52a1;\u5bbe\u9986\u9152\u5e97;\u7ecf\u6d4e\u578b\u8fde\u9501\u9152\u5e97", "pty": "1001"}}, {"type": "Feature", "geometry": {"type": "Point", "coordinates": [121.44394002081242, 31.17586364805744]}, "properties": {"name": "\u5168\u5b63\u9152\u5e97(\u4e0a\u6d77\u5f90\u5bb6\u6c47\u5929\u94a5\u6865\u8def\u5e97)", "biz": "100105 \u4f4f\u5bbf\u670d\u52a1;\u5bbe\u9986\u9152\u5e97;\u7ecf\u6d4e\u578b\u8fde\u9501\u9152\u5e97", "pty": "1001"}}, {"type": "Feature", "geometry": {"type": "Point", "coordinates": [121.45864265251737, 31.204828991789984]}, "properties": {"name": "\u6c49\u5ead\u5168\u5b63\u9152\u5e97(\u4e0a\u6d77\u5f90\u5bb6\u6c47\u8087\u5609\u6d5c\u8def\u5e97)", "biz": "100105 \u4f4f\u5bbf\u670d\u52a1;\u5bbe\u9986\u9152\u5e97;\u7ecf\u6d4e\u578b\u8fde\u9501\u9152\u5e97", "pty": "1001"}}, {"type": "Feature", "geometry": {"type": "Point", "coordinates": [121.4475400278223, 31.184889440755864]}, "properties": {"name": "\u6d77\u53cb\u9152\u5e97(\u4e0a\u6d77\u5f90\u5bb6\u6c47\u5b9b\u5e73\u5357\u8def\u5e97)", "biz": "100105 \u4f4f\u5bbf\u670d\u52a1;\u5bbe\u9986\u9152\u5e97;\u7ecf\u6d4e\u578b\u8fde\u9501\u9152\u5e97", "pty": "1001"}}, {"type": "Feature", "geometry": {"type": "Point", "coordinates": [121.41823964300592, 31.156352054481097]}, "properties": {"name": "\u83ab\u6cf0168\u65c5\u5e97(\u4e0a\u6d77\u5357\u7ad9\u4e0a\u5e08\u5927\u5e97)", "biz": "100105 \u4f4f\u5bbf\u670d\u52a1;\u5bbe\u9986\u9152\u5e97;\u7ecf\u6d4e\u578b\u8fde\u9501\u9152\u5e97", "pty": "1001"}}, {"type": "Feature", "geometry": {"type": "Point", "coordinates": [121.4335875449427, 31.169336540104755]}, "properties": {"name": "\u9526\u6c5f\u4e4b\u661f\u65c5\u9986(\u4e0a\u6d77\u9f99\u6f15\u8def\u5e97)", "biz": "100105 \u4f4f\u5bbf\u670d\u52a1;\u5bbe\u9986\u9152\u5e97;\u7ecf\u6d4e\u578b\u8fde\u9501\u9152\u5e97", "pty": "1001"}}, {"type": "Feature", "geometry": {"type": "Point", "coordinates": [121.42061311300624, 31.171312608945016]}, "properties": {"name": "\u83ab\u6cf0168\u65c5\u5e97(\u4e0a\u6d77\u67f3\u5dde\u8def\u5149\u5927\u4f1a\u5c55\u4e2d\u5fc3\u5e97)", "biz": "100105 \u4f4f\u5bbf\u670d\u52a1;\u5bbe\u9986\u9152\u5e97;\u7ecf\u6d4e\u578b\u8fde\u9501\u9152\u5e97", "pty": "1001"}}, {"type": "Feature", "geometry": {"type": "Point", "coordinates": [121.40217122053649, 31.174106920496822]}, "properties": {"name": "\u6854\u5b50\u6c34\u6676\u9152\u5e97(\u4e0a\u6d77\u6f15\u6cb3\u6cfe\u5b9c\u5c71\u8def\u5e97)", "biz": "100105 \u4f4f\u5bbf\u670d\u52a1;\u5bbe\u9986\u9152\u5e97;\u7ecf\u6d4e\u578b\u8fde\u9501\u9152\u5e97", "pty": "1001"}}, {"type": "Feature", "geometry": {"type": "Point", "coordinates": [121.43286700171093, 31.136934435265218]}, "properties": {"name": "\u6c49\u5ead\u9152\u5e97(\u5357\u7ad9\u7f57\u9999\u8def\u5e97)", "biz": "100105 \u4f4f\u5bbf\u670d\u52a1;\u5bbe\u9986\u9152\u5e97;\u7ecf\u6d4e\u578b\u8fde\u9501\u9152\u5e97", "pty": "1001"}}, {"type": "Feature", "geometry": {"type": "Point", "coordinates": [121.44981243204015, 31.120043383665312]}, "properties": {"name": "\u6c49\u5ead\u9152\u5e97(\u4e0a\u6d77\u534e\u6cfe\u5e97)", "biz": "100105 \u4f4f\u5bbf\u670d\u52a1;\u5bbe\u9986\u9152\u5e97;\u7ecf\u6d4e\u578b\u8fde\u9501\u9152\u5e97", "pty": "1001"}}, {"type": "Feature", "geometry": {"type": "Point", "coordinates": [121.44122331504933, 31.18104378075326]}, "properties": {"name": "\u5982\u5bb6\u5feb\u6377\u9152\u5e97(\u4e0a\u6d77\u5f90\u5bb6\u6c47\u516b\u4e07\u4eba\u4f53\u80b2\u573a\u5929\u94a5\u6865\u8def\u5e97)", "biz": "100105 \u4f4f\u5bbf\u670d\u52a1;\u5bbe\u9986\u9152\u5e97;\u7ecf\u6d4e\u578b\u8fde\u9501\u9152\u5e97", "pty": "1001"}}, {"type": "Feature", "geometry": {"type": "Point", "coordinates": [121.43173857352413, 31.187436513295193]}, "properties": {"name": "\u5982\u5bb6\u5feb\u6377\u9152\u5e97(\u4e0a\u6d77\u5f90\u5bb6\u6c47\u516b\u4e07\u4eba\u4f53\u80b2\u9986\u5730\u94c1\u7ad9\u5e97)", "biz": "100105 \u4f4f\u5bbf\u670d\u52a1;\u5bbe\u9986\u9152\u5e97;\u7ecf\u6d4e\u578b\u8fde\u9501\u9152\u5e97", "pty": "1001"}}, {"type": "Feature", "geometry": {"type": "Point", "coordinates": [121.41834309670527, 31.175480270698085]}, "properties": {"name": "\u661f\u7a0b\u9152\u5e97(\u4e0a\u6d77\u7530\u6797\u5e97)", "biz": "100105 \u4f4f\u5bbf\u670d\u52a1;\u5bbe\u9986\u9152\u5e97;\u7ecf\u6d4e\u578b\u8fde\u9501\u9152\u5e97", "pty": "1001"}}, {"type": "Feature", "geometry": {"type": "Point", "coordinates": [121.43709712643513, 31.196304739317064]}, "properties": {"name": "\u5168\u5b63\u9152\u5e97(\u4e0a\u6d77\u5f90\u5bb6\u6c47\u5e97)", "biz": "100105 \u4f4f\u5bbf\u670d\u52a1;\u5bbe\u9986\u9152\u5e97;\u7ecf\u6d4e\u578b\u8fde\u9501\u9152\u5e97", "pty": "1001"}}, {"type": "Feature", "geometry": {"type": "Point", "coordinates": [121.44097479824836, 31.18058854526755]}, "properties": {"name": "99\u9152\u5e97", "biz": "100105 \u4f4f\u5bbf\u670d\u52a1;\u5bbe\u9986\u9152\u5e97;\u7ecf\u6d4e\u578b\u8fde\u9501\u9152\u5e97", "pty": "1001"}}, {"type": "Feature", "geometry": {"type": "Point", "coordinates": [121.4221163383251, 31.190676413601064]}, "properties": {"name": "\u683c\u6797\u8c6a\u6cf0\u9152\u5e97(\u5f90\u5bb6\u6c47\u5b9c\u5c71\u8def\u5730\u94c1\u7ad9\u5e97)", "biz": "100105 \u4f4f\u5bbf\u670d\u52a1;\u5bbe\u9986\u9152\u5e97;\u7ecf\u6d4e\u578b\u8fde\u9501\u9152\u5e97", "pty": "1001"}}, {"type": "Feature", "geometry": {"type": "Point", "coordinates": [121.46157660753042, 31.202490459451784]}, "properties": {"name": "\u5982\u5bb6\u5feb\u6377\u9152\u5e97(\u4e0a\u6d77\u659c\u571f\u8def\u745e\u91d1\u5357\u8def\u5e97)", "biz": "100105 \u4f4f\u5bbf\u670d\u52a1;\u5bbe\u9986\u9152\u5e97;\u7ecf\u6d4e\u578b\u8fde\u9501\u9152\u5e97", "pty": "1001"}}, {"type": "Feature", "geometry": {"type": "Point", "coordinates": [121.44780667308169, 31.196800077892405]}, "properties": {"name": "\u5b9d\u9686\u5c45\u5bb6\u9152\u5e97(\u5f90\u6c47\u5e97)", "biz": "100105 \u4f4f\u5bbf\u670d\u52a1;\u5bbe\u9986\u9152\u5e97;\u7ecf\u6d4e\u578b\u8fde\u9501\u9152\u5e97", "pty": "1001"}}, {"type": "Feature", "geometry": {"type": "Point", "coordinates": [121.44125038373097, 31.180951878037273]}, "properties": {"name": "\u83ab\u6cf0168\u65c5\u5e97(\u4e0a\u6d77\u5f90\u5bb6\u6c47\u516b\u4e07\u4eba\u4f53\u80b2\u573a\u5929\u94a5\u6865\u8def\u5e97)", "biz": "100105 \u4f4f\u5bbf\u670d\u52a1;\u5bbe\u9986\u9152\u5e97;\u7ecf\u6d4e\u578b\u8fde\u9501\u9152\u5e97", "pty": "1001"}}, {"type": "Feature", "geometry": {"type": "Point", "coordinates": [121.44687089806894, 31.155369191151493]}, "properties": {"name": "\u6c49\u5ead\u9152\u5e97(\u4e0a\u6d77\u5357\u7ad9\u9f99\u5434\u8def\u5e97)", "biz": "100105 \u4f4f\u5bbf\u670d\u52a1;\u5bbe\u9986\u9152\u5e97;\u7ecf\u6d4e\u578b\u8fde\u9501\u9152\u5e97", "pty": "1001"}}, {"type": "Feature", "geometry": {"type": "Point", "coordinates": [121.42738334806823, 31.15138289630541]}, "properties": {"name": "\u83ab\u6cf0168\u65c5\u5e97(\u4e0a\u6d77\u5357\u7ad9\u77f3\u9f99\u8def\u5e97)", "biz": "100105 \u4f4f\u5bbf\u670d\u52a1;\u5bbe\u9986\u9152\u5e97;\u7ecf\u6d4e\u578b\u8fde\u9501\u9152\u5e97", "pty": "1001"}}, {"type": "Feature", "geometry": {"type": "Point", "coordinates": [121.44706586069053, 31.196234798187447]}, "properties": {"name": "\u6d77\u53cb\u9152\u5e97(\u4e0a\u6d77\u4e1c\u5b89\u8def\u65b0\u5e97)", "biz": "100105 \u4f4f\u5bbf\u670d\u52a1;\u5bbe\u9986\u9152\u5e97;\u7ecf\u6d4e\u578b\u8fde\u9501\u9152\u5e97", "pty": "1001"}}, {"type": "Feature", "geometry": {"type": "Point", "coordinates": [121.42572091300475, 31.150027479344093]}, "properties": {"name": "99\u65c5\u9986(\u5357\u7ad9\u5e97)", "biz": "100105 \u4f4f\u5bbf\u670d\u52a1;\u5bbe\u9986\u9152\u5e97;\u7ecf\u6d4e\u578b\u8fde\u9501\u9152\u5e97", "pty": "1001"}}, {"type": "Feature", "geometry": {"type": "Point", "coordinates": [121.42647805571977, 31.150054421137796]}, "properties": {"name": "\u57ce\u5bb6\u516c\u5bd3(\u4e0a\u6d77\u5357\u7ad9\u5e97)", "biz": "100105 \u4f4f\u5bbf\u670d\u52a1;\u5bbe\u9986\u9152\u5e97;\u7ecf\u6d4e\u578b\u8fde\u9501\u9152\u5e97", "pty": "1001"}}, {"type": "Feature", "geometry": {"type": "Point", "coordinates": [121.4145260841085, 31.17734812451003]}, "properties": {"name": "\u5168\u5b63\u9152\u5e97(\u4e0a\u6d77\u5f90\u5bb6\u6c47\u5b9c\u5c71\u8def\u5e97)", "biz": "100105 \u4f4f\u5bbf\u670d\u52a1;\u5bbe\u9986\u9152\u5e97;\u7ecf\u6d4e\u578b\u8fde\u9501\u9152\u5e97", "pty": "1001"}}, {"type": "Feature", "geometry": {"type": "Point", "coordinates": [121.41740948140371, 31.182412915072234]}, "properties": {"name": "\u6c49\u5ead\u9152\u5e97(\u4e0a\u6d77\u5f90\u5bb6\u6c47\u4e8c\u5e97)", "biz": "100105 \u4f4f\u5bbf\u670d\u52a1;\u5bbe\u9986\u9152\u5e97;\u7ecf\u6d4e\u578b\u8fde\u9501\u9152\u5e97", "pty": "1001"}}, {"type": "Feature", "geometry": {"type": "Point", "coordinates": [121.43144481051509, 31.178635506976388]}, "properties": {"name": "\u683c\u6797\u8c6a\u6cf0\u8d1d\u58f3\u9152\u5e97(\u6f15\u6eaa\u8def)", "biz": "100105 \u4f4f\u5bbf\u670d\u52a1;\u5bbe\u9986\u9152\u5e97;\u7ecf\u6d4e\u578b\u8fde\u9501\u9152\u5e97", "pty": "1001"}}, {"type": "Feature", "geometry": {"type": "Point", "coordinates": [121.41205949789999, 31.17170828423255]}, "properties": {"name": "7\u5929\u9152\u5e97(\u4e0a\u6d77\u6842\u6797\u8def\u5730\u94c1\u7ad9\u5e97)", "biz": "100105 \u4f4f\u5bbf\u670d\u52a1;\u5bbe\u9986\u9152\u5e97;\u7ecf\u6d4e\u578b\u8fde\u9501\u9152\u5e97", "pty": "1001"}}, {"type": "Feature", "geometry": {"type": "Point", "coordinates": [121.44998256082543, 31.193418434930294]}, "properties": {"name": "\u6d77\u53cb\u826f\u54c1\u9152\u5e97(\u4e0a\u6d77\u4e1c\u5b89\u8def\u5e97)", "biz": "100105 \u4f4f\u5bbf\u670d\u52a1;\u5bbe\u9986\u9152\u5e97;\u7ecf\u6d4e\u578b\u8fde\u9501\u9152\u5e97", "pty": "1001"}}, {"type": "Feature", "geometry": {"type": "Point", "coordinates": [121.42736718085234, 31.187629254732258]}, "properties": {"name": "\u5409\u6cf0\u9152\u5e97(\u5f90\u5bb6\u6c47\u5e97)", "biz": "100105 \u4f4f\u5bbf\u670d\u52a1;\u5bbe\u9986\u9152\u5e97;\u7ecf\u6d4e\u578b\u8fde\u9501\u9152\u5e97", "pty": "1001"}}, {"type": "Feature", "geometry": {"type": "Point", "coordinates": [121.43977630840914, 31.20195171210812]}, "properties": {"name": "\u7ef4\u4e5f\u7eb3\u9152\u5e97(\u8861\u5c71\u8def\u5e97)", "biz": "100105 \u4f4f\u5bbf\u670d\u52a1;\u5bbe\u9986\u9152\u5e97;\u7ecf\u6d4e\u578b\u8fde\u9501\u9152\u5e97", "pty": "1001"}}, {"type": "Feature", "geometry": {"type": "Point", "coordinates": [121.4465467776902, 31.15903959928273]}, "properties": {"name": "\u5409\u6cf0\u9152\u5e97(\u4e0a\u6d77\u4e07\u4f53\u9986\u5e97)", "biz": "100105 \u4f4f\u5bbf\u670d\u52a1;\u5bbe\u9986\u9152\u5e97;\u7ecf\u6d4e\u578b\u8fde\u9501\u9152\u5e97", "pty": "1001"}}, {"type": "Feature", "geometry": {"type": "Point", "coordinates": [121.44611726541811, 31.187491173981968]}, "properties": {"name": "\u6d77\u53cb\u826f\u54c1\u9152\u5e97(\u4e0a\u6d77\u5f90\u5bb6\u6c47\u5b9b\u5e73\u5357\u8def\u5e97)", "biz": "100105 \u4f4f\u5bbf\u670d\u52a1;\u5bbe\u9986\u9152\u5e97;\u7ecf\u6d4e\u578b\u8fde\u9501\u9152\u5e97", "pty": "1001"}}, {"type": "Feature", "geometry": {"type": "Point", "coordinates": [121.41612839435389, 31.191293376448346]}, "properties": {"name": "\u4e2d\u5c71\u5feb\u6377\u9152\u5e97", "biz": "100105 \u4f4f\u5bbf\u670d\u52a1;\u5bbe\u9986\u9152\u5e97;\u7ecf\u6d4e\u578b\u8fde\u9501\u9152\u5e97", "pty": "1001"}}, {"type": "Feature", "geometry": {"type": "Point", "coordinates": [121.42736718085234, 31.187629254732258]}, "properties": {"name": "\u4e0a\u6d77\u4e0a\u670d\u5047\u65e5\u9152\u5e97(\u5927\u5730\u5e97)", "biz": "100105 \u4f4f\u5bbf\u670d\u52a1;\u5bbe\u9986\u9152\u5e97;\u7ecf\u6d4e\u578b\u8fde\u9501\u9152\u5e97", "pty": "1001"}}, {"type": "Feature", "geometry": {"type": "Point", "coordinates": [121.43696044805489, 31.18934895466515]}, "properties": {"name": "\u5982\u5bb6\u7cbe\u9009\u9152\u5e97(\u4e0a\u6d77\u5f90\u5bb6\u6c47\u5e97)", "biz": "100105 \u4f4f\u5bbf\u670d\u52a1;\u5bbe\u9986\u9152\u5e97;\u7ecf\u6d4e\u578b\u8fde\u9501\u9152\u5e97", "pty": "1001"}}, {"type": "Feature", "geometry": {"type": "Point", "coordinates": [121.41677689940612, 31.135441847571176]}, "properties": {"name": "\u6613\u4f70\u65c5\u5e97(\u51cc\u4e91\u8def\u5e97)", "biz": "100105 \u4f4f\u5bbf\u670d\u52a1;\u5bbe\u9986\u9152\u5e97;\u7ecf\u6d4e\u578b\u8fde\u9501\u9152\u5e97", "pty": "1001"}}, {"type": "Feature", "geometry": {"type": "Point", "coordinates": [121.4160954459468, 31.178818613309907]}, "properties": {"name": "\u6c49\u5ead\u9152\u5e97(\u67f3\u5dde\u8def\u5e97)", "biz": "100105 \u4f4f\u5bbf\u670d\u52a1;\u5bbe\u9986\u9152\u5e97;\u7ecf\u6d4e\u578b\u8fde\u9501\u9152\u5e97", "pty": "1001"}}, {"type": "Feature", "geometry": {"type": "Point", "coordinates": [121.42632422264154, 31.19155394761918]}, "properties": {"name": "\u5409\u6cf0\u9152\u5e97(\u5b9c\u5c71\u8def\u5730\u94c1\u7ad9\u5e97)", "biz": "100105 \u4f4f\u5bbf\u670d\u52a1;\u5bbe\u9986\u9152\u5e97;\u7ecf\u6d4e\u578b\u8fde\u9501\u9152\u5e97", "pty": "1001"}}, {"type": "Feature", "geometry": {"type": "Point", "coordinates": [121.42584734058357, 31.17035105844711]}, "properties": {"name": "\u6d66\u6c5f\u4e4b\u661f\u65c5\u5e97(\u5149\u5927\u5e97)", "biz": "100105 \u4f4f\u5bbf\u670d\u52a1;\u5bbe\u9986\u9152\u5e97;\u7ecf\u6d4e\u578b\u8fde\u9501\u9152\u5e97", "pty": "1001"}}, {"type": "Feature", "geometry": {"type": "Point", "coordinates": [121.43363811996106, 31.152234514749125]}, "properties": {"name": "\u5feb\u6377(\u5e97)", "biz": "100105 \u4f4f\u5bbf\u670d\u52a1;\u5bbe\u9986\u9152\u5e97;\u7ecf\u6d4e\u578b\u8fde\u9501\u9152\u5e97", "pty": "1001"}}, {"type": "Feature", "geometry": {"type": "Point", "coordinates": [121.4254398500591, 31.14593429573914]}, "properties": {"name": "7\u5929\u9152\u5e97(\u4e0a\u6d77\u9646\u5bb6\u5634\u6d66\u4e1c\u5927\u9053\u5e97)", "biz": "100105 \u4f4f\u5bbf\u670d\u52a1;\u5bbe\u9986\u9152\u5e97;\u7ecf\u6d4e\u578b\u8fde\u9501\u9152\u5e97", "pty": "1001"}}, {"type": "Feature", "geometry": {"type": "Point", "coordinates": [121.41534434309398, 31.194619095178158]}, "properties": {"name": "\u683c\u6797\u8c6a\u6cf0\u9152\u5e97(\u8679\u6865\u8def\u5730\u94c1\u7ad9\u5e97)", "biz": "100105 \u4f4f\u5bbf\u670d\u52a1;\u5bbe\u9986\u9152\u5e97;\u7ecf\u6d4e\u578b\u8fde\u9501\u9152\u5e97", "pty": "1001"}}, {"type": "Feature", "geometry": {"type": "Point", "coordinates": [121.35709217198274, 31.21437420649593]}, "properties": {"name": "\u683c\u6797\u8c6a\u6cf0\u9152\u5e97(\u4e0a\u6d77\u8679\u6865\u673a\u573a\u6dde\u8679\u8def\u5e97)", "biz": "100105 \u4f4f\u5bbf\u670d\u52a1;\u5bbe\u9986\u9152\u5e97;\u7ecf\u6d4e\u578b\u8fde\u9501\u9152\u5e97", "pty": "1001"}}, {"type": "Feature", "geometry": {"type": "Point", "coordinates": [121.39360173891673, 31.211544293320006]}, "properties": {"name": "\u9526\u6c5f\u4e4b\u661f\u9152\u5e97(\u8305\u53f0\u8def\u5e97)", "biz": "100105 \u4f4f\u5bbf\u670d\u52a1;\u5bbe\u9986\u9152\u5e97;\u7ecf\u6d4e\u578b\u8fde\u9501\u9152\u5e97", "pty": "1001"}}, {"type": "Feature", "geometry": {"type": "Point", "coordinates": [121.35233427640638, 31.185795536984028]}, "properties": {"name": "\u83ab\u6cf0168\u65c5\u5e97(\u4e0a\u6d77\u8679\u6865\u673a\u573a\u5e97)", "biz": "100105 \u4f4f\u5bbf\u670d\u52a1;\u5bbe\u9986\u9152\u5e97;\u7ecf\u6d4e\u578b\u8fde\u9501\u9152\u5e97", "pty": "1001"}}, {"type": "Feature", "geometry": {"type": "Point", "coordinates": [121.40123399598646, 31.220185071584975]}, "properties": {"name": "\u5e03\u4e01\u9152\u5e97(\u4e0a\u6d77\u4e2d\u5c71\u516c\u56ed\u5e97)", "biz": "100105 \u4f4f\u5bbf\u670d\u52a1;\u5bbe\u9986\u9152\u5e97;\u7ecf\u6d4e\u578b\u8fde\u9501\u9152\u5e97", "pty": "1001"}}, {"type": "Feature", "geometry": {"type": "Point", "coordinates": [121.37515308085938, 31.218197434905797]}, "properties": {"name": "\u83ab\u6cf0168\u65c5\u5e97(\u4e0a\u6d77\u8679\u6865\u5317\u65b0\u6cfe\u5730\u94c1\u7ad9\u5929\u5c71\u8def\u5e97)", "biz": "100105 \u4f4f\u5bbf\u670d\u52a1;\u5bbe\u9986\u9152\u5e97;\u7ecf\u6d4e\u578b\u8fde\u9501\u9152\u5e97", "pty": "1001"}}, {"type": "Feature", "geometry": {"type": "Point", "coordinates": [121.41349591642374, 31.214836884008452]}, "properties": {"name": "\u5982\u5bb6\u5feb\u6377\u9152\u5e97(\u4e0a\u6d77\u4e2d\u5c71\u516c\u56ed\u5730\u94c1\u7ad9\u5e97)", "biz": "100105 \u4f4f\u5bbf\u670d\u52a1;\u5bbe\u9986\u9152\u5e97;\u7ecf\u6d4e\u578b\u8fde\u9501\u9152\u5e97", "pty": "1001"}}, {"type": "Feature", "geometry": {"type": "Point", "coordinates": [121.34560818608553, 31.189162042720362]}, "properties": {"name": "\u5982\u5bb6\u5feb\u6377\u9152\u5e97(\u4e0a\u6d77\u8679\u6865\u673a\u573aT1\u822a\u7ad9\u697c\u5e97)", "biz": "100105 \u4f4f\u5bbf\u670d\u52a1;\u5bbe\u9986\u9152\u5e97;\u7ecf\u6d4e\u578b\u8fde\u9501\u9152\u5e97", "pty": "1001"}}, {"type": "Feature", "geometry": {"type": "Point", "coordinates": [121.43011017297538, 31.20521435720074]}, "properties": {"name": "\u6d66\u6c5f\u7cbe\u9009\u9152\u5e97", "biz": "100105 \u4f4f\u5bbf\u670d\u52a1;\u5bbe\u9986\u9152\u5e97;\u7ecf\u6d4e\u578b\u8fde\u9501\u9152\u5e97", "pty": "1001"}}, {"type": "Feature", "geometry": {"type": "Point", "coordinates": [121.36654919429142, 31.214045596721135]}, "properties": {"name": "\u83ab\u6cf0168\u65c5\u5e97(\u6cc9\u53e3\u8def\u5e97)", "biz": "100105 \u4f4f\u5bbf\u670d\u52a1;\u5bbe\u9986\u9152\u5e97;\u7ecf\u6d4e\u578b\u8fde\u9501\u9152\u5e97", "pty": "1001"}}, {"type": "Feature", "geometry": {"type": "Point", "coordinates": [121.40836246961102, 31.21219511982941]}, "properties": {"name": "\u6d77\u53cb\u9152\u5e97(\u4e0a\u6d77\u4e2d\u5c71\u516c\u56ed\u5e97)", "biz": "100105 \u4f4f\u5bbf\u670d\u52a1;\u5bbe\u9986\u9152\u5e97;\u7ecf\u6d4e\u578b\u8fde\u9501\u9152\u5e97", "pty": "1001"}}, {"type": "Feature", "geometry": {"type": "Point", "coordinates": [121.42827008790788, 31.216881180705776]}, "properties": {"name": "\u827e\u68ee\u6982\u5ff5\u9152\u5e97(\u6c5f\u82cf\u8def\u5e97)", "biz": "100105 \u4f4f\u5bbf\u670d\u52a1;\u5bbe\u9986\u9152\u5e97;\u7ecf\u6d4e\u578b\u8fde\u9501\u9152\u5e97", "pty": "1001"}}, {"type": "Feature", "geometry": {"type": "Point", "coordinates": [121.4187842327295, 31.21412558223777]}, "properties": {"name": "\u5982\u5bb6\u5feb\u6377\u9152\u5e97(\u4e2d\u5c71\u516c\u56ed\u5b9a\u897f\u8def\u5e97)", "biz": "100105 \u4f4f\u5bbf\u670d\u52a1;\u5bbe\u9986\u9152\u5e97;\u7ecf\u6d4e\u578b\u8fde\u9501\u9152\u5e97", "pty": "1001"}}, {"type": "Feature", "geometry": {"type": "Point", "coordinates": [121.41920314013309, 31.22070285387939]}, "properties": {"name": "\u6c49\u5ead\u9152\u5e97(\u4e0a\u6d77\u4e2d\u5c71\u516c\u56ed\u4e8c\u5e97)", "biz": "100105 \u4f4f\u5bbf\u670d\u52a1;\u5bbe\u9986\u9152\u5e97;\u7ecf\u6d4e\u578b\u8fde\u9501\u9152\u5e97", "pty": "1001"}}, {"type": "Feature", "geometry": {"type": "Point", "coordinates": [121.42257990112564, 31.225766968790214]}, "properties": {"name": "\u5982\u5bb6\u5feb\u6377\u9152\u5e97(\u4e0a\u6d77\u4e2d\u5c71\u516c\u56ed\u6c5f\u82cf\u8def\u5730\u94c1\u7ad9\u5e97)", "biz": "100105 \u4f4f\u5bbf\u670d\u52a1;\u5bbe\u9986\u9152\u5e97;\u7ecf\u6d4e\u578b\u8fde\u9501\u9152\u5e97", "pty": "1001"}}, {"type": "Feature", "geometry": {"type": "Point", "coordinates": [121.38718773024384, 31.214998665204746]}, "properties": {"name": "\u8c6a\u6cf0\u5546\u52a1\u9152\u5e97(\u4e0a\u6d77\u5929\u5c71\u8def\u5e97)", "biz": "100105 \u4f4f\u5bbf\u670d\u52a1;\u5bbe\u9986\u9152\u5e97;\u7ecf\u6d4e\u578b\u8fde\u9501\u9152\u5e97", "pty": "1001"}}, {"type": "Feature", "geometry": {"type": "Point", "coordinates": [121.38634175515449, 31.208455204414587]}, "properties": {"name": "\u6d66\u6c5f\u4e4b\u661f\u65c5\u5e97(\u6c34\u57ce\u8def\u5e97)", "biz": "100105 \u4f4f\u5bbf\u670d\u52a1;\u5bbe\u9986\u9152\u5e97;\u7ecf\u6d4e\u578b\u8fde\u9501\u9152\u5e97", "pty": "1001"}}, {"type": "Feature", "geometry": {"type": "Point", "coordinates": [121.35204281961418, 31.185859970297816]}, "properties": {"name": "\u5982\u5bb6\u5feb\u6377\u9152\u5e97(\u4e0a\u6d77\u8679\u6865\u673a\u573a\u5e97)", "biz": "100105 \u4f4f\u5bbf\u670d\u52a1;\u5bbe\u9986\u9152\u5e97;\u7ecf\u6d4e\u578b\u8fde\u9501\u9152\u5e97", "pty": "1001"}}, {"type": "Feature", "geometry": {"type": "Point", "coordinates": [121.40685789129742, 31.209521743106244]}, "properties": {"name": "\u6c49\u5ead\u4f18\u4f73\u9152\u5e97(\u8679\u6865\u4e2d\u5c71\u897f\u8def\u5e97)", "biz": "100105 \u4f4f\u5bbf\u670d\u52a1;\u5bbe\u9986\u9152\u5e97;\u7ecf\u6d4e\u578b\u8fde\u9501\u9152\u5e97", "pty": "1001"}}, {"type": "Feature", "geometry": {"type": "Point", "coordinates": [121.34796678359743, 31.21975013460143]}, "properties": {"name": "\u5168\u5b63\u9152\u5e97(\u4e0a\u6d77\u8679\u6865\u67a2\u7ebd\u4e34\u7a7a\u56ed\u533a\u5e97)", "biz": "100105|100200 \u4f4f\u5bbf\u670d\u52a1;\u5bbe\u9986\u9152\u5e97;\u7ecf\u6d4e\u578b\u8fde\u9501\u9152\u5e97|\u4f4f\u5bbf\u670d\u52a1;\u65c5\u9986\u62db\u5f85\u6240;\u65c5\u9986\u62db\u5f85\u6240", "pty": "1001"}}, {"type": "Feature", "geometry": {"type": "Point", "coordinates": [121.42972843916888, 31.217690817758985]}, "properties": {"name": "\u6d77\u53cb\u9152\u5e97(\u4e0a\u6d77\u6c5f\u82cf\u8def\u5e97)", "biz": "100105 \u4f4f\u5bbf\u670d\u52a1;\u5bbe\u9986\u9152\u5e97;\u7ecf\u6d4e\u578b\u8fde\u9501\u9152\u5e97", "pty": "1001"}}, {"type": "Feature", "geometry": {"type": "Point", "coordinates": [121.37060563556152, 31.215392310947834]}, "properties": {"name": "\u6c49\u5ead\u9152\u5e97(\u4e0a\u6d77\u5929\u5c71\u897f\u8def\u5e97)", "biz": "100105 \u4f4f\u5bbf\u670d\u52a1;\u5bbe\u9986\u9152\u5e97;\u7ecf\u6d4e\u578b\u8fde\u9501\u9152\u5e97", "pty": "1001"}}, {"type": "Feature", "geometry": {"type": "Point", "coordinates": [121.39222263592632, 31.216379268598576]}, "properties": {"name": "\u6d77\u53cb\u9152\u5e97(\u5929\u5c71\u652f\u8def\u5e97)", "biz": "100105 \u4f4f\u5bbf\u670d\u52a1;\u5bbe\u9986\u9152\u5e97;\u7ecf\u6d4e\u578b\u8fde\u9501\u9152\u5e97", "pty": "1001"}}, {"type": "Feature", "geometry": {"type": "Point", "coordinates": [121.3520677796371, 31.185777971489223]}, "properties": {"name": "\u548c\u9890\u9152\u5e97(\u4e0a\u6d77\u8679\u6865\u673a\u573a\u5e97)", "biz": "100105 \u4f4f\u5bbf\u670d\u52a1;\u5bbe\u9986\u9152\u5e97;\u7ecf\u6d4e\u578b\u8fde\u9501\u9152\u5e97", "pty": "1001"}}, {"type": "Feature", "geometry": {"type": "Point", "coordinates": [121.36284611552084, 31.197800173785176]}, "properties": {"name": "\u683c\u6797\u8c6a\u6cf0\u9152\u5e97(\u4e0a\u6d77\u8679\u6865\u673a\u573a\u5e97)", "biz": "100105 \u4f4f\u5bbf\u670d\u52a1;\u5bbe\u9986\u9152\u5e97;\u7ecf\u6d4e\u578b\u8fde\u9501\u9152\u5e97", "pty": "1001"}}, {"type": "Feature", "geometry": {"type": "Point", "coordinates": [121.35210776153369, 31.18511723922995]}, "properties": {"name": "\u6c49\u5ead\u9152\u5e97(\u4e0a\u6d77\u8679\u6865\u673a\u573a\u5e97)", "biz": "100105 \u4f4f\u5bbf\u670d\u52a1;\u5bbe\u9986\u9152\u5e97;\u7ecf\u6d4e\u578b\u8fde\u9501\u9152\u5e97", "pty": "1001"}}, {"type": "Feature", "geometry": {"type": "Point", "coordinates": [121.42619396061608, 31.215329197811368]}, "properties": {"name": "\u5982\u5bb6\u5feb\u6377\u9152\u5e97(\u4e0a\u6d77\u4e2d\u5c71\u516c\u56ed\u957f\u5b81\u5e97)", "biz": "100105 \u4f4f\u5bbf\u670d\u52a1;\u5bbe\u9986\u9152\u5e97;\u7ecf\u6d4e\u578b\u8fde\u9501\u9152\u5e97", "pty": "1001"}}, {"type": "Feature", "geometry": {"type": "Point", "coordinates": [121.42137445721069, 31.212834789489275]}, "properties": {"name": "\u5982\u5bb6\u5feb\u6377\u9152\u5e97(\u4e0a\u6d77\u4e2d\u5c71\u516c\u56ed\u5ef6\u5b89\u897f\u8def\u5e97)", "biz": "100105 \u4f4f\u5bbf\u670d\u52a1;\u5bbe\u9986\u9152\u5e97;\u7ecf\u6d4e\u578b\u8fde\u9501\u9152\u5e97", "pty": "1001"}}, {"type": "Feature", "geometry": {"type": "Point", "coordinates": [121.41420305161849, 31.19738386014755]}, "properties": {"name": "\u5982\u5bb6\u7cbe\u9009\u9152\u5e97(\u4e0a\u6d77\u51ef\u65cb\u8def\u8679\u6865\u8def\u5730\u94c1\u7ad9\u5e97)", "biz": "100105 \u4f4f\u5bbf\u670d\u52a1;\u5bbe\u9986\u9152\u5e97;\u7ecf\u6d4e\u578b\u8fde\u9501\u9152\u5e97", "pty": "1001"}}, {"type": "Feature", "geometry": {"type": "Point", "coordinates": [121.35430504419948, 31.21554587007252]}, "properties": {"name": "\u5e03\u4e01\u9152\u5e97(\u8679\u6865\u673a\u573a\u6dde\u8679\u8def\u5730\u94c1\u7ad9\u5e97)", "biz": "100105 \u4f4f\u5bbf\u670d\u52a1;\u5bbe\u9986\u9152\u5e97;\u7ecf\u6d4e\u578b\u8fde\u9501\u9152\u5e97", "pty": "1001"}}, {"type": "Feature", "geometry": {"type": "Point", "coordinates": [121.42320459057294, 31.21602227358509]}, "properties": {"name": "\u6c49\u5ead\u9152\u5e97(\u4e0a\u6d77\u4e2d\u5c71\u516c\u56ed\u5e97)", "biz": "100105 \u4f4f\u5bbf\u670d\u52a1;\u5bbe\u9986\u9152\u5e97;\u7ecf\u6d4e\u578b\u8fde\u9501\u9152\u5e97", "pty": "1001"}}, {"type": "Feature", "geometry": {"type": "Point", "coordinates": [121.3877084516619, 31.215184347668778]}, "properties": {"name": "7\u5929\u4f18\u54c1\u9152\u5e97(\u4e0a\u6d77\u5929\u5c71\u8def\u5e97)", "biz": "100105 \u4f4f\u5bbf\u670d\u52a1;\u5bbe\u9986\u9152\u5e97;\u7ecf\u6d4e\u578b\u8fde\u9501\u9152\u5e97", "pty": "1001"}}, {"type": "Feature", "geometry": {"type": "Point", "coordinates": [121.38889698699307, 31.21421732947581]}, "properties": {"name": "\u5409\u6cf0\u9152\u5e97(\u5929\u5c71\u8def\u5e97)", "biz": "100105 \u4f4f\u5bbf\u670d\u52a1;\u5bbe\u9986\u9152\u5e97;\u7ecf\u6d4e\u578b\u8fde\u9501\u9152\u5e97", "pty": "1001"}}, {"type": "Feature", "geometry": {"type": "Point", "coordinates": [121.37313712983341, 31.220478277416152]}, "properties": {"name": "99\u65c5\u9986(\u4e0a\u6d77\u5317\u65b0\u6cfe\u5e97)", "biz": "100105 \u4f4f\u5bbf\u670d\u52a1;\u5bbe\u9986\u9152\u5e97;\u7ecf\u6d4e\u578b\u8fde\u9501\u9152\u5e97", "pty": "1001"}}, {"type": "Feature", "geometry": {"type": "Point", "coordinates": [121.41446663939092, 31.20484240689025]}, "properties": {"name": "\u83ab\u6cf0168\u65c5\u5e97(\u4e0a\u6d77\u51ef\u65cb\u8def\u5e97)", "biz": "100105 \u4f4f\u5bbf\u670d\u52a1;\u5bbe\u9986\u9152\u5e97;\u7ecf\u6d4e\u578b\u8fde\u9501\u9152\u5e97", "pty": "1001"}}, {"type": "Feature", "geometry": {"type": "Point", "coordinates": [121.40249332248955, 31.219819475002335]}, "properties": {"name": "\u9526\u6c5f\u4e4b\u661f\u65c5\u9986(\u957f\u5b81\u5e97)", "biz": "100105 \u4f4f\u5bbf\u670d\u52a1;\u5bbe\u9986\u9152\u5e97;\u7ecf\u6d4e\u578b\u8fde\u9501\u9152\u5e97", "pty": "1001"}}, {"type": "Feature", "geometry": {"type": "Point", "coordinates": [121.37165648156332, 31.213678017216804]}, "properties": {"name": "\u5982\u5bb6\u5feb\u6377\u9152\u5e97(\u4e0a\u6d77\u8679\u6865\u5317\u8679\u8def\u5317\u65b0\u6cfe\u5730\u94c1\u7ad9\u5e97)", "biz": "100105 \u4f4f\u5bbf\u670d\u52a1;\u5bbe\u9986\u9152\u5e97;\u7ecf\u6d4e\u578b\u8fde\u9501\u9152\u5e97", "pty": "1001"}}, {"type": "Feature", "geometry": {"type": "Point", "coordinates": [121.36245831147384, 31.20250838093221]}, "properties": {"name": "\u9526\u6c5f\u4e4b\u661f\u65c5\u9986(\u4e0a\u6d77\u8679\u6865\u54c8\u5bc6\u8def\u5e97)", "biz": "100105 \u4f4f\u5bbf\u670d\u52a1;\u5bbe\u9986\u9152\u5e97;\u7ecf\u6d4e\u578b\u8fde\u9501\u9152\u5e97", "pty": "1001"}}, {"type": "Feature", "geometry": {"type": "Point", "coordinates": [121.42625015225634, 31.21410585351672]}, "properties": {"name": "\u5168\u5b63\u9152\u5e97(\u4e0a\u6d77\u5ef6\u5b89\u8def\u5e97)", "biz": "100105 \u4f4f\u5bbf\u670d\u52a1;\u5bbe\u9986\u9152\u5e97;\u7ecf\u6d4e\u578b\u8fde\u9501\u9152\u5e97", "pty": "1001"}}, {"type": "Feature", "geometry": {"type": "Point", "coordinates": [121.4073436072027, 31.204156545434934]}, "properties": {"name": "\u5168\u5b63\u9152\u5e97(\u4e0a\u6d77\u8679\u6865\u4e2d\u5c71\u897f\u8def\u5e97)", "biz": "100105 \u4f4f\u5bbf\u670d\u52a1;\u5bbe\u9986\u9152\u5e97;\u7ecf\u6d4e\u578b\u8fde\u9501\u9152\u5e97", "pty": "1001"}}, {"type": "Feature", "geometry": {"type": "Point", "coordinates": [121.47513337066708, 31.24800466452477]}, "properties": {"name": "\u683c\u6797\u8c6a\u6cf0\u9152\u5e97(\u4e03\u6d66\u8def\u5e97)", "biz": "100105 \u4f4f\u5bbf\u670d\u52a1;\u5bbe\u9986\u9152\u5e97;\u7ecf\u6d4e\u578b\u8fde\u9501\u9152\u5e97", "pty": "1001"}}, {"type": "Feature", "geometry": {"type": "Point", "coordinates": [121.46876676348728, 31.253887409286197]}, "properties": {"name": "\u683c\u6797\u8054\u76df\u9152\u5e97(\u866c\u6c5f\u8def\u5e97)", "biz": "100105 \u4f4f\u5bbf\u670d\u52a1;\u5bbe\u9986\u9152\u5e97;\u7ecf\u6d4e\u578b\u8fde\u9501\u9152\u5e97", "pty": "1001"}}, {"type": "Feature", "geometry": {"type": "Point", "coordinates": [121.45157419007624, 31.23499509039993]}, "properties": {"name": "\u6c49\u5ead\u9152\u5e97(\u4e0a\u6d77\u6052\u9686\u5e7f\u573a\u5e97)", "biz": "100105 \u4f4f\u5bbf\u670d\u52a1;\u5bbe\u9986\u9152\u5e97;\u7ecf\u6d4e\u578b\u8fde\u9501\u9152\u5e97", "pty": "1001"}}, {"type": "Feature", "geometry": {"type": "Point", "coordinates": [121.47526453380911, 31.251290570155852]}, "properties": {"name": "\u6c49\u5ead\u9152\u5e97(\u4e0a\u6d77\u4e03\u6d66\u8def\u5e97)", "biz": "100105 \u4f4f\u5bbf\u670d\u52a1;\u5bbe\u9986\u9152\u5e97;\u7ecf\u6d4e\u578b\u8fde\u9501\u9152\u5e97", "pty": "1001"}}, {"type": "Feature", "geometry": {"type": "Point", "coordinates": [121.46377912883332, 31.263398022701573]}, "properties": {"name": "\u4e2d\u5b89\u8fde\u9501\u9152\u5e97", "biz": "100105 \u4f4f\u5bbf\u670d\u52a1;\u5bbe\u9986\u9152\u5e97;\u7ecf\u6d4e\u578b\u8fde\u9501\u9152\u5e97", "pty": "1001"}}, {"type": "Feature", "geometry": {"type": "Point", "coordinates": [121.4747680257515, 31.26097690767937]}, "properties": {"name": "\u9526\u6c5f\u4e4b\u661f\u9152\u5e97(\u4e0a\u6d77\u56db\u5ddd\u5317\u8def\u5e97)", "biz": "100105 \u4f4f\u5bbf\u670d\u52a1;\u5bbe\u9986\u9152\u5e97;\u7ecf\u6d4e\u578b\u8fde\u9501\u9152\u5e97", "pty": "1001"}}, {"type": "Feature", "geometry": {"type": "Point", "coordinates": [121.43263128242333, 31.232584129571293]}, "properties": {"name": "\u6c49\u5ead\u5168\u5b63\u9152\u5e97(\u4e0a\u6d77\u5eb7\u5b9a\u8def\u5e97)", "biz": "100105 \u4f4f\u5bbf\u670d\u52a1;\u5bbe\u9986\u9152\u5e97;\u7ecf\u6d4e\u578b\u8fde\u9501\u9152\u5e97", "pty": "1001"}}, {"type": "Feature", "geometry": {"type": "Point", "coordinates": [121.46072216946952, 31.270645104922703]}, "properties": {"name": "99\u65c5\u9986(\u4e0a\u6d77\u67f3\u8425\u8def\u5e97)", "biz": "100105 \u4f4f\u5bbf\u670d\u52a1;\u5bbe\u9986\u9152\u5e97;\u7ecf\u6d4e\u578b\u8fde\u9501\u9152\u5e97", "pty": "1001"}}, {"type": "Feature", "geometry": {"type": "Point", "coordinates": [121.43598709365595, 31.23995314247879]}, "properties": {"name": "\u6d77\u53cb\u9152\u5e97(\u957f\u5bff\u8def\u5e97)", "biz": "100105 \u4f4f\u5bbf\u670d\u52a1;\u5bbe\u9986\u9152\u5e97;\u7ecf\u6d4e\u578b\u8fde\u9501\u9152\u5e97", "pty": "1001"}}, {"type": "Feature", "geometry": {"type": "Point", "coordinates": [121.44449028449858, 31.23425039296033]}, "properties": {"name": "\u9526\u6c5f\u4e4b\u661f\u65c5\u9986(\u4e0a\u6d77\u6052\u9686\u5e7f\u573a\u5e97)", "biz": "100105 \u4f4f\u5bbf\u670d\u52a1;\u5bbe\u9986\u9152\u5e97;\u7ecf\u6d4e\u578b\u8fde\u9501\u9152\u5e97", "pty": "1001"}}, {"type": "Feature", "geometry": {"type": "Point", "coordinates": [121.44489368944816, 31.240752228711212]}, "properties": {"name": "\u5e03\u4e01\u9152\u5e97(\u4e0a\u6d77\u6dee\u5b89\u8def\u5e97)", "biz": "100105 \u4f4f\u5bbf\u670d\u52a1;\u5bbe\u9986\u9152\u5e97;\u7ecf\u6d4e\u578b\u8fde\u9501\u9152\u5e97", "pty": "1001"}}, {"type": "Feature", "geometry": {"type": "Point", "coordinates": [121.44165096487538, 31.300184621371738]}, "properties": {"name": "\u9526\u6c5f\u4e4b\u661f\u9152\u5e97(\u4e0a\u6d77\u5e02\u5317\u5de5\u4e1a\u56ed\u5e97)", "biz": "100105 \u4f4f\u5bbf\u670d\u52a1;\u5bbe\u9986\u9152\u5e97;\u7ecf\u6d4e\u578b\u8fde\u9501\u9152\u5e97", "pty": "1001"}}, {"type": "Feature", "geometry": {"type": "Point", "coordinates": [121.43840300793184, 31.24066497962066]}, "properties": {"name": "\u6c49\u5ead\u9152\u5e97(\u4e0a\u6d77\u897f\u5eb7\u8def\u5e97)", "biz": "100105 \u4f4f\u5bbf\u670d\u52a1;\u5bbe\u9986\u9152\u5e97;\u7ecf\u6d4e\u578b\u8fde\u9501\u9152\u5e97", "pty": "1001"}}, {"type": "Feature", "geometry": {"type": "Point", "coordinates": [121.46102648539123, 31.26600185723292]}, "properties": {"name": "\u6c49\u5ead\u9152\u5e97(\u4e0a\u6d77\u897f\u85cf\u5317\u8def\u5e97)", "biz": "100105 \u4f4f\u5bbf\u670d\u52a1;\u5bbe\u9986\u9152\u5e97;\u7ecf\u6d4e\u578b\u8fde\u9501\u9152\u5e97", "pty": "1001"}}, {"type": "Feature", "geometry": {"type": "Point", "coordinates": [121.4379608744942, 31.231459423317183]}, "properties": {"name": "\u9526\u6c5f\u4e4b\u661f\u9152\u5e97(\u4e0a\u6d77\u9759\u5b89\u5bfa\u80f6\u5dde\u8def\u5e97)", "biz": "100105 \u4f4f\u5bbf\u670d\u52a1;\u5bbe\u9986\u9152\u5e97;\u7ecf\u6d4e\u578b\u8fde\u9501\u9152\u5e97", "pty": "1001"}}, {"type": "Feature", "geometry": {"type": "Point", "coordinates": [121.43774937021335, 31.28982566705155]}, "properties": {"name": "\u6d77\u53cb\u9152\u5e97(\u5317\u5de5\u4e1a\u56ed\u533a\u5e97)", "biz": "100105 \u4f4f\u5bbf\u670d\u52a1;\u5bbe\u9986\u9152\u5e97;\u7ecf\u6d4e\u578b\u8fde\u9501\u9152\u5e97", "pty": "1001"}}, {"type": "Feature", "geometry": {"type": "Point", "coordinates": [121.44565291939129, 31.270916498921945]}, "properties": {"name": "\u6c49\u5ead(\u5927\u5b81\u56fd\u9645\u65b0\u5e97)", "biz": "100105 \u4f4f\u5bbf\u670d\u52a1;\u5bbe\u9986\u9152\u5e97;\u7ecf\u6d4e\u578b\u8fde\u9501\u9152\u5e97", "pty": "1001"}}, {"type": "Feature", "geometry": {"type": "Point", "coordinates": [121.46199004730639, 31.25854553396844]}, "properties": {"name": "\u83ab\u6cf0\u8fde\u9501\u65c5\u5e97(\u897f\u85cf\u5317\u8def\u5e97)", "biz": "100105 \u4f4f\u5bbf\u670d\u52a1;\u5bbe\u9986\u9152\u5e97;\u7ecf\u6d4e\u578b\u8fde\u9501\u9152\u5e97", "pty": "1001"}}, {"type": "Feature", "geometry": {"type": "Point", "coordinates": [121.47021634664979, 31.2555016446423]}, "properties": {"name": "99\u65c5\u9986(\u4e0a\u6d77\u706b\u8f66\u7ad9\u4e00\u5e97)", "biz": "100105 \u4f4f\u5bbf\u670d\u52a1;\u5bbe\u9986\u9152\u5e97;\u7ecf\u6d4e\u578b\u8fde\u9501\u9152\u5e97", "pty": "1001"}}, {"type": "Feature", "geometry": {"type": "Point", "coordinates": [121.4401382691884, 31.31538692365593]}, "properties": {"name": "99\u65c5\u9986(\u9a6c\u620f\u57ce\u5e97)", "biz": "100105 \u4f4f\u5bbf\u670d\u52a1;\u5bbe\u9986\u9152\u5e97;\u7ecf\u6d4e\u578b\u8fde\u9501\u9152\u5e97", "pty": "1001"}}, {"type": "Feature", "geometry": {"type": "Point", "coordinates": [121.46035045413669, 31.25438122140169]}, "properties": {"name": "99\u65c5\u9986(\u4e0a\u6d77\u706b\u8f66\u7ad9\u4e8c\u5e97)", "biz": "100105 \u4f4f\u5bbf\u670d\u52a1;\u5bbe\u9986\u9152\u5e97;\u7ecf\u6d4e\u578b\u8fde\u9501\u9152\u5e97", "pty": "1001"}}, {"type": "Feature", "geometry": {"type": "Point", "coordinates": [121.44465830857018, 31.238620726276732]}, "properties": {"name": "\u6c49\u5ead\u9152\u5e97(\u4e0a\u6d77\u6c5f\u5b81\u8def\u65b0\u5e97)", "biz": "100105 \u4f4f\u5bbf\u670d\u52a1;\u5bbe\u9986\u9152\u5e97;\u7ecf\u6d4e\u578b\u8fde\u9501\u9152\u5e97", "pty": "1001"}}, {"type": "Feature", "geometry": {"type": "Point", "coordinates": [121.45346203709633, 31.24983666196085]}, "properties": {"name": "\u6c49\u5ead\u9152\u5e97(\u4e0a\u6d77\u706b\u8f66\u7ad9\u5e97)", "biz": "100105 \u4f4f\u5bbf\u670d\u52a1;\u5bbe\u9986\u9152\u5e97;\u7ecf\u6d4e\u578b\u8fde\u9501\u9152\u5e97", "pty": "1001"}}, {"type": "Feature", "geometry": {"type": "Point", "coordinates": [121.45971072000525, 31.252356520410657]}, "properties": {"name": "\u5e03\u4e01\u9152\u5e97(\u4e0a\u6d77\u706b\u8f66\u7ad9\u5317\u5e7f\u573a\u5e97)", "biz": "100105 \u4f4f\u5bbf\u670d\u52a1;\u5bbe\u9986\u9152\u5e97;\u7ecf\u6d4e\u578b\u8fde\u9501\u9152\u5e97", "pty": "1001"}}, {"type": "Feature", "geometry": {"type": "Point", "coordinates": [121.44742146788279, 31.315181364499367]}, "properties": {"name": "99\u65c5\u9986(\u5f6d\u6d66\u65b0\u6751\u5730\u94c1\u7ad9\u5e97)", "biz": "100105 \u4f4f\u5bbf\u670d\u52a1;\u5bbe\u9986\u9152\u5e97;\u7ecf\u6d4e\u578b\u8fde\u9501\u9152\u5e97", "pty": "1001"}}, {"type": "Feature", "geometry": {"type": "Point", "coordinates": [121.46565794691317, 31.264087639933848]}, "properties": {"name": "\u6d77\u53cb\u9152\u5e97(\u4e0a\u6d77\u897f\u85cf\u5317\u8def\u5e97)", "biz": "100105 \u4f4f\u5bbf\u670d\u52a1;\u5bbe\u9986\u9152\u5e97;\u7ecf\u6d4e\u578b\u8fde\u9501\u9152\u5e97", "pty": "1001"}}, {"type": "Feature", "geometry": {"type": "Point", "coordinates": [121.44759904489352, 31.26747200765803]}, "properties": {"name": "\u6c49\u5ead\u9152\u5e97(\u4e0a\u6d77\u95f8\u5317\u516c\u56ed\u5e97)", "biz": "100105 \u4f4f\u5bbf\u670d\u52a1;\u5bbe\u9986\u9152\u5e97;\u7ecf\u6d4e\u578b\u8fde\u9501\u9152\u5e97", "pty": "1001"}}, {"type": "Feature", "geometry": {"type": "Point", "coordinates": [121.46910486008034, 31.25388632654667]}, "properties": {"name": "\u5f17\u601d\u7279\u9152\u5e97(\u5b9d\u5c71\u8def\u5730\u94c1\u7ad9\u5e97)", "biz": "100105 \u4f4f\u5bbf\u670d\u52a1;\u5bbe\u9986\u9152\u5e97;\u7ecf\u6d4e\u578b\u8fde\u9501\u9152\u5e97", "pty": "1001"}}, {"type": "Feature", "geometry": {"type": "Point", "coordinates": [121.4750590216833, 31.260834791386284]}, "properties": {"name": "\u5e03\u4e01\u9152\u5e97(\u4e0a\u6d77\u5317\u5916\u6ee9\u4e1c\u5b9d\u5174\u8def\u5730\u94c1\u7ad9\u5e97)", "biz": "100105 \u4f4f\u5bbf\u670d\u52a1;\u5bbe\u9986\u9152\u5e97;\u7ecf\u6d4e\u578b\u8fde\u9501\u9152\u5e97", "pty": "1001"}}, {"type": "Feature", "geometry": {"type": "Point", "coordinates": [121.44927427525018, 31.256486356733014]}, "properties": {"name": "7\u5929\u9152\u5e97(\u4e0a\u6d77\u706b\u8f66\u7ad9\u5e97)", "biz": "100105 \u4f4f\u5bbf\u670d\u52a1;\u5bbe\u9986\u9152\u5e97;\u7ecf\u6d4e\u578b\u8fde\u9501\u9152\u5e97", "pty": "1001"}}, {"type": "Feature", "geometry": {"type": "Point", "coordinates": [121.44323003902622, 31.237365473084928]}, "properties": {"name": "\u5982\u5bb6\u5feb\u6377\u9152\u5e97(\u4e0a\u6d77\u9759\u5b89\u9655\u897f\u8def\u5e97)", "biz": "100105 \u4f4f\u5bbf\u670d\u52a1;\u5bbe\u9986\u9152\u5e97;\u7ecf\u6d4e\u578b\u8fde\u9501\u9152\u5e97", "pty": "1001"}}, {"type": "Feature", "geometry": {"type": "Point", "coordinates": [121.44757383427498, 31.257608229565367]}, "properties": {"name": "\u83ab\u6cf0168\u65c5\u5e97(\u4e0a\u6d77\u706b\u8f66\u7ad9\u5317\u5e7f\u573a\u5ba2\u8fd0\u603b\u7ad9\u5e97)", "biz": "100105 \u4f4f\u5bbf\u670d\u52a1;\u5bbe\u9986\u9152\u5e97;\u7ecf\u6d4e\u578b\u8fde\u9501\u9152\u5e97", "pty": "1001"}}, {"type": "Feature", "geometry": {"type": "Point", "coordinates": [121.44182177768404, 31.2375756634267]}, "properties": {"name": "\u83ab\u6cf0\u9152\u5e97(\u4e0a\u6d77\u660c\u5e73\u8def\u5730\u94c1\u7ad9\u5e97)", "biz": "100105 \u4f4f\u5bbf\u670d\u52a1;\u5bbe\u9986\u9152\u5e97;\u7ecf\u6d4e\u578b\u8fde\u9501\u9152\u5e97", "pty": "1001"}}, {"type": "Feature", "geometry": {"type": "Point", "coordinates": [121.4608090020369, 31.264006169361096]}, "properties": {"name": "99\u65c5\u9986(\u4e0a\u6d77\u897f\u85cf\u5317\u8def\u5e97)", "biz": "100105 \u4f4f\u5bbf\u670d\u52a1;\u5bbe\u9986\u9152\u5e97;\u7ecf\u6d4e\u578b\u8fde\u9501\u9152\u5e97", "pty": "1001"}},