{"type": "FeatureCollection", "features": [{"type": "Feature", "geometry": {"type": "Point", "coordinates": [121.45694476854761, 31.16933562053101]}, "properties": {"name": "\u897f\u5cb8\u827a\u672f\u4e2d\u5fc3", "cnt": 176, "location": "121.461500,31.167394"}}, {"type": "Feature", "geometry": {"type": "Point", "coordinates": [121.39757196686581, 31.204653253035854]}, "properties": {"name": "\u4e0a\u6d77\u4e16\u8d38\u5546\u57ce", "cnt": 127, "location": "121.402221,31.202805"}}, {"type": "Feature", "geometry": {"type": "Point", "coordinates": [121.44784637671573, 31.212988293599388]}, "properties": {"name": "\u4e1c\u753b\u5eca", "cnt": 92, "location": "121.452430,31.211089"}}, {"type": "Feature", "geometry": {"type": "Point", "coordinates": [121.48169255055166, 31.27627626707975]}, "properties": {"name": "\u6731\u5c7a\u77bb\u827a\u672f\u9986", "cnt": 90, "location": "121.486177,31.274318"}}, {"type": "Feature", "geometry": {"type": "Point", "coordinates": [121.47882464368568, 31.26381925171878]}, "properties": {"name": "\u4e0a\u6d77\u591a\u4f26\u73b0\u4ee3\u7f8e\u672f\u9986", "cnt": 86, "location": "121.483318,31.261864"}}, {"type": "Feature", "geometry": {"type": "Point", "coordinates": [121.49334016922708, 31.20369181758073]}, "properties": {"name": "\u4e0a\u6d77\u5f53\u4ee3\u827a\u672f\u535a\u7269\u9986", "cnt": 76, "location": "121.497777,31.201666"}}, {"type": "Feature", "geometry": {"type": "Point", "coordinates": [121.44711506294648, 31.206903685751943]}, "properties": {"name": "\u67ef\u6069\u753b\u5eca\uff08\u4e0a\u6d77\uff09", "cnt": 70, "location": "121.451700,31.205003"}}, {"type": "Feature", "geometry": {"type": "Point", "coordinates": [121.46910723068156, 31.226314874881627]}, "properties": {"name": "chi K11\u7f8e\u672f\u9986 (\u4e0a\u6d77)", "cnt": 68, "location": "121.473630,31.224370"}}, {"type": "Feature", "geometry": {"type": "Point", "coordinates": [121.4444809482627, 31.249441488348246]}, "properties": {"name": "\u4e94\u4e94\u753b\u5eca\uff08\u4e0a\u6d77\uff09", "cnt": 66, "location": "121.449076,31.247566"}}, {"type": "Feature", "geometry": {"type": "Point", "coordinates": [121.46609398149411, 31.233142620263354]}, "properties": {"name": "\u4e0a\u6d77\u7f8e\u672f\u9986", "cnt": 65, "location": "121.470627,31.231209"}}, {"type": "Feature", "geometry": {"type": "Point", "coordinates": [121.47466100302748, 31.18679940382631]}, "properties": {"name": "\u4e0a\u6d77\u6c11\u751f\u73b0\u4ee3\u7f8e\u672f\u9986", "cnt": 54, "location": "121.479162,31.184820"}}, {"type": "Feature", "geometry": {"type": "Point", "coordinates": [121.44435060893028, 31.249769082049244]}, "properties": {"name": "\u4e0a\u6d77\u5927\u5b66\u7f8e\u672f\u5b66\u966299\u521b\u610f\u4e2d\u5fc3", "cnt": 51, "location": "121.448946,31.247894"}}, {"type": "Feature", "geometry": {"type": "Point", "coordinates": [121.4444809482627, 31.249441488348246]}, "properties": {"name": "Vanguard \u753b\u5eca", "cnt": 49, "location": "121.449076,31.247566"}}, {"type": "Feature", "geometry": {"type": "Point", "coordinates": [121.44515255510399, 31.249524801665334]}, "properties": {"name": "\u5168\u6444\u5f71\u753b\u5eca", "cnt": 49, "location": "121.449746,31.247648"}}, {"type": "Feature", "geometry": {"type": "Point", "coordinates": [121.45961215390732, 31.18573581857735]}, "properties": {"name": "\u9f99\u7f8e\u672f\u9986\uff08\u897f\u5cb8\u9986\uff09", "cnt": 49, "location": "121.464161,31.183796"}}, {"type": "Feature", "geometry": {"type": "Point", "coordinates": [121.48635140731741, 31.236098635918985]}, "properties": {"name": "\u6caa\u7533\u753b\u5eca\uff08\u5916\u6ee9\u4e09\u53f7\uff09", "cnt": 45, "location": "121.490816,31.234109"}}, {"type": "Feature", "geometry": {"type": "Point", "coordinates": [121.48494049643601, 31.23502195752043]}, "properties": {"name": "\u5468\u56f4\u827a\u672f\u753b\u5eca", "cnt": 42, "location": "121.489410,31.233036"}}, {"type": "Feature", "geometry": {"type": "Point", "coordinates": [121.44454807176733, 31.249868432201755]}, "properties": {"name": "M\u827a\u672f\u7a7a\u95f4", "cnt": 36, "location": "121.449143,31.247993"}}, {"type": "Feature", "geometry": {"type": "Point", "coordinates": [121.55790081019158, 31.21112461301529]}, "properties": {"name": "\u4e0a\u6d77\u559c\u739b\u62c9\u96c5\u7f8e\u672f\u9986", "cnt": 36, "location": "121.562140,31.208940"}}, {"type": "Feature", "geometry": {"type": "Point", "coordinates": [121.44675108620041, 31.207712534940974]}, "properties": {"name": "Art Labor\u753b\u5eca", "cnt": 33, "location": "121.451337,31.205813"}}, {"type": "Feature", "geometry": {"type": "Point", "coordinates": [121.46846041487741, 31.234731219880224]}, "properties": {"name": "\u4e0a\u6d77\u5f53\u4ee3\u827a\u672f\u9986", "cnt": 33, "location": "121.472986,31.232792"}}, {"type": "Feature", "geometry": {"type": "Point", "coordinates": [121.48532138503688, 31.240424612219982]}, "properties": {"name": "\u5916\u6ee918\u53f7\u753b\u5eca\uff08\u4e0a\u6d77\uff09", "cnt": 32, "location": "121.489790,31.238440"}}, {"type": "Feature", "geometry": {"type": "Point", "coordinates": [121.44455705216852, 31.250343238648238]}, "properties": {"name": "\u89c6\u754c\u827a\u672f\u4e2d\u5fc3\uff082\u7a7a\u95f4\uff09", "cnt": 32, "location": "121.449152,31.248468"}}, {"type": "Feature", "geometry": {"type": "Point", "coordinates": [121.45681619076596, 31.21828508627107]}, "properties": {"name": "\u975e\u9752\u8ba1\u5212\uff08\u4e0a\u6d77\uff09", "cnt": 32, "location": "121.461376,31.216368"}}, {"type": "Feature", "geometry": {"type": "Point", "coordinates": [121.44546523919043, 31.25038005481389]}, "properties": {"name": "\u9999\u683c\u7eb3H\u7a7a\u95f4", "cnt": 32, "location": "121.450058,31.248503"}}, {"type": "Feature", "geometry": {"type": "Point", "coordinates": [121.48186981127384, 31.245323252443107]}, "properties": {"name": "\u827a\u672f+ \u4e0a\u6d77\u753b\u5eca", "cnt": 31, "location": "121.486351,31.243351"}}, {"type": "Feature", "geometry": {"type": "Point", "coordinates": [121.44439977734837, 31.24917744406474]}, "properties": {"name": "\u718f\u4f9d\u793e\u753b\u5eca\uff08\u4e0a\u6d77\uff09\uff08\u5df2\u642c\u8fc1\uff09", "cnt": 30, "location": "121.448995,31.247302"}}, {"type": "Feature", "geometry": {"type": "Point", "coordinates": [121.44439977734837, 31.24917744406474]}, "properties": {"name": "\u9999\u5730\u827a\u672f\u4e2d\u5fc3", "cnt": 30, "location": "121.448995,31.247302"}}, {"type": "Feature", "geometry": {"type": "Point", "coordinates": [121.44471845765419, 31.250125659068555]}, "properties": {"name": "\u9999\u683c\u7eb3\u753b\u5eca\uff08M50\uff09", "cnt": 30, "location": "121.449313,31.248250"}}, {"type": "Feature", "geometry": {"type": "Point", "coordinates": [121.44546523919043, 31.25038005481389]}, "properties": {"name": "\u4e0a\u6d77\u65b0\u65f6\u7ebf\u5a92\u4f53\u827a\u672f\u4e2d\u5fc3", "cnt": 29, "location": "121.450058,31.248503"}}, {"type": "Feature", "geometry": {"type": "Point", "coordinates": [121.44546523919043, 31.25038005481389]}, "properties": {"name": "\u516b\u5927\u753b\u5eca\uff08\u4e0a\u6d77\uff09", "cnt": 29, "location": "121.450058,31.248503"}}, {"type": "Feature", "geometry": {"type": "Point", "coordinates": [121.44526278371386, 31.249965828238278]}, "properties": {"name": "\u5929\u7ebf\u7a7a\u95f4", "cnt": 29, "location": "121.449856,31.248089"}}, {"type": "Feature", "geometry": {"type": "Point", "coordinates": [121.45750382534492, 31.233963414387773]}, "properties": {"name": "\u4e0a\u5348\u827a\u672f\u7a7a\u95f4", "cnt": 28, "location": "121.462063,31.232052"}}, {"type": "Feature", "geometry": {"type": "Point", "coordinates": [121.4830481221974, 31.243238642336056]}, "properties": {"name": "\u4e0a\u6d77\u5916\u6ee9\u7f8e\u672f\u9986", "cnt": 28, "location": "121.487525,31.241262"}}, {"type": "Feature", "geometry": {"type": "Point", "coordinates": [121.46846041487741, 31.234731219880224]}, "properties": {"name": "\u4e0a\u6d77\u5f53\u4ee3\u827a\u672f\u9986\u827a\u672f\u4ead\u53f0", "cnt": 27, "location": "121.472986,31.232792"}}, {"type": "Feature", "geometry": {"type": "Point", "coordinates": [121.44515255510399, 31.249524801665334]}, "properties": {"name": "\u4e00\u4e2a\u827a\u672f", "cnt": 26, "location": "121.449746,31.247648"}}, {"type": "Feature", "geometry": {"type": "Point", "coordinates": [121.44421828957991, 31.249819795919827]}, "properties": {"name": "\u4e0a\u6d77\u534e\u5e9c\u827a\u672f\u7a7a\u95f4", "cnt": 25, "location": "121.448814,31.247945"}}, {"type": "Feature", "geometry": {"type": "Point", "coordinates": [121.44433159216057, 31.249439191261366]}, "properties": {"name": "\u5176\u4ed6\u753b\u5eca\uff08\u4e0a\u6d77\u7a7a\u95f4\uff09", "cnt": 25, "location": "121.448927,31.247564"}}, {"type": "Feature", "geometry": {"type": "Point", "coordinates": [121.444054891406, 31.238379633002694]}, "properties": {"name": "M97\u753b\u5eca", "cnt": 24, "location": "121.448650,31.236500"}}, {"type": "Feature", "geometry": {"type": "Point", "coordinates": [121.44439977734837, 31.24917744406474]}, "properties": {"name": "S.O\u827a\u672f\u7a7a\u95f4\uff08\u4e0a\u6d77\uff09", "cnt": 24, "location": "121.448995,31.247302"}}, {"type": "Feature", "geometry": {"type": "Point", "coordinates": [121.53886026115273, 31.26669455119958]}, "properties": {"name": "Magda Danysz\u753b\u5eca\uff08\u4e0a\u6d77\uff09", "cnt": 23, "location": "121.543150,31.264572"}}, {"type": "Feature", "geometry": {"type": "Point", "coordinates": [121.44526278371386, 31.249965828238278]}, "properties": {"name": "J\u753b\u5eca", "cnt": 22, "location": "121.449856,31.248089"}}, {"type": "Feature", "geometry": {"type": "Point", "coordinates": [121.4408357687116, 31.21204777529593]}, "properties": {"name": "Leo Xu Projects", "cnt": 22, "location": "121.445436,31.210162"}}, {"type": "Feature", "geometry": {"type": "Point", "coordinates": [121.43372505246454, 31.212661215894528]}, "properties": {"name": "\u535a\u96c5\u73ca\u827a\u672f\u4e2d\u5fc3", "cnt": 22, "location": "121.438340,31.210788"}}, {"type": "Feature", "geometry": {"type": "Point", "coordinates": [121.46091879162188, 31.212142124225284]}, "properties": {"name": "\u53cc\u57ce\u73b0\u4ee3\u624b\u5de5\u827a\u672f\u9986", "cnt": 22, "location": "121.465466,31.210212"}}, {"type": "Feature", "geometry": {"type": "Point", "coordinates": [121.44305151475042, 31.25017234282177]}, "properties": {"name": "\u8499\u7530\u753b\u5eca", "cnt": 22, "location": "121.447650,31.248300"}}, {"type": "Feature", "geometry": {"type": "Point", "coordinates": [121.45768863603944, 31.17261174038591]}, "properties": {"name": "\u4f59\u5fb7\u8000\u7f8e\u672f\u9986", "cnt": 20, "location": "121.462242,31.170670"}}, {"type": "Feature", "geometry": {"type": "Point", "coordinates": [121.44546523919043, 31.25038005481389]}, "properties": {"name": "\u683c\u854a\u8389\u753b\u5eca", "cnt": 20, "location": "121.450058,31.248503"}}, {"type": "Feature", "geometry": {"type": "Point", "coordinates": [121.54367866244112, 31.310292325707174]}, "properties": {"name": "\u8bc1\u5927\u5f53\u4ee3\u827a\u672f\u7a7a\u95f4", "cnt": 20, "location": "121.547959,31.308177"}}, {"type": "Feature", "geometry": {"type": "Point", "coordinates": [121.44359885197876, 31.24951070859169]}, "properties": {"name": "\u827e\u53ef\u753b\u5eca\uff08\u4e0a\u6d77\uff09", "cnt": 19, "location": "121.448196,31.247637"}}, {"type": "Feature", "geometry": {"type": "Point", "coordinates": [121.44439977734837, 31.24917744406474]}, "properties": {"name": "\u89c6\u754c\u827a\u672f\u4e2d\u5fc3\uff081\u7a7a\u95f4\uff09", "cnt": 19, "location": "121.448995,31.247302"}}, {"type": "Feature", "geometry": {"type": "Point", "coordinates": [121.46551851234187, 31.217423463360284]}, "properties": {"name": "\u601d\u5357\u516c\u9986", "cnt": 17, "location": "121.470052,31.215484"}}, {"type": "Feature", "geometry": {"type": "Point", "coordinates": [121.45711471291634, 31.175678784821844]}, "properties": {"name": "\u6ca1\u9876\u753b\u5eca", "cnt": 17, "location": "121.461670,31.173740"}}, {"type": "Feature", "geometry": {"type": "Point", "coordinates": [121.402903984672, 31.17908454455327]}, "properties": {"name": "ARTWE\u865a\u62df\u7f8e\u672f\u9986", "cnt": 16, "location": "121.407550,31.177223"}}, {"type": "Feature", "geometry": {"type": "Point", "coordinates": [121.44255734836923, 31.25042727198284]}, "properties": {"name": "\u4e5d\u5341\u4e5d\u5ea6\u827a\u672f\u4e2d\u5fc3\uff08\u4e0a\u6d77\uff09", "cnt": 16, "location": "121.447157,31.248556"}}, {"type": "Feature", "geometry": {"type": "Point", "coordinates": [121.48365821217332, 31.243910130705608]}, "properties": {"name": "\u5fb7\u7389\u5802", "cnt": 16, "location": "121.488133,31.241932"}}, {"type": "Feature", "geometry": {"type": "Point", "coordinates": [121.4444809482627, 31.249441488348246]}, "properties": {"name": "\u82a5\u83dc\u7c7d\u7a7a\u95f4", "cnt": 16, "location": "121.449076,31.247566"}}, {"type": "Feature", "geometry": {"type": "Point", "coordinates": [121.44455705216852, 31.250343238648238]}, "properties": {"name": "Loftooo\u827a\u672f\u7a7a\u95f4", "cnt": 15, "location": "121.449152,31.248468"}}, {"type": "Feature", "geometry": {"type": "Point", "coordinates": [121.46857906395861, 31.24329863409625]}, "properties": {"name": "OCAT\u5f53\u4ee3\u827a\u672f\u4e2d\u5fc3\u4e0a\u6d77\u9986", "cnt": 15, "location": "121.473105,31.241363"}}, {"type": "Feature", "geometry": {"type": "Point", "coordinates": [121.44482576235424, 31.249582116945856]}, "properties": {"name": "Pantocrator Gallery", "cnt": 15, "location": "121.449420,31.247706"}}, {"type": "Feature", "geometry": {"type": "Point", "coordinates": [121.41943618314608, 31.200319889778058]}, "properties": {"name": "\u4e0a\u6d77\u827a\u535a\u753b\u5eca\u3010\u5df2\u642c\u8fc1\u3011", "cnt": 15, "location": "121.424072,31.198459"}}, {"type": "Feature", "geometry": {"type": "Point", "coordinates": [121.45916064628261, 31.211010279565617]}, "properties": {"name": "\u671b\u4e1c\u827a\u96c6", "cnt": 15, "location": "121.463713,31.209084"}}, {"type": "Feature", "geometry": {"type": "Point", "coordinates": [121.41494189384868, 31.206928755531504]}, "properties": {"name": "22\u753b\u5eca.\u65b0\u534e\u53cc\u7a7a\u95f4", "cnt": 14, "location": "121.419583,31.205075"}}, {"type": "Feature", "geometry": {"type": "Point", "coordinates": [121.44489593865083, 31.249495296895567]}, "properties": {"name": "\u7231\u666e\u751f\u5f71\u827a\u574a\uff08\u4e0a\u6d77\uff09", "cnt": 14, "location": "121.449490,31.247619"}}, {"type": "Feature", "geometry": {"type": "Point", "coordinates": [121.56986869637915, 31.21798701869846]}, "properties": {"name": "\u9f99\u7f8e\u672f\u9986\uff08\u6d66\u4e1c\u9986\uff09", "cnt": 14, "location": "121.574088,31.215790"}}, {"type": "Feature", "geometry": {"type": "Point", "coordinates": [121.43822145543467, 31.2079769960131]}, "properties": {"name": "C14\u753b\u5eca", "cnt": 13, "location": "121.442827,31.206094"}}, {"type": "Feature", "geometry": {"type": "Point", "coordinates": [121.44455705216852, 31.250343238648238]}, "properties": {"name": "\u7389\u8861\u827a\u672f\u4e2d\u5fc3", "cnt": 13, "location": "121.449152,31.248468"}}, {"type": "Feature", "geometry": {"type": "Point", "coordinates": [121.44489593865083, 31.249495296895567]}, "properties": {"name": "\u4e9a\u6d32\u5f53\u4ee3\u827a\u672f\u7a7a\u95f4", "cnt": 12, "location": "121.449490,31.247619"}}, {"type": "Feature", "geometry": {"type": "Point", "coordinates": [121.44455705216852, 31.250343238648238]}, "properties": {"name": "\u5019\u53f0\u753b\u5eca", "cnt": 12, "location": "121.449152,31.248468"}}, {"type": "Feature", "geometry": {"type": "Point", "coordinates": [121.41943618314608, 31.200319889778058]}, "properties": {"name": "\u51e4\u51f0\u827a\u90fd\u4e0a\u6d77\u7ea2\u574a\u827a\u672f\u7a7a\u95f4", "cnt": 12, "location": "121.424072,31.198459"}}, {"type": "Feature", "geometry": {"type": "Point", "coordinates": [121.47977124104372, 31.236626098048728]}, "properties": {"name": "\u6b4c\u5fb7\u5f00\u653e\u7a7a\u95f4", "cnt": 12, "location": "121.484259,31.234656"}}, {"type": "Feature", "geometry": {"type": "Point", "coordinates": [121.43509899365314, 31.19772268656385]}, "properties": {"name": "\u963f\u62c9\u91cc\u5965\u753b\u5eca\uff08\u4e0a\u6d77\uff09", "cnt": 12, "location": "121.439710,31.195840"}}, {"type": "Feature", "geometry": {"type": "Point", "coordinates": [121.44524686807121, 31.22541201991564]}, "properties": {"name": "Mao Space(\u9759\u5b89\u5609\u91cc\u4e2d\u5fc3)", "cnt": 11, "location": "121.449838,31.223524"}}, {"type": "Feature", "geometry": {"type": "Point", "coordinates": [121.44455705216852, 31.250343238648238]}, "properties": {"name": "\u4e09\u6708\u7a7a\u95f4", "cnt": 2, "location": "121.449152,31.248468"}}, {"type": "Feature", "geometry": {"type": "Point", "coordinates": [121.44455705216852, 31.250343238648238]}, "properties": {"name": "\u4e0a\u6d77\u4e1c\u5eca\u827a\u672f\u753b\u5eca", "cnt": 11, "location": "121.449152,31.248468"}}, {"type": "Feature", "geometry": {"type": "Point", "coordinates": [121.39564438397902, 31.200778238927665]}, "properties": {"name": "\u4e0a\u6d77\u6cb9\u753b\u96d5\u5851\u9662", "cnt": 11, "location": "121.400293,31.198928"}}, {"type": "Feature", "geometry": {"type": "Point", "coordinates": [121.58069720240982, 31.203861605638753]}, "properties": {"name": "\u5f20\u6c5f\u5f53\u4ee3\u827a\u672f\u9986", "cnt": 11, "location": "121.584903,31.201649"}}, {"type": "Feature", "geometry": {"type": "Point", "coordinates": [121.44833503141415, 31.208194639650486]}, "properties": {"name": "\u675c\u82e5\u4e91\u7ae0\u753b\u5eca\uff08\u4e0a\u6d77\uff09", "cnt": 11, "location": "121.452917,31.206292"}}, {"type": "Feature", "geometry": {"type": "Point", "coordinates": [121.44523269736942, 31.25012169782417]}, "properties": {"name": "\u827e\u53ef\u753b\u5eca\uff08\u4e0a\u6d772\uff09", "cnt": 11, "location": "121.449826,31.248245"}}, {"type": "Feature", "geometry": {"type": "Point", "coordinates": [121.46000333832649, 31.24367313513582]}, "properties": {"name": "ArtCN\u753b\u5eca", "cnt": 10, "location": "121.464556,31.241760"}}, {"type": "Feature", "geometry": {"type": "Point", "coordinates": [121.44421828957991, 31.249819795919827]}, "properties": {"name": "\u4f18\u4e0a\u827a\u672f\u7a7a\u95f4", "cnt": 10, "location": "121.448814,31.247945"}}, {"type": "Feature", "geometry": {"type": "Point", "coordinates": [121.44078441353771, 31.21483234630054]}, "properties": {"name": "\u5143\u753b\u5eca", "cnt": 10, "location": "121.445385,31.212948"}}, {"type": "Feature", "geometry": {"type": "Point", "coordinates": [121.41481137573847, 31.21149345295175]}, "properties": {"name": "\u5218\u6d77\u7c9f\u7f8e\u672f\u9986\uff08\u4e0a\u6d77\uff09", "cnt": 10, "location": "121.419453,31.209642"}}, {"type": "Feature", "geometry": {"type": "Point", "coordinates": [121.42674230267016, 31.140350910710083]}, "properties": {"name": "\u975e\u827a\u672f\u4e2d\u5fc3", "cnt": 10, "location": "121.431363,31.138451"}}, {"type": "Feature", "geometry": {"type": "Point", "coordinates": [121.44468547835447, 31.248972107409443]}, "properties": {"name": "1918\u827a\u672f\u7a7a\u95f4", "cnt": 9, "location": "121.449280,31.247096"}}, {"type": "Feature", "geometry": {"type": "Point", "coordinates": [121.48739635634375, 31.25689339996978]}, "properties": {"name": "1933\u5f53\u4ee3\u827a\u672f\u7a7a\u95f4", "cnt": 9, "location": "121.491859,31.254910"}}, {"type": "Feature", "geometry": {"type": "Point", "coordinates": [121.4586105502396, 31.169996333563034]}, "properties": {"name": "\u4e0a\u6d77\u6444\u5f71\u827a\u672f\u4e2d\u5fc3", "cnt": 9, "location": "121.463161,31.168051"}}, {"type": "Feature", "geometry": {"type": "Point", "coordinates": [121.44359885197876, 31.24951070859169]}, "properties": {"name": "\u4e1c\u4eac\u6f58\u753b\u5eca", "cnt": 9, "location": "121.448196,31.247637"}}, {"type": "Feature", "geometry": {"type": "Point", "coordinates": [121.54177260483016, 31.310347232181748]}, "properties": {"name": "\u6211\u4eec\u753b\u5eca", "cnt": 9, "location": "121.546058,31.308236"}}, {"type": "Feature", "geometry": {"type": "Point", "coordinates": [121.48934942282563, 31.232281307558562]}, "properties": {"name": "\u7498\u5b9d\u8f69", "cnt": 9, "location": "121.493803,31.230281"}}, {"type": "Feature", "geometry": {"type": "Point", "coordinates": [121.44265056485621, 31.250410459357006]}, "properties": {"name": "\u76c8\u827a\u672f\u4e2d\u5fc3", "cnt": 9, "location": "121.447250,31.248539"}}, {"type": "Feature", "geometry": {"type": "Point", "coordinates": [121.4581882342536, 31.170931818586507]}, "properties": {"name": "\u827e\u53ef\u753b\u5eca\uff08\u897f\u5cb8\uff09", "cnt": 9, "location": "121.462740,31.168988"}}, {"type": "Feature", "geometry": {"type": "Point", "coordinates": [121.44471845765419, 31.250125659068555]}, "properties": {"name": "\u9999\u683c\u7eb3F\u7a7a\u95f4", "cnt": 9, "location": "121.449313,31.248250"}}, {"type": "Feature", "geometry": {"type": "Point", "coordinates": [121.45921979308567, 31.1647565360819]}, "properties": {"name": "\u9999\u683c\u7eb3\u753b\u5eca\uff08\u897f\u5cb8\uff09", "cnt": 9, "location": "121.463768,31.162807"}}, {"type": "Feature", "geometry": {"type": "Point", "coordinates": [121.44526278371386, 31.249965828238278]}, "properties": {"name": "7\u827a\u672f\u4e2d\u5fc3", "cnt": 8, "location": "121.449856,31.248089"}}, {"type": "Feature", "geometry": {"type": "Point", "coordinates": [121.44255734836923, 31.25042727198284]}, "properties": {"name": "99\u00b0\u827a\u672f\u4e2d\u5fc3\uff08\u539fM50\u7a7a\u95f4\uff09", "cnt": 8, "location": "121.447157,31.248556"}}, {"type": "Feature", "geometry": {"type": "Point", "coordinates": [121.5974703118687, 31.205986814438557]}, "properties": {"name": "BETWEEN\u753b\u5eca", "cnt": 8, "location": "121.601669,31.203772"}}, {"type": "Feature", "geometry": {"type": "Point", "coordinates": [121.43234287422958, 31.20813324698954]}, "properties": {"name": "Big Space", "cnt": 8, "location": "121.436960,31.206260"}}, {"type": "Feature", "geometry": {"type": "Point", "coordinates": [121.44455705216852, 31.250343238648238]}, "properties": {"name": "Island6", "cnt": 8, "location": "121.449152,31.248468"}}, {"type": "Feature", "geometry": {"type": "Point", "coordinates": [121.43491458798782, 31.19824412861695]}, "properties": {"name": "Mao Space(\u8861\u5c71\u574a)", "cnt": 8, "location": "121.439526,31.196362"}}, {"type": "Feature", "geometry": {"type": "Point", "coordinates": [121.48494049643601, 31.23502195752043]}, "properties": {"name": "SNAP", "cnt": 8, "location": "121.489410,31.233036"}}, {"type": "Feature", "geometry": {"type": "Point", "coordinates": [121.43105265238258, 31.172440082175285]}, "properties": {"name": "\u5965\u6c99\u827a\u672f\u7a7a\u95f4\uff08\u4e0a\u6d77\uff09", "cnt": 8, "location": "121.435669,31.170551"}}, {"type": "Feature", "geometry": {"type": "Point", "coordinates": [121.44515255510399, 31.249524801665334]}, "properties": {"name": "\u5b9d\u80dc\u753b\u5eca\uff08\u4e0a\u6d77\uff09", "cnt": 8, "location": "121.449746,31.247648"}}, {"type": "Feature", "geometry": {"type": "Point", "coordinates": [121.44346577071823, 31.212150756467743]}, "properties": {"name": "\u5f90\u6c47\u827a\u672f\u9986", "cnt": 8, "location": "121.448060,31.210260"}}, {"type": "Feature", "geometry": {"type": "Point", "coordinates": [121.60537490278656, 31.19390202997404]}, "properties": {"name": "\u60e0\u751f\u827a\u672f\u4e2d\u5fc3", "cnt": 8, "location": "121.609574,31.191684"}}, {"type": "Feature", "geometry": {"type": "Point", "coordinates": [121.45381631210114, 31.292732269104977]}, "properties": {"name": "\u660e\u5f53\u4ee3\u7f8e\u672f\u9986", "cnt": 8, "location": "121.458391,31.290855"}}, {"type": "Feature", "geometry": {"type": "Point", "coordinates": [121.37472714818855, 31.28003023918337]}, "properties": {"name": "\u6843\u6d66\u5f53\u4ee3\u827a\u672f\u4e2d\u5fc3", "cnt": 8, "location": "121.379370,31.278205"}}, {"type": "Feature", "geometry": {"type": "Point", "coordinates": [121.4775937719373, 31.236122054975834]}, "properties": {"name": "\u6fc0\u70c8\u7a7a\u95f4", "cnt": 8, "location": "121.482089,31.234158"}}, {"type": "Feature", "geometry": {"type": "Point", "coordinates": [121.45027219019877, 31.21812308206285]}, "properties": {"name": "\u897f\u827a\u753b\u5eca", "cnt": 8, "location": "121.454850,31.216221"}}, {"type": "Feature", "geometry": {"type": "Point", "coordinates": [121.44029406878198, 31.20627155844683]}, "properties": {"name": "O.Gallery", "cnt": 7, "location": "121.444895,31.204384"}}, {"type": "Feature", "geometry": {"type": "Point", "coordinates": [121.45694476854761, 31.16933562053101]}, "properties": {"name": "\u4e54\u7a7a\u95f4", "cnt": 7, "location": "121.461500,31.167394"}}, {"type": "Feature", "geometry": {"type": "Point", "coordinates": [121.45605031207928, 31.226286483480422]}, "properties": {"name": "\u5b89\u6770\u5f53\u4ee3\u827a\u672f\u753b\u5eca", "cnt": 7, "location": "121.460613,31.224375"}}, {"type": "Feature", "geometry": {"type": "Point", "coordinates": [121.44421828957991, 31.249819795919827]}, "properties": {"name": "\u827a\u672f\u666f\u4e0a\u6d77", "cnt": 7, "location": "121.448814,31.247945"}}, {"type": "Feature", "geometry": {"type": "Point", "coordinates": [121.49075101375874, 31.2491238379655]}, "properties": {"name": "99\u00b0\u827a\u672f\u4e2d\u5fc3", "cnt": 6, "location": "121.495201,31.247127"}}, {"type": "Feature", "geometry": {"type": "Point", "coordinates": [121.44512345572305, 31.2498605930874]}, "properties": {"name": "Cc\u57fa\u91d1\u4f1a", "cnt": 6, "location": "121.449717,31.247984"}}, {"type": "Feature", "geometry": {"type": "Point", "coordinates": [121.444054891406, 31.238379633002694]}, "properties": {"name": "M97\u9879\u76ee\u7a7a\u95f4", "cnt": 6, "location": "121.448650,31.236500"}}, {"type": "Feature", "geometry": {"type": "Point", "coordinates": [121.46842755577474, 31.24351512682745]}, "properties": {"name": "OCAT\u4e0a\u6d77\u9986", "cnt": 6, "location": "121.472954,31.241580"}}, {"type": "Feature", "geometry": {"type": "Point", "coordinates": [121.45429438239154, 31.21453790116865]}, "properties": {"name": "\u4e0a\u6d77\u660e\u5706\u7f8e\u672f\u9986", "cnt": 6, "location": "121.458861,31.212625"}}, {"type": "Feature", "geometry": {"type": "Point", "coordinates": [121.4893414010775, 31.18506607541634]}, "properties": {"name": "\u4e2d\u534e\u827a\u672f\u5bab", "cnt": 6, "location": "121.493791,31.183043"}}, {"type": "Feature", "geometry": {"type": "Point", "coordinates": [121.44489593865083, 31.249495296895567]}, "properties": {"name": "\u4e3a\u753b\u5eca", "cnt": 6, "location": "121.449490,31.247619"}}, {"type": "Feature", "geometry": {"type": "Point", "coordinates": [121.48698822314107, 31.217849046571487]}, "properties": {"name": "\u4ec1\u5e90\u7a7a\u95f4", "cnt": 6, "location": "121.491449,31.215849"}}, {"type": "Feature", "geometry": {"type": "Point", "coordinates": [121.4381127959459, 31.23604657624539]}, "properties": {"name": "\u539f\u66f2\u753b\u5eca", "cnt": 6, "location": "121.442721,31.234177"}}, {"type": "Feature", "geometry": {"type": "Point", "coordinates": [121.45429438239154, 31.21453790116865]}, "properties": {"name": "\u660e\u5706\u6587\u5316\u827a\u672f\u4e2d\u5fc3", "cnt": 6, "location": "121.458861,31.212625"}}, {"type": "Feature", "geometry": {"type": "Point", "coordinates": [121.45222254363681, 31.285870408330993]}, "properties": {"name": "\u6d77\u4e0a\u6587\u5316\u4e2d\u5fc3", "cnt": 6, "location": "121.456801,31.283994"}}, {"type": "Feature", "geometry": {"type": "Point", "coordinates": [121.48660705190471, 31.297921889966865]}, "properties": {"name": "\u745e\u8c61\u9986", "cnt": 6, "location": "121.491076,31.295958"}}, {"type": "Feature", "geometry": {"type": "Point", "coordinates": [121.41845303284187, 31.200639799798626]}, "properties": {"name": "\u89c6\u5e73\u7ebf\u753b\u5eca\uff08\u4e0a\u6d77\uff09", "cnt": 6, "location": "121.423090,31.198780"}}, {"type": "Feature", "geometry": {"type": "Point", "coordinates": [121.45000332734273, 31.208357169600962]}, "properties": {"name": "\u96e8\u8679\u753b\u5eca", "cnt": 6, "location": "121.454581,31.206451"}}, {"type": "Feature", "geometry": {"type": "Point", "coordinates": [121.49518503363079, 31.23647084137084]}, "properties": {"name": "\u9707\u65e6\u535a\u7269\u9986", "cnt": 6, "location": "121.499618,31.234455"}}, {"type": "Feature", "geometry": {"type": "Point", "coordinates": [121.50487098623643, 31.305827324154617]}, "properties": {"name": "Homeless\u753b\u5eca", "cnt": 5, "location": "121.509275,31.303812"}}, {"type": "Feature", "geometry": {"type": "Point", "coordinates": [121.44496408137906, 31.249742324032084]}, "properties": {"name": "M50\u827a\u672f\u7a7a\u95f4", "cnt": 5, "location": "121.449558,31.247866"}}, {"type": "Feature", "geometry": {"type": "Point", "coordinates": [121.43301046383628, 31.203984287823296]}, "properties": {"name": "Mao Space (\u5929\u5e73\u8def)", "cnt": 5, "location": "121.437626,31.202108"}}, {"type": "Feature", "geometry": {"type": "Point", "coordinates": [121.47466100302748, 31.18679940382631]}, "properties": {"name": "\u4e0a\u6d77\u4e8c\u5341\u4e00\u4e16\u7eaa\u6c11\u751f\u7f8e\u672f\u9986", "cnt": 5, "location": "121.479162,31.184820"}}, {"type": "Feature", "geometry": {"type": "Point", "coordinates": [121.39779936293112, 31.223091429796472]}, "properties": {"name": "\u4e0a\u6d77\u5965\u8d5b\u753b\u5eca", "cnt": 5, "location": "121.402450,31.221252"}}, {"type": "Feature", "geometry": {"type": "Point", "coordinates": [121.49455668703904, 31.237454507234563]}, "properties": {"name": "\u4e0a\u6d77\u6d66\u4e1c\u9999\u683c\u91cc\u62c9\u5927\u9152\u5e97", "cnt": 5, "location": "121.498992,31.235441"}}, {"type": "Feature", "geometry": {"type": "Point", "coordinates": [121.41943618314608, 31.200319889778058]}, "properties": {"name": "\u4e1c\u5927\u540d\u521b\u5e93", "cnt": 5, "location": "121.424072,31.198459"}}, {"type": "Feature", "geometry": {"type": "Point", "coordinates": [121.44455705216852, 31.250343238648238]}, "properties": {"name": "\u516d\u5c9b\u827a\u672f\u4e2d\u5fc3", "cnt": 5, "location": "121.449152,31.248468"}}, {"type": "Feature", "geometry": {"type": "Point", "coordinates": [121.48934942282563, 31.232281307558562]}, "properties": {"name": "\u5916\u6ee9\u4e8c\u5341\u4e8c\u53f7\u753b\u5eca", "cnt": 5, "location": "121.493803,31.230281"}}, {"type": "Feature", "geometry": {"type": "Point", "coordinates": [121.38375376621882, 31.19231650233166]}, "properties": {"name": "\u5927\u70df\u56f1\u827a\u672f\u4e2d\u5fc3", "cnt": 5, "location": "121.388397,31.190458"}}, {"type": "Feature", "geometry": {"type": "Point", "coordinates": [121.44523269736942, 31.25012169782417]}, "properties": {"name": "\u592a\u9633\u8679\u753b\u5eca", "cnt": 5, "location": "121.449826,31.248245"}}, {"type": "Feature", "geometry": {"type": "Point", "coordinates": [121.52099876646498, 31.29604939920347]}, "properties": {"name": "\u5fb7\u4f73\u827a\u672f\u7a7a\u95f4", "cnt": 5, "location": "121.525346,31.293984"}}, {"type": "Feature", "geometry": {"type": "Point", "coordinates": [121.48487077231617, 31.240631187651722]}, "properties": {"name": "\u65af\u6c83\u742a\u548c\u5e73\u996d\u5e97\u827a\u672f\u4e2d\u5fc3", "cnt": 5, "location": "121.489341,31.238648"}}, {"type": "Feature", "geometry": {"type": "Point", "coordinates": [121.40797828297713, 31.165864050298012]}, "properties": {"name": "\u827a\u901a\u4f70\u901a\u827a\u672f\u4e2d\u5fc3", "cnt": 5, "location": "121.412621,31.163994"}}, {"type": "Feature", "geometry": {"type": "Point", "coordinates": [121.48001202704666, 31.23720652992427]}, "properties": {"name": "9\u5e73\u7c73\u7f8e\u672f\u9986", "cnt": 4, "location": "121.484499,31.235236"}}, {"type": "Feature", "geometry": {"type": "Point", "coordinates": [121.43588647074728, 31.198654531338747]}, "properties": {"name": "Jewelvary Art and Boutique", "cnt": 4, "location": "121.440496,31.196771"}}, {"type": "Feature", "geometry": {"type": "Point", "coordinates": [121.4444809482627, 31.249441488348246]}, "properties": {"name": "Liang Project  Co Space", "cnt": 4, "location": "121.449076,31.247566"}}, {"type": "Feature", "geometry": {"type": "Point", "coordinates": [121.45364740584846, 31.228285913582596]}, "properties": {"name": "Office339", "cnt": 4, "location": "121.458217,31.226381"}}, {"type": "Feature", "geometry": {"type": "Point", "coordinates": [121.43293013702939, 31.20603416691393]}, "properties": {"name": "Shirley\u2019s Temple-Art", "cnt": 4, "location": "121.437546,31.204159"}}, {"type": "Feature", "geometry": {"type": "Point", "coordinates": [121.52050013629922, 31.295678180785867]}, "properties": {"name": "\u4e0a\u6d77800\u53f7\u7f8e\u672f\u9986", "cnt": 4, "location": "121.524849,31.293614"}}, {"type": "Feature", "geometry": {"type": "Point", "coordinates": [121.4444809482627, 31.249441488348246]}, "properties": {"name": "\u4e0a\u6d77ADA\u827a\u672f\u7a7a\u95f4", "cnt": 4, "location": "121.449076,31.247566"}}, {"type": "Feature", "geometry": {"type": "Point", "coordinates": [121.43345861285835, 31.21193214539386]}, "properties": {"name": "\u4e0a\u6d77\u5723\u83f1\u753b\u5eca", "cnt": 4, "location": "121.438074,31.210059"}}, {"type": "Feature", "geometry": {"type": "Point", "coordinates": [121.31032436114879, 31.261670123214227]}, "properties": {"name": "\u4e0a\u6d77\u68a7\u6850\u7f8e\u672f\u9986", "cnt": 4, "location": "121.314840,31.259731"}}, {"type": "Feature", "geometry": {"type": "Point", "coordinates": [121.40800733869243, 31.234328545903267]}, "properties": {"name": "\u4e0a\u6d77\u73af\u7403\u6e2f\u7f8e\u672f\u9986", "cnt": 4, "location": "121.412656,31.232492"}}, {"type": "Feature", "geometry": {"type": "Point", "coordinates": [121.4733230830002, 31.21519875130805]}, "properties": {"name": "\u534a\u7a7a\u95f4\u827a\u672f\u9986", "cnt": 4, "location": "121.477831,31.213237"}}, {"type": "Feature", "geometry": {"type": "Point", "coordinates": [121.419536247591, 31.200925690537414]}, "properties": {"name": "\u534e\u6c0f\u753b\u5eca", "cnt": 4, "location": "121.424172,31.199065"}}, {"type": "Feature", "geometry": {"type": "Point", "coordinates": [121.46476480111713, 31.209791137339682]}, "properties": {"name": "\u5357\u5e0c\u827a\u672f\u753b\u5eca", "cnt": 4, "location": "121.469300,31.207850"}}, {"type": "Feature", "geometry": {"type": "Point", "coordinates": [121.48582923186365, 31.251628078620598]}, "properties": {"name": "\u539f\u5883\u754c\u7f8e\u672f\u9986", "cnt": 4, "location": "121.490297,31.249647"}}, {"type": "Feature", "geometry": {"type": "Point", "coordinates": [121.50210219429084, 31.221525493850102]}, "properties": {"name": "\u60ac\u6d6e@\u8001\u7801\u5934", "cnt": 4, "location": "121.506509,31.219482"}}, {"type": "Feature", "geometry": {"type": "Point", "coordinates": [121.45627803548203, 31.225422431077483]}, "properties": {"name": "\u641e\u827a\u672f\u753b\u5eca", "cnt": 4, "location": "121.460840,31.223510"}}, {"type": "Feature", "geometry": {"type": "Point", "coordinates": [121.40900325511028, 31.196076278796124]}, "properties": {"name": "\u6566\u714c\u827a\u672f\u4e2d\u5fc3", "cnt": 4, "location": "121.413648,31.194221"}}, {"type": "Feature", "geometry": {"type": "Point", "coordinates": [121.28045113045783, 31.07074042286144]}, "properties": {"name": "\u65b0\u6865\u7f8e\u672f\u9986", "cnt": 4, "location": "121.284893,31.068656"}}, {"type": "Feature", "geometry": {"type": "Point", "coordinates": [121.49075101375874, 31.2491238379655]}, "properties": {"name": "\u6f3e\u4e0a\u6d77\u827a\u672f\u7a7a\u95f4001", "cnt": 4, "location": "121.495201,31.247127"}}, {"type": "Feature", "geometry": {"type": "Point", "coordinates": [121.44700028276173, 31.212621689871305]}, "properties": {"name": "\u718f\u4f9d\u793e\u753b\u5eca\uff08\u4e0a\u6d77\uff09", "cnt": 4, "location": "121.451586,31.210724"}}, {"type": "Feature", "geometry": {"type": "Point", "coordinates": [121.3994654440021, 31.200441374500723]}, "properties": {"name": "\u7ea2\u6865\u753b\u5eca", "cnt": 4, "location": "121.404114,31.198591"}}, {"type": "Feature", "geometry": {"type": "Point", "coordinates": [121.44460422567346, 31.249642645293015]}, "properties": {"name": "\u8981\u7a7a\u95f4", "cnt": 4, "location": "121.449199,31.247767"}}, {"type": "Feature", "geometry": {"type": "Point", "coordinates": [121.48032951896364, 31.267805890597835]}, "properties": {"name": "\u9999\u74dc\u4fa0\u516c\u793e", "cnt": 4, "location": "121.484818,31.265848"}}, {"type": "Feature", "geometry": {"type": "Point", "coordinates": [121.43791442416652, 31.223990824294333]}, "properties": {"name": "\u9cb2\u9ca4\u56fd\u9645\u5f71\u5eca", "cnt": 4, "location": "121.442522,31.222116"}}, {"type": "Feature", "geometry": {"type": "Point", "coordinates": [121.3694489393221, 31.183007475568843]}, "properties": {"name": "\u9f0e\u827a\u4f1a", "cnt": 4, "location": "121.374077,31.181132"}}, {"type": "Feature", "geometry": {"type": "Point", "coordinates": [121.44439977734837, 31.24917744406474]}, "properties": {"name": "203\u827a\u672f\u7a7a\u95f4", "cnt": 3, "location": "121.448995,31.247302"}}, {"type": "Feature", "geometry": {"type": "Point", "coordinates": [121.54331170076125, 31.310290552042442]}, "properties": {"name": "K\u00e8 F\u00e1ng Art Space", "cnt": 3, "location": "121.547593,31.308176"}}, {"type": "Feature", "geometry": {"type": "Point", "coordinates": [121.41943618314608, 31.200319889778058]}, "properties": {"name": "\u4e0a\u6d77\u57ce\u5e02\u96d5\u5851\u827a\u672f\u4e2d\u5fc3", "cnt": 3, "location": "121.424072,31.198459"}}, {"type": "Feature", "geometry": {"type": "Point", "coordinates": [121.46733728145844, 31.345557395109502]}, "properties": {"name": "\u4e0a\u6d77\u73bb\u7483\u535a\u7269\u9986", "cnt": 3, "location": "121.471876,31.343666"}}, {"type": "Feature", "geometry": {"type": "Point", "coordinates": [121.45711471291634, 31.175678784821844]}, "properties": {"name": "\u4e1c\u753b\u5eca\uff08\u897f\u5cb8\uff09", "cnt": 3, "location": "121.461670,31.173740"}}, {"type": "Feature", "geometry": {"type": "Point", "coordinates": [121.54474885859166, 31.269234226283942]}, "properties": {"name": "\u4ea6\u5b89\u753b\u5eca\uff08\u4e0a\u6d77\uff09", "cnt": 3, "location": "121.549023,31.267100"}}, {"type": "Feature", "geometry": {"type": "Point", "coordinates": [121.62266230946493, 31.2151741634428]}, "properties": {"name": "\u5176\u4ed6\u753b\u5eca\uff08\u4e0a\u6d772\u7a7a\u95f4\uff09", "cnt": 3, "location": "121.626876,31.212981"}}, {"type": "Feature", "geometry": {"type": "Point", "coordinates": [121.41685505375146, 31.203668895254904]}, "properties": {"name": "\u517c\u5bb9\u7684\u76d2\u5b50", "cnt": 3, "location": "121.421494,31.201812"}}, {"type": "Feature", "geometry": {"type": "Point", "coordinates": [121.55749296207044, 31.211486797835878]}, "properties": {"name": "\u559c\u739b\u7a7a\u95f4", "cnt": 3, "location": "121.561733,31.209303"}}, {"type": "Feature", "geometry": {"type": "Point", "coordinates": [121.46722033624974, 31.212484340521105]}, "properties": {"name": "\u58f9\u53f7\u7f8e\u672f\u9986", "cnt": 3, "location": "121.471748,31.210538"}}, {"type": "Feature", "geometry": {"type": "Point", "coordinates": [121.49280319469719, 31.22780171177714]}, "properties": {"name": "\u590d\u661f\u827a\u672f\u4e2d\u5fc3", "cnt": 3, "location": "121.497244,31.225789"}}, {"type": "Feature", "geometry": {"type": "Point", "coordinates": [121.44265056485621, 31.250410459357006]}, "properties": {"name": "\u65b0\u6ce2\u753b\u5eca", "cnt": 3, "location": "121.447250,31.248539"}}, {"type": "Feature", "geometry": {"type": "Point", "coordinates": [121.45566002260729, 31.216779041385728]}, "properties": {"name": "\u6625\u5929\u753b\u5eca", "cnt": 3, "location": "121.460223,31.214864"}}, {"type": "Feature", "geometry": {"type": "Point", "coordinates": [121.4577730755644, 31.17034810561914]}, "properties": {"name": "\u6c60\u793e", "cnt": 3, "location": "121.462326,31.168405"}}, {"type": "Feature", "geometry": {"type": "Point", "coordinates": [121.44313671753478, 31.25012153142712]}, "properties": {"name": "\u6cc9\u6c34\u8fb9\u753b\u5eca", "cnt": 3, "location": "121.447735,31.248249"}}, {"type": "Feature", "geometry": {"type": "Point", "coordinates": [121.49675136411922, 31.25197354257535]}, "properties": {"name": "\u7f8e\u4e3d\u9053\u56fd\u9645\u827a\u672f\u673a\u6784", "cnt": 3, "location": "121.501180,31.249960"}}, {"type": "Feature", "geometry": {"type": "Point", "coordinates": [121.43696628117385, 31.21451866981013]}, "properties": {"name": "\u80f6\u56ca\u4e0a\u6d77", "cnt": 3, "location": "121.441575,31.212641"}}, {"type": "Feature", "geometry": {"type": "Point", "coordinates": [121.35202613940186, 31.159454508005975]}, "properties": {"name": "\u8a00\u5348\u753b\u5eca", "cnt": 3, "location": "121.356624,31.157543"}}, {"type": "Feature", "geometry": {"type": "Point", "coordinates": [121.45095772522265, 31.221321084163023]}, "properties": {"name": "\u8d39\u5386\u5c3c\u753b\u5eca", "cnt": 3, "location": "121.455534,31.219419"}}, {"type": "Feature", "geometry": {"type": "Point", "coordinates": [121.46247173265692, 31.20948834589187]}, "properties": {"name": "\u9876\u76db\u7f8e\u672f\u9986", "cnt": 3, "location": "121.467014,31.207553"}}, {"type": "Feature", "geometry": {"type": "Point", "coordinates": [121.46485544573777, 31.217241807488126]}, "properties": {"name": "\u9f99\u95e8\u96c5\u96c6\uff08\u5df2\u642c\u8fc1\uff09", "cnt": 3, "location": "121.469391,31.215304"}}, {"type": "Feature", "geometry": {"type": "Point", "coordinates": [121.48739635634375, 31.25689339996978]}, "properties": {"name": "1933\u8001\u573a\u574a", "cnt": 2, "location": "121.491859,31.254910"}}, {"type": "Feature", "geometry": {"type": "Point", "coordinates": [121.42094351376903, 31.136822045704744]}, "properties": {"name": "90\u827a\u672f\u4e2d\u5fc3", "cnt": 2, "location": "121.425572,31.134927"}}, {"type": "Feature", "geometry": {"type": "Point", "coordinates": [121.44388426405922, 31.20626342094268]}, "properties": {"name": "A-PIECE", "cnt": 2, "location": "121.448477,31.204369"}}, {"type": "Feature", "geometry": {"type": "Point", "coordinates": [121.50076814653823, 31.21272070227192]}, "properties": {"name": "Amanasalto", "cnt": 2, "location": "121.505179,31.210677"}}, {"type": "Feature", "geometry": {"type": "Point", "coordinates": [121.41894984723484, 31.20922609247932]}, "properties": {"name": "CANART\u5f53\u4ee3\u827a\u672f\u673a\u6784", "cnt": 2, "location": "121.423587,31.207370"}}, {"type": "Feature", "geometry": {"type": "Point", "coordinates": [121.45694476854761, 31.16933562053101]}, "properties": {"name": "\u5927\u5e93\u827a\u672f\u7a7a\u95f4", "cnt": 2, "location": "121.461500,31.167394"}}, {"type": "Feature", "geometry": {"type": "Point", "coordinates": [121.4577730755644, 31.17034810561914]}, "properties": {"name": "Fab Union Space", "cnt": 2, "location": "121.462326,31.168405"}}, {"type": "Feature", "geometry": {"type": "Point", "coordinates": [121.52028037248097, 31.29603343489501]}, "properties": {"name": "KING\u7a7a\u95f4", "cnt": 2, "location": "121.524630,31.293970"}}, {"type": "Feature", "geometry": {"type": "Point", "coordinates": [121.43363008702849, 31.21019025321401]}, "properties": {"name": "REFORMERart", "cnt": 2, "location": "121.438245,31.208316"}}, {"type": "Feature", "geometry": {"type": "Point", "coordinates": [121.45887514206413, 31.183803965472087]}, "properties": {"name": "SSSSTART", "cnt": 2, "location": "121.463426,31.181865"}}, {"type": "Feature", "geometry": {"type": "Point", "coordinates": [121.45730172442815, 31.170184046371173]}, "properties": {"name": "V\u7a7a\u95f4-\u4e0a\u6d77", "cnt": 2, "location": "121.461856,31.168242"}}, {"type": "Feature", "geometry": {"type": "Point", "coordinates": [121.4240954165517, 31.22074306357455]}, "properties": {"name": "\u5b66\u53e4\u658b\u753b\u5eca", "cnt": 15, "location": "121.428727,31.218887"}}, {"type": "Feature", "geometry": {"type": "Point", "coordinates": [121.4240954165517, 31.22074306357455]}, "properties": {"name": "WhyWhyArt", "cnt": 2, "location": "121.428727,31.218887"}}, {"type": "Feature", "geometry": {"type": "Point", "coordinates": [121.54191597190739, 31.310561460533762]}, "properties": {"name": "\u4e0a\u6d77\u4e3d\u5b89\u5f53\u4ee3\u827a\u672f\u7a7a\u95f4", "cnt": 2, "location": "121.546201,31.308450"}}, {"type": "Feature", "geometry": {"type": "Point", "coordinates": [121.55790081019158, 31.21112461301529]}, "properties": {"name": "\u4e0a\u6d77\u559c\u739b\u62c9\u96c5\u4e2d\u5fc3", "cnt": 2, "location": "121.562140,31.208940"}}, {"type": "Feature", "geometry": {"type": "Point", "coordinates": [121.49334016922708, 31.20369181758073]}, "properties": {"name": "\u4e0a\u6d77\u5f53\u4ee3\u827a\u672f\u535a\u7269\u9986\u8bbe\u8ba1\u4e2d\u5fc3\uff08psD\uff09", "cnt": 2, "location": "121.497777,31.201666"}}, {"type": "Feature", "geometry": {"type": "Point", "coordinates": [121.52114597290115, 31.382611401783986]}, "properties": {"name": "\u4e0a\u6d77\u6708\u6e56\u7f8e\u672f\u9986", "cnt": 2, "location": "121.525500,31.380576"}}, {"type": "Feature", "geometry": {"type": "Point", "coordinates": [121.52925708523357, 31.22796377173636]}, "properties": {"name": "\u4e0a\u6d77\u7ebd\u7ea6\u5927\u5b66\u7f8e\u672f\u9986", "cnt": 2, "location": "121.533572,31.225847"}}, {"type": "Feature", "geometry": {"type": "Point", "coordinates": [121.55543025594896, 31.228983171377468]}, "properties": {"name": "\u4e0a\u6d77\u8bc1\u5927\u73b0\u4ee3\u827a\u672f\u9986", "cnt": 2, "location": "121.559676,31.226811"}}, {"type": "Feature", "geometry": {"type": "Point", "coordinates": [121.43165823515278, 31.189678273336362]}, "properties": {"name": "\u4e0a\u6d77\u97e9\u56fd\u6587\u5316\u9662", "cnt": 2, "location": "121.436275,31.187797"}}, {"type": "Feature", "geometry": {"type": "Point", "coordinates": [121.51491589411248, 31.251546200083446]}, "properties": {"name": "\u4e1c\u5916\u6ee9\u827a\u672f\u7a7a\u95f4", "cnt": 2, "location": "121.519280,31.249479"}}, {"type": "Feature", "geometry": {"type": "Point", "coordinates": [121.37921067957856, 31.222927777395732]}, "properties": {"name": "\u5149\u590d\u827a\u672f\u4e2d\u5fc3", "cnt": 2, "location": "121.383853,31.221081"}}, {"type": "Feature", "geometry": {"type": "Point", "coordinates": [121.49668012501199, 31.251765421434257]}, "properties": {"name": "\u534a\u5c9b\u7f8e\u672f\u9986", "cnt": 2, "location": "121.501109,31.249752"}}, {"type": "Feature", "geometry": {"type": "Point", "coordinates": [121.43855460766022, 31.202803098220656]}, "properties": {"name": "\u534e\u89c6\u5f71\u5eca", "cnt": 2, "location": "121.443159,31.200917"}}, {"type": "Feature", "geometry": {"type": "Point", "coordinates": [121.46192326494527, 31.24201872352199]}, "properties": {"name": "\u5357\u5cb8\u827a\u672f\u4e2d\u5fc3", "cnt": 2, "location": "121.466470,31.240100"}}, {"type": "Feature", "geometry": {"type": "Point", "coordinates": [121.4444809482627, 31.249441488348246]}, "properties": {"name": "\u5764\u753b\u5eca", "cnt": 2, "location": "121.449076,31.247566"}}, {"type": "Feature", "geometry": {"type": "Point", "coordinates": [121.4444809482627, 31.249441488348246]}, "properties": {"name": "\u5927\u5e93\u753b\u5eca", "cnt": 2, "location": "121.449076,31.247566"}}, {"type": "Feature", "geometry": {"type": "Point", "coordinates": [121.38105533888822, 31.346198898592682]}, "properties": {"name": "\u5b9d\u5c71\u56fd\u9645\u6c11\u95f4\u827a\u672f\u535a\u89c8\u9986", "cnt": 2, "location": "121.385710,31.344404"}}, {"type": "Feature", "geometry": {"type": "Point", "coordinates": [121.48142881536293, 31.36764965199521]}, "properties": {"name": "\u5c0f\u5fc3\u6613\u788e\u753b\u5eca", "cnt": 2, "location": "121.485922,31.365726"}}, {"type": "Feature", "geometry": {"type": "Point", "coordinates": [121.44275080047146, 31.250364673536847]}, "properties": {"name": "\u5fb7\u8377\u5f53\u4ee3\u827a\u672f\u4e2d\u5fc3", "cnt": 2, "location": "121.447350,31.248493"}}, {"type": "Feature", "geometry": {"type": "Point", "coordinates": [121.52027036086123, 31.295773511202682]}, "properties": {"name": "\u6709\u5c14\u827a\u672f\u7a7a\u95f4", "cnt": 2, "location": "121.524620,31.293710"}}, {"type": "Feature", "geometry": {"type": "Point", "coordinates": [121.44526278371386, 31.249965828238278]}, "properties": {"name": "\u6bd4\u95f4\u827a\u672f", "cnt": 2, "location": "121.449856,31.248089"}}, {"type": "Feature", "geometry": {"type": "Point", "coordinates": [121.48344940579173, 31.244743141333906]}, "properties": {"name": "\u6d1b\u514b?\u5916\u6ee9\u6e90\u5170\u5fc3MEM", "cnt": 2, "location": "121.487925,31.242766"}}, {"type": "Feature", "geometry": {"type": "Point", "coordinates": [121.4444809482627, 31.249441488348246]}, "properties": {"name": "\u6f3e\u4e0a\u6d77\u827a\u672f\u7a7a\u95f4", "cnt": 2, "location": "121.449076,31.247566"}}, {"type": "Feature", "geometry": {"type": "Point", "coordinates": [121.45826858979102, 31.16952373793408]}, "properties": {"name": "\u74f7\u5c4b", "cnt": 2, "location": "121.462820,31.167579"}}, {"type": "Feature", "geometry": {"type": "Point", "coordinates": [121.44519282389132, 31.235979011879767]}, "properties": {"name": "\u7b51\u9020\u7a7a\u95f4", "cnt": 2, "location": "121.449785,31.234096"}}, {"type": "Feature", "geometry": {"type": "Point", "coordinates": [121.44421828957991, 31.249819795919827]}, "properties": {"name": "\u7c73\u5965\u753b\u5eca", "cnt": 2, "location": "121.448814,31.247945"}}, {"type": "Feature", "geometry": {"type": "Point", "coordinates": [121.59692482591427, 31.260063930728897]}, "properties": {"name": "\u7d22\u7f8e\u753b\u5eca", "cnt": 2, "location": "121.601128,31.257874"}}, {"type": "Feature", "geometry": {"type": "Point", "coordinates": [121.5080938134851, 31.218603609004102]}, "properties": {"name": "\u7fe1\u7fe0\u753b\u5eca", "cnt": 2, "location": "121.512479,31.216541"}}, {"type": "Feature", "geometry": {"type": "Point", "coordinates": [121.54502263098304, 31.26839115122431]}, "properties": {"name": "\u81ea\u5728\u7a7a\u95f4\u753b\u5eca", "cnt": 2, "location": "121.549296,31.266256"}}, {"type": "Feature", "geometry": {"type": "Point", "coordinates": [121.40700679269933, 31.16555378784655]}, "properties": {"name": "\u827a\u672f\u996d\u5e97", "cnt": 2, "location": "121.411650,31.163684"}}, {"type": "Feature", "geometry": {"type": "Point", "coordinates": [121.55697779379958, 31.212981260754113]}, "properties": {"name": "\u8bc1\u5927\u753b\u5eca", "cnt": 2, "location": "121.561219,31.210799"}}, {"type": "Feature", "geometry": {"type": "Point", "coordinates": [121.45711471291634, 31.175678784821844]}, "properties": {"name": "\u963f\u62c9\u91cc\u5965\u753b\u5eca\uff08\u897f\u5cb8\uff09", "cnt": 2, "location": "121.461670,31.173740"}}, {"type": "Feature", "geometry": {"type": "Point", "coordinates": [121.47591944855074, 31.243195056070373]}, "properties": {"name": "\u9999\u6e2f\u5927\u5b66\u4e0a\u6d77\u5b66\u4e60\u4e2d\u5fc3", "cnt": 2, "location": "121.480421,31.241239"}}, {"type": "Feature", "geometry": {"type": "Point", "coordinates": [121.44784637671573, 31.212988293599388]}, "properties": {"name": "140\u5e73\u65b9\u7c73\u753b\u5eca", "cnt": 1, "location": "121.452430,31.211089"}}, {"type": "Feature", "geometry": {"type": "Point", "coordinates": [121.43014862703262, 31.223793533565495]}, "properties": {"name": "166\u827a\u672f\u7a7a\u95f4", "cnt": 1, "location": "121.434771,31.221931"}}, {"type": "Feature", "geometry": {"type": "Point", "coordinates": [121.44439977734837, 31.24917744406474]}, "properties": {"name": "523\u827a\u672f\u4e2d\u5fc3", "cnt": 1, "location": "121.448995,31.247302"}}, {"type": "Feature", "geometry": {"type": "Point", "coordinates": [121.43047284683902, 31.204657150633437]}, "properties": {"name": "6\u53f7\u5730\u4e0b\u5ba4", "cnt": 1, "location": "121.435093,31.202785"}}, {"type": "Feature", "geometry": {"type": "Point", "coordinates": [121.5920027337902, 31.32399834755926]}, "properties": {"name": "929\u7f8e\u672f\u9986", "cnt": 1, "location": "121.596212,31.321834"}}, {"type": "Feature", "geometry": {"type": "Point", "coordinates": [121.44011610661285, 31.22442756795244]}, "properties": {"name": "Alluneednow", "cnt": 1, "location": "121.444719,31.222549"}}, {"type": "Feature", "geometry": {"type": "Point", "coordinates": [121.20744901147494, 31.254477891397155]}, "properties": {"name": "ART ZHOU\u827a\u672f\u4ed3\u50a8\u4e2d\u5fc3", "cnt": 1, "location": "121.211902,31.252491"}}, {"type": "Feature", "geometry": {"type": "Point", "coordinates": [121.44784637671573, 31.212988293599388]}, "properties": {"name": "Aura.a gallery", "cnt": 1, "location": "121.452430,31.211089"}}, {"type": "Feature", "geometry": {"type": "Point", "coordinates": [121.44529092371452, 31.226002832675373]}, "properties": {"name": "BROWNIE Gallery Store", "cnt": 1, "location": "121.449882,31.224115"}}, {"type": "Feature", "geometry": {"type": "Point", "coordinates": [121.43974084753131, 31.217943942520236]}, "properties": {"name": "Gallery Vacancy", "cnt": 1, "location": "121.444344,31.216063"}}, {"type": "Feature", "geometry": {"type": "Point", "coordinates": [121.4361094799919, 31.215250866729225]}, "properties": {"name": "IG gallery", "cnt": 1, "location": "121.440720,31.213375"}}, {"type": "Feature", "geometry": {"type": "Point", "coordinates": [121.40937715993876, 31.268689957039218]}, "properties": {"name": "J.\u6f9c\u7a7a\u95f4", "cnt": 1, "location": "121.414028,31.266868"}}, {"type": "Feature", "geometry": {"type": "Point", "coordinates": [121.43764816427384, 31.20902748448636]}, "properties": {"name": "Le Petit Cochon Vert", "cnt": 1, "location": "121.442255,31.207146"}}, {"type": "Feature", "geometry": {"type": "Point", "coordinates": [121.44439977734837, 31.24917744406474]}, "properties": {"name": "\u675c\u68a6\u5802\u753b\u5eca", "cnt": 4, "location": "121.448995,31.247302"}}, {"type": "Feature", "geometry": {"type": "Point", "coordinates": [121.44421828957991, 31.249819795919827]}, "properties": {"name": "LOH \u753b\u5eca", "cnt": 1, "location": "121.448814,31.247945"}}, {"type": "Feature", "geometry": {"type": "Point", "coordinates": [121.43764816427384, 31.20902748448636]}, "properties": {"name": "Mingo\u827a\u672f\u9910\u5385\u9152\u5427", "cnt": 1, "location": "121.442255,31.207146"}}, {"type": "Feature", "geometry": {"type": "Point", "coordinates": [121.49602092944836, 31.10767402878563]}, "properties": {"name": "OCAT\u6d66\u6c5f\u534e\u4fa8\u57ce\u5c55\u533a", "cnt": 1, "location": "121.500440,31.105590"}}, {"type": "Feature", "geometry": {"type": "Point", "coordinates": [121.44637961405519, 31.248827622005084]}, "properties": {"name": "The Studio Company", "cnt": 1, "location": "121.450970,31.246948"}}, {"type": "Feature", "geometry": {"type": "Point", "coordinates": [121.47774928169586, 31.318270151167518]}, "properties": {"name": "UP\u7f8e\u672f\u9986", "cnt": 1, "location": "121.482251,31.316340"}}, {"type": "Feature", "geometry": {"type": "Point", "coordinates": [121.48352095397725, 31.229523318181286]}, "properties": {"name": "\u4e07\u4e3d\u9152\u5e97", "cnt": 1, "location": "121.487995,31.227539"}}, {"type": "Feature", "geometry": {"type": "Point", "coordinates": [121.46544821296443, 31.241644025510077]}, "properties": {"name": "\u4e09\u5c1a\u827a\u672f\uff08\u4e0a\u6d77\uff09", "cnt": 1, "location": "121.469984,31.239716"}}, {"type": "Feature", "geometry": {"type": "Point", "coordinates": [121.48371508991194, 31.25943340492991]}, "properties": {"name": "\u4e09\u81f3\u559c\u6765\u767b\u9152\u5e97", "cnt": 1, "location": "121.488191,31.257462"}}, {"type": "Feature", "geometry": {"type": "Point", "coordinates": [121.50563559997865, 31.22430467745076]}, "properties": {"name": "\u4e0a\u6d77BA\u827a\u672f\u4e2d\u5fc3", "cnt": 1, "location": "121.510030,31.222252"}}, {"type": "Feature", "geometry": {"type": "Point", "coordinates": [121.44704451128511, 31.234411541602125]}, "properties": {"name": "\u4e0a\u6d77Elica\u65d7\u8230\u5e97", "cnt": 1, "location": "121.451632,31.232524"}}, {"type": "Feature", "geometry": {"type": "Point", "coordinates": [121.4696337338444, 31.217084660798797]}, "properties": {"name": "\u4e0a\u6d77SOHO\u590d\u5174\u5e7f\u573a", "cnt": 1, "location": "121.474154,31.215134"}}, {"type": "Feature", "geometry": {"type": "Point", "coordinates": [121.48545665118625, 31.18412201109448]}, "properties": {"name": "\u4e0a\u6d77\u4e16\u535a\u5c55\u89c8\u9986", "cnt": 1, "location": "121.489920,31.182110"}}, {"type": "Feature", "geometry": {"type": "Point", "coordinates": [121.4101394564549, 31.225131897713045]}, "properties": {"name": "\u4e0a\u6d77\u4f9d\u4e1c\u5916\u56fd\u539f\u521b\u7f8e\u672f\u535a\u7269\u9986", "cnt": 1, "location": "121.414786,31.223290"}}, {"type": "Feature", "geometry": {"type": "Point", "coordinates": [121.52099876646498, 31.29604939920347]}, "properties": {"name": "\u4e0a\u6d77\u5143\u5178\u753b\u5eca", "cnt": 1, "location": "121.525346,31.293984"}}, {"type": "Feature", "geometry": {"type": "Point", "coordinates": [121.4846387619203, 31.242862491374844]}, "properties": {"name": "\u4e0a\u6d77\u534a\u5c9b\u9152\u5e97", "cnt": 1, "location": "121.489110,31.240881"}}, {"type": "Feature", "geometry": {"type": "Point", "coordinates": [121.47101313145716, 31.230193280496028]}, "properties": {"name": "\u4e0a\u6d77\u535a\u7269\u9986", "cnt": 1, "location": "121.475530,31.228245"}}, {"type": "Feature", "geometry": {"type": "Point", "coordinates": [121.48985132727192, 31.183865200409265]}, "properties": {"name": "\u4e0a\u6d77\u5b9d\u9a6c\u54c1\u724c\u4f53\u9a8c\u4e2d\u5fc3", "cnt": 1, "location": "121.494299,31.181840"}}, {"type": "Feature", "geometry": {"type": "Point", "coordinates": [121.40245738039937, 31.207570330707732]}, "properties": {"name": "\u4e0a\u6d77\u5c1a\u5609\u4e2d\u5fc3", "cnt": 1, "location": "121.407106,31.205723"}}, {"type": "Feature", "geometry": {"type": "Point", "coordinates": [121.05194962548183, 31.112058741971417]}, "properties": {"name": "\u4e0a\u6d77\u5e02\u9752\u6d66\u9547\u6731\u5bb6\u89d2\u9547\u5c1a\u90fd\u91cc", "cnt": 1, "location": "121.056504,31.110119"}}, {"type": "Feature", "geometry": {"type": "Point", "coordinates": [121.47764874258668, 31.238675044574098]}, "properties": {"name": "\u4e0a\u6d77\u6735\u4e91\u8f69", "cnt": 1, "location": "121.482144,31.236712"}}, {"type": "Feature", "geometry": {"type": "Point", "coordinates": [121.51023649393908, 31.229040965562717]}, "properties": {"name": "\u4e0a\u6d77\u6e7e", "cnt": 1, "location": "121.514615,31.226977"}}, {"type": "Feature", "geometry": {"type": "Point", "coordinates": [121.44305151475042, 31.25017234282177]}, "properties": {"name": "\u4e0a\u6d77\u7389\u8861\u827a\u672f\u4e2d\u5fc3", "cnt": 1, "location": "121.447650,31.248300"}}, {"type": "Feature", "geometry": {"type": "Point", "coordinates": [121.54788263541788, 31.294203178254243]}, "properties": {"name": "\u4e0a\u6d77\u7406\u5de5\u5927\u5b66\u7f8e\u672f\u9986", "cnt": 1, "location": "121.552151,31.292073"}}, {"type": "Feature", "geometry": {"type": "Point", "coordinates": [121.43331245977573, 31.1874499205513]}, "properties": {"name": "\u4e0a\u6d77\u7535\u5f71\u535a\u7269\u9986", "cnt": 1, "location": "121.437926,31.185565"}}, {"type": "Feature", "geometry": {"type": "Point", "coordinates": [121.44092237389653, 31.207282234100823]}, "properties": {"name": "\u4e0a\u6d77\u81f3\u5c0a\u8861\u5c71\u8c6a\u534e\u7cbe\u9009\u9152\u5e97", "cnt": 1, "location": "121.445522,31.205394"}}, {"type": "Feature", "geometry": {"type": "Point", "coordinates": [121.43830805377841, 31.16848387315739]}, "properties": {"name": "\u4e0b\u6cb3\u8ff7\u4ed3", "cnt": 1, "location": "121.442910,31.166581"}}, {"type": "Feature", "geometry": {"type": "Point", "coordinates": [121.48003446230095, 31.18607514436527]}, "properties": {"name": "\u4e16\u535a\u4e2d\u5fc3", "cnt": 1, "location": "121.484517,31.184080"}}, {"type": "Feature", "geometry": {"type": "Point", "coordinates": [121.17086874941792, 31.179185845391242]}, "properties": {"name": "\u4e21\u5c71\u827a\u672f\u4e2d\u5fc3", "cnt": 1, "location": "121.175381,31.177224"}}, {"type": "Feature", "geometry": {"type": "Point", "coordinates": [121.38086911317707, 31.167223071792343]}, "properties": {"name": "\u4e4b\u79be\u7a7a\u95f4", "cnt": 1, "location": "121.385508,31.165350"}}, {"type": "Feature", "geometry": {"type": "Point", "coordinates": [121.55619737578299, 31.222782339585393]}, "properties": {"name": "\u4e5d\u95f4\u5802\u4f1a\u9986", "cnt": 1, "location": "121.560441,31.220606"}}, {"type": "Feature", "geometry": {"type": "Point", "coordinates": [121.43984758106774, 31.223710413063362]}, "properties": {"name": "\u4f1a\u5fb7\u4e30\u56fd\u9645\u5e7f\u573a\u5317\u9662", "cnt": 1, "location": "121.444451,31.221832"}}, {"type": "Feature", "geometry": {"type": "Point", "coordinates": [121.51104763387545, 31.30863735415077]}, "properties": {"name": "\u521b\u667a\u5929\u5730", "cnt": 1, "location": "121.515430,31.306605"}}, {"type": "Feature", "geometry": {"type": "Point", "coordinates": [121.53867272690671, 31.266807077508407]}, "properties": {"name": "\u534a\u5f20\u56fe\u827a\u672f\u9986", "cnt": 1, "location": "121.542963,31.264685"}}, {"type": "Feature", "geometry": {"type": "Point", "coordinates": [121.47036081613061, 31.24387722389273]}, "properties": {"name": "\u534e\u4fa8\u57ce\u82cf\u6cb3\u6e7e\u89c4\u5212\u5c55\u793a\u4e2d\u5fc3", "cnt": 1, "location": "121.474881,31.241937"}}, {"type": "Feature", "geometry": {"type": "Point", "coordinates": [121.47123055584078, 31.221923748062274]}, "properties": {"name": "\u535c\u77f3\u65b0\u5929\u5730\u827a\u672f\u9986", "cnt": 1, "location": "121.475746,31.219971"}}, {"type": "Feature", "geometry": {"type": "Point", "coordinates": [121.46413869952175, 31.199868327144344]}, "properties": {"name": "\u535c\u77f3\u897f\u5cb8\u9986", "cnt": 1, "location": "121.468675,31.197924"}}, {"type": "Feature", "geometry": {"type": "Point", "coordinates": [121.4122740662068, 31.21308589314899]}, "properties": {"name": "\u53ef\u5f53\u4ee3\u827a\u672f\u4e2d\u5fc3", "cnt": 1, "location": "121.416918,31.211237"}}, {"type": "Feature", "geometry": {"type": "Point", "coordinates": [121.44313671753478, 31.25012153142712]}, "properties": {"name": "\u5609\u4fdd\u827a\u672f", "cnt": 1, "location": "121.447735,31.248249"}}, {"type": "Feature", "geometry": {"type": "Point", "coordinates": [121.31216175789629, 31.383656647607015]}, "properties": {"name": "\u5609\u6e90\u6d77\u827a\u672f\u4e2d\u5fc3", "cnt": 1, "location": "121.316692,31.381766"}}, {"type": "Feature", "geometry": {"type": "Point", "coordinates": [121.44620211519808, 31.22639551165628]}, "properties": {"name": "\u5609\u91cc\u4e2d\u5fc3", "cnt": 1, "location": "121.450791,31.224506"}}, {"type": "Feature", "geometry": {"type": "Point", "coordinates": [121.43318219423327, 31.187703590015442]}, "properties": {"name": "\u5609\u9e9f\u6770\u670d\u88c5\u7f8e\u5b66\u4e2d\u5fc3", "cnt": 1, "location": "121.437796,31.185819"}}, {"type": "Feature", "geometry": {"type": "Point", "coordinates": [121.42986524032196, 31.17653727256789]}, "properties": {"name": "\u571f\u5c71\u6e7e\u7f8e\u672f\u9986", "cnt": 1, "location": "121.434484,31.174652"}}, {"type": "Feature", "geometry": {"type": "Point", "coordinates": [121.44427629747553, 31.251323242253726]}, "properties": {"name": "\u5764art\u753b\u5eca", "cnt": 1, "location": "121.448872,31.249449"}}, {"type": "Feature", "geometry": {"type": "Point", "coordinates": [121.48340071702484, 31.239077566598862]}, "properties": {"name": "\u5916\u6ee9111\u827a\u672f\u7a7a\u95f4", "cnt": 1, "location": "121.487876,31.237098"}}, {"type": "Feature", "geometry": {"type": "Point", "coordinates": [121.48171592493844, 31.237674273329077]}, "properties": {"name": "\u5916\u6ee9\u827a\u672f\u9986", "cnt": 1, "location": "121.486197,31.235699"}}, {"type": "Feature", "geometry": {"type": "Point", "coordinates": [121.48525307563484, 31.241217050353175]}, "properties": {"name": "\u5927\u534e\u94f6\u884c", "cnt": 1, "location": "121.489722,31.239233"}}, {"type": "Feature", "geometry": {"type": "Point", "coordinates": [121.45694476854761, 31.16933562053101]}, "properties": {"name": "\u5927\u7530\u79c0\u5219\u753b\u5eca", "cnt": 1, "location": "121.461500,31.167394"}}, {"type": "Feature", "geometry": {"type": "Point", "coordinates": [121.35510145233216, 31.159615607136967]}, "properties": {"name": "\u5b9d\u9f99\u7f8e\u672f\u9986", "cnt": 1, "location": "121.359705,31.157709"}}, {"type": "Feature", "geometry": {"type": "Point", "coordinates": [121.446836704491, 31.214599402011974]}, "properties": {"name": "\u5bf9\u7167\u7a7a\u95f4", "cnt": 1, "location": "121.451423,31.212703"}}, {"type": "Feature", "geometry": {"type": "Point", "coordinates": [121.44439977734837, 31.24917744406474]}, "properties": {"name": "\u5c0f\u5e73\u753b\u5eca", "cnt": 1, "location": "121.448995,31.247302"}}, {"type": "Feature", "geometry": {"type": "Point", "coordinates": [121.46453603873788, 31.21034627176165]}, "properties": {"name": "\u5c14\u51ac\u5f3a\u827a\u672f\u4e2d\u5fc3", "cnt": 1, "location": "121.469072,31.208406"}}, {"type": "Feature", "geometry": {"type": "Point", "coordinates": [121.43760339894189, 31.216791685343534]}, "properties": {"name": "\u5df4\u989c\u5580\u62c9", "cnt": 1, "location": "121.442211,31.214914"}}, {"type": "Feature", "geometry": {"type": "Point", "coordinates": [121.49675136411922, 31.25197354257535]}, "properties": {"name": "\u5e73\u9601\u6587\u5316\u827a\u672f\u7a7a\u95f4", "cnt": 1, "location": "121.501180,31.249960"}}, {"type": "Feature", "geometry": {"type": "Point", "coordinates": [121.4737932898751, 31.2078096191049]}, "properties": {"name": "\u5f00\u5408\u7a7a\u95f4", "cnt": 1, "location": "121.478299,31.205843"}}, {"type": "Feature", "geometry": {"type": "Point", "coordinates": [121.5091701843564, 31.16429574441888]}, "properties": {"name": "\u5f00\u653e\u827a\u672f\u7a7a\u95f4", "cnt": 1, "location": "121.513547,31.162203"}}, {"type": "Feature", "geometry": {"type": "Point", "coordinates": [121.45526636844717, 31.211461653571558]}, "properties": {"name": "\u5f20\u4e50\u534e\u5de5\u4f5c\u5ba4", "cnt": 1, "location": "121.459830,31.209545"}}, {"type": "Feature", "geometry": {"type": "Point", "coordinates": [121.42692496895846, 31.159015297130097]}, "properties": {"name": "\u5f90\u6c47\u4e07\u79d1\u4e2d\u5fc3", "cnt": 1, "location": "121.431547,31.157125"}}, {"type": "Feature", "geometry": {"type": "Point", "coordinates": [121.46618092365175, 31.190364387907035]}, "properties": {"name": "\u5f90\u6c47\u6ee8\u6c5f\u89c4\u5212\u5c55\u793a\u4e2d\u5fc3", "cnt": 1, "location": "121.470710,31.188410"}}, {"type": "Feature", "geometry": {"type": "Point", "coordinates": [121.45383594021848, 31.170043912900532]}, "properties": {"name": "\u5f90\u9707\u4e13\u5356\u5e97", "cnt": 1, "location": "121.458400,31.168110"}}, {"type": "Feature", "geometry": {"type": "Point", "coordinates": [121.47966887061013, 31.236807718446858]}, "properties": {"name": "\u5fb7\u56fd\u9a7b\u4e0a\u6d77\u603b\u9886\u4e8b\u9986\u6587\u5316\u6559\u80b2\u5904", "cnt": 1, "location": "121.484157,31.234838"}}, {"type": "Feature", "geometry": {"type": "Point", "coordinates": [121.44318787786153, 31.191819143903775]}, "properties": {"name": "\u6148\u827a\u753b\u5eca", "cnt": 1, "location": "121.447781,31.189919"}}, {"type": "Feature", "geometry": {"type": "Point", "coordinates": [121.38386866833045, 31.19254432173949]}, "properties": {"name": "\u65b0\u590d\u539f2009\u827a\u672f\u7a7a\u95f4", "cnt": 1, "location": "121.388512,31.190686"}}, {"type": "Feature", "geometry": {"type": "Point", "coordinates": [121.45042163971726, 31.229062270380968]}, "properties": {"name": "\u65b0\u664b\u754c\u827a\u672f\u7a7a\u95f4", "cnt": 1, "location": "121.455000,31.227165"}}, {"type": "Feature", "geometry": {"type": "Point", "coordinates": [121.41873363282426, 31.16282614030068]}, "properties": {"name": "\u65e0\u5f62\u753b\u5eca", "cnt": 1, "location": "121.423367,31.160947"}}, {"type": "Feature", "geometry": {"type": "Point", "coordinates": [121.62177732823278, 31.21437254935458]}, "properties": {"name": "\u660a\u7f8e\u672f\u9986", "cnt": 1, "location": "121.625990,31.212178"}}, {"type": "Feature", "geometry": {"type": "Point", "coordinates": [121.45381631210114, 31.292732269104977]}, "properties": {"name": "\u660e\u5706\u5f53\u4ee3\u7f8e\u672f\u9986", "cnt": 1, "location": "121.458391,31.290855"}}, {"type": "Feature", "geometry": {"type": "Point", "coordinates": [121.46989013246967, 31.222199938551267]}, "properties": {"name": "\u664b\u601d", "cnt": 1, "location": "121.474410,31.220251"}}, {"type": "Feature", "geometry": {"type": "Point", "coordinates": [121.4454066264963, 31.22111736365004]}, "properties": {"name": "\u6674\u65e5\u5802", "cnt": 1, "location": "121.449997,31.219227"}}, {"type": "Feature", "geometry": {"type": "Point", "coordinates": [121.45357105202477, 31.229948964038886]}, "properties": {"name": "\u6885\u5b50\u827a\u5eca", "cnt": 1, "location": "121.458141,31.228045"}}, {"type": "Feature", "geometry": {"type": "Point", "coordinates": [121.44489593865083, 31.249495296895567]}, "properties": {"name": "\u6bd4\u7ffc\u827a\u672f\u4e2d\u5fc3", "cnt": 1, "location": "121.449490,31.247619"}}, {"type": "Feature", "geometry": {"type": "Point", "coordinates": [121.45589976164435, 31.216091937798907]}, "properties": {"name": "\u6d77\u9cb8\u753b\u5eca", "cnt": 1, "location": "121.460462,31.214176"}}, {"type": "Feature", "geometry": {"type": "Point", "coordinates": [121.47151317725756, 31.225566816638036]}, "properties": {"name": "\u7231\u9a6c\u4ed5\u4e4b\u5bb6", "cnt": 1, "location": "121.476028,31.223615"}}, {"type": "Feature", "geometry": {"type": "Point", "coordinates": [121.45984669775126, 31.2108030816181]}, "properties": {"name": "\u7559\u4e0b\u7a7a\u95f4", "cnt": 1, "location": "121.464397,31.208875"}}, {"type": "Feature", "geometry": {"type": "Point", "coordinates": [121.483947360427, 31.242395665929383]}, "properties": {"name": "\u76ca\u4e30\u5916\u6ee9\u6e90", "cnt": 1, "location": "121.488421,31.240416"}}, {"type": "Feature", "geometry": {"type": "Point", "coordinates": [121.52009878862442, 31.295755046382183]}, "properties": {"name": "\u77e5\u5df1\u753b\u5eca", "cnt": 1, "location": "121.524449,31.293692"}}, {"type": "Feature", "geometry": {"type": "Point", "coordinates": [121.44421828957991, 31.249819795919827]}, "properties": {"name": "\u7d22\u7f8eM50\u827a\u672f\u7a7a\u95f4", "cnt": 1, "location": "121.448814,31.247945"}}, {"type": "Feature", "geometry": {"type": "Point", "coordinates": [121.4444809482627, 31.249441488348246]}, "properties": {"name": "\u7ea2\u5be8\u5f53\u4ee3\u827a\u672f\u753b\u5eca(M50)", "cnt": 1, "location": "121.449076,31.247566"}}, {"type": "Feature", "geometry": {"type": "Point", "coordinates": [121.44290215739926, 31.250291999235664]}, "properties": {"name": "\u7ea2\u679c\u6811\u753b\u5eca", "cnt": 1, "location": "121.447501,31.248420"}}, {"type": "Feature", "geometry": {"type": "Point", "coordinates": [121.42850383657371, 31.212644522618625]}, "properties": {"name": "\u7ec5\u516c\u9986", "cnt": 1, "location": "121.433128,31.210779"}}, {"type": "Feature", "geometry": {"type": "Point", "coordinates": [121.50168570232815, 31.22148926913475]}, "properties": {"name": "\u8001\u7801\u5934", "cnt": 1, "location": "121.506094,31.219447"}}, {"type": "Feature", "geometry": {"type": "Point", "coordinates": [121.48328253277926, 31.259828961386344]}, "properties": {"name": "\u81f3\u7f8e\u7a7a\u95f4", "cnt": 1, "location": "121.487760,31.257859"}}, {"type": "Feature", "geometry": {"type": "Point", "coordinates": [121.44587116965079, 31.204782139728454]}, "properties": {"name": "\u826e\u4e0a", "cnt": 1, "location": "121.450459,31.202883"}}, {"type": "Feature", "geometry": {"type": "Point", "coordinates": [121.44305151475042, 31.25017234282177]}, "properties": {"name": "\u827a\u5b89\u7a7a\u95f4", "cnt": 1, "location": "121.447650,31.248300"}}, {"type": "Feature", "geometry": {"type": "Point", "coordinates": [121.44311983463278, 31.22519689260207]}, "properties": {"name": "\u82ae\u6b27\u767e\u8d27", "cnt": 1, "location": "121.447716,31.223313"}}, {"type": "Feature", "geometry": {"type": "Point", "coordinates": [121.37488003709798, 31.279398359990424]}, "properties": {"name": "\u897f\u90e8M50", "cnt": 1, "location": "121.379523,31.277573"}}, {"type": "Feature", "geometry": {"type": "Point", "coordinates": [121.47142750749272, 31.21839895894039]}, "properties": {"name": "\u8bbe\u5b63\u835f.\u62c9\u6cd5\u8036\u827a\u672f\u8bbe\u8ba1\u4e2d\u5fc3", "cnt": 1, "location": "121.475942,31.216444"}}, {"type": "Feature", "geometry": {"type": "Point", "coordinates": [121.52099876646498, 31.29604939920347]}, "properties": {"name": "\u8c6a\u6d3e\u753b\u5eca", "cnt": 1, "location": "121.525346,31.293984"}}, {"type": "Feature", "geometry": {"type": "Point", "coordinates": [121.3669513018471, 31.1141777111294]}, "properties": {"name": "\u8d44\u672c\u753b\u5eca", "cnt": 1, "location": "121.371570,31.112263"}}, {"type": "Feature", "geometry": {"type": "Point", "coordinates": [121.44421828957991, 31.249819795919827]}, "properties": {"name": "\u9091\u753b\u5eca", "cnt": 1, "location": "121.448814,31.247945"}}, {"type": "Feature", "geometry": {"type": "Point", "coordinates": [121.4681372486811, 31.236173685483276]}, "properties": {"name": "\u91d1\u95e8\u5927\u9152\u5e97", "cnt": 1, "location": "121.472664,31.234236"}}, {"type": "Feature", "geometry": {"type": "Point", "coordinates": [121.49124954918639, 31.240333290112826]}, "properties": {"name": "\u9646\u5bb6\u5634\u4e2d\u5fc3\u7eff\u5730\u89c2\u666f\u7bf7", "cnt": 1, "location": "121.495697,31.238331"}}, {"type": "Feature", "geometry": {"type": "Point", "coordinates": [121.52099876646498, 31.29604939920347]}, "properties": {"name": "\u9676\u827a\u540e\u63f4\u4f1a", "cnt": 1, "location": "121.525346,31.293984"}}, {"type": "Feature", "geometry": {"type": "Point", "coordinates": [121.4444809482627, 31.249441488348246]}, "properties": {"name": "\u96c5\u5de2\u753b\u5eca", "cnt": 1, "location": "121.449076,31.247566"}}, {"type": "Feature", "geometry": {"type": "Point", "coordinates": [121.44620211519808, 31.22639551165628]}, "properties": {"name": "\u9759\u5b89\u5609\u91cc\u4e2d\u5fc3\u5357\u533aB1\u827a\u672f\u7a7a\u95f4", "cnt": 1, "location": "121.450791,31.224506"}}, {"type": "Feature", "geometry": {"type": "Point", "coordinates": [121.4444809482627, 31.249441488348246]}, "properties": {"name": "\u9999\u6d77\u753b\u5eca", "cnt": 1, "location": "121.449076,31.247566"}}, {"type": "Feature", "geometry": {"type": "Point", "coordinates": [121.44255734836923, 31.25042727198284]}, "properties": {"name": "\u9ece\u753b\u5eca", "cnt": 1, "location": "121.447157,31.248556"}}]}